     4.01           OBSERVATION DATA    M                   RINEX VERSION / TYPE
GnssLogger          samsung 15          20250929 131928 UTC PGM / RUN BY / DATE
Google GnssLogger                                           MARKER NAME
Unknown                                                     MARKER NUMBER
Unknown             Unknown                                 OBSERVER / AGENCY
Unknown             GnssLogger          v3.1.0.3            REC # / TYPE / VERS
Unknown             Unknown                                 ANT # / TYPE
        0.0000        0.0000        0.0000                  ANTENNA: DELTA H/E/N
G    8 C1C L1C D1C S1C C5Q L5Q D5Q S5Q                      SYS / # / OBS TYPES
R    4 C1C L1C D1C S1C                                      SYS / # / OBS TYPES
C    8 C2I L2I D2I S2I C5P L5P D5P S5P                      SYS / # / OBS TYPES
E    8 C1C L1C D1C S1C C5Q L5Q D5Q S5Q                      SYS / # / OBS TYPES
  2025    09    29    13    19   28.0000000     GPS         TIME OF FIRST OBS
 6 R01  1 R07  5 R08  6 R10 -7 R11  0 R12 -1                GLONASS SLOT / FRQ #
samsung SM-S711B (Android 15) HW Year: 2021 HW Model:       COMMENT
S.LSI,K040,SPOTNAV_4.6.2_7_E23                              COMMENT
                                                            END OF HEADER
> 2025 09 29 13 19 28.9999999  0 25                      
G07  22417659.77717     26452.87217     -2800.94717        45.90017                                                                
G22  20791246.42017    151702.37217       278.65817        45.20017                                                                
G30  21000163.38907     66917.40007     -1898.82607        43.70007  21000176.28016     56184.84216     -1417.74516        39.30016
G14  20252222.87806    122020.52706      -626.49606        40.60006  20252237.86716     98765.54216      -469.70016        36.30016
G13  22294740.97216    166840.38016      1377.84416        39.60016                                                                
G05  22280287.67825    106837.65925     -1312.22125        33.20025                                                                
G09  23146257.08024     36505.48524     -4468.29124        23.80024                                                                
G21  21511207.60106    793902.52106     -2992.13406        36.10006  21511216.59525   1348054.92625     -2233.93725        32.60025
E30  25580323.01107    723623.58807     -3620.62807        45.30007  25580337.40126    898659.59826     -2705.36026        38.50026
E27  23522695.97607    760931.16507     -1236.44107        43.60007  23522714.56425    889025.30125      -927.09325        31.00025
C21  22323556.72307     67120.40007     -3033.89007        42.90007  22323569.61425    688500.05425     -2291.84725        31.90025
E07  24303106.11007    740947.83707     -2521.01007        42.20007  24303125.59624   1320252.18924     -1897.65724        29.00024
C26  22060313.76306    100060.57406     -1130.29906        41.40006  22060318.25925    708142.91625      -852.65725        34.60025
R08  19240453.61106-103052237.45606     -2226.09306        40.70006
R11  19613375.34306-104828369.64206     -1286.14706        40.40006
E29  23826121.91916    777015.46416      -205.96416        39.10016  23826142.90425    710543.96025      -152.10725        31.10025
R10  20994358.80806-111932135.21306     -4389.65706        36.20006
C09  39219387.48325     91392.10425     -1517.29225        34.50025                                                                
R01  20773263.96925-111065447.92925      1679.48125        33.30025
C14  24497365.32726    943042.90626      1182.77426        35.50026                                                                
R12  22914505.81826-122425608.77426      1609.71526        40.60026
E21  25739989.47625   1928882.92425      1079.19625        33.70025  25739849.17315    965002.85415       804.98715        30.70015
R07  22157838.04825-118633116.49925     -5287.65725        31.80025
C10  38629687.32424   1100914.44124      -513.97824        25.50024                                                                
E19  26360417.46323   1186064.76223       968.88523        22.10023                                                                
> 2025 09 29 13 19 29.9999998  0 26                      
G07  22417866.63407     23651.25007     -2803.82607        45.80007                                                                
G22  20790871.07907    151978.43707       272.54507        44.90007                                                                
G30  21000199.36407     65017.36107     -1902.56407        43.60007  21000213.45506     54766.19406     -1420.50506        39.60006
G14  20252026.51406    121391.66806      -632.09906        40.60006  20252036.10706     98295.89106      -472.00606        36.00006
G13  22294152.77906    168220.65706      1378.90906        39.50006                                                                
G21  21511449.83306    790909.15206     -2996.36406        36.00006  21511463.92325   1345820.64825     -2236.14925        32.50025
G05  22280198.34025    105526.17325     -1313.13625        33.20025                                                                
G17  23724577.41725    171861.49825      1525.57125        33.60025                                                                
G09  23146772.12324     32035.96824     -4472.94124        23.60024                                                                
E30  25580691.15607    720002.25507     -3623.60307        45.30007  25580704.04716    895955.34016     -2705.34516        38.50016
C21  22323821.74007     64083.87007     -3040.08507        43.30007  22323831.33325    686211.54125     -2289.44325        31.60025
E27  23522615.03207    759692.00907     -1242.48907        43.50007  23522627.32425    888093.47625      -936.95825        30.80025
E07  24303263.20107    738424.97607     -2526.10307        42.10007  24303288.68324   1318352.42124     -1903.88824        28.50024
C26  22060208.83506     98928.00806     -1135.49106        41.30006  22060209.73525    707289.10125      -855.97625        33.40025
R08  19240539.95106-103054428.79306     -2232.23106        40.60006
E29  23825831.12016    776809.08316      -208.81416        39.10016  23825862.29925    710388.17225      -158.49725        30.80025
R11  19613286.90426-104829623.56926     -1293.42426        40.10026
R10  20994845.37106-111936450.63506     -4393.15206        36.30006
C09  39219357.50425     89876.16525     -1517.32625        34.40025                                                                
R01  20772649.39415-111063887.60515      1670.30715        33.20015
R12  22913876.55326-122423971.58026      1615.62726        39.20026
C14  24496792.42325    944227.77025      1182.99025        35.00025                                                                
C10  38629469.37524   1100403.11824      -512.55324        25.90024                                                                
R07  22158503.28725-118638406.02825     -5279.05425        31.00025
E19  26359930.60023   1187029.71723       961.20923        22.10023                                                                
E21                                                                  25739326.03505    965807.25205       802.26005        30.70005
> 2025 09 29 13 19 31.0000000  0 26                      
G07  22418187.41207     20844.91907     -2808.68307        45.60007                                                                
G22  20790614.75707    152249.56307       268.65607        44.60007                                                                
G30  21000348.66107     63112.26107     -1906.87807        43.50007  21000362.15206     53343.87406     -1424.15406        39.40006
G14  20251930.88006    120757.59006      -636.68706        40.80006  20251939.57406     97822.37506      -475.44806        35.70006
G13  22293671.61206    169595.98706      1372.85606        39.40006                                                                
G21  21511801.79006    787910.48506     -3001.31206        35.90006  21511818.87825   1343582.36125     -2240.28925        32.20025
G05  22280252.90225    104207.61525     -1322.09325        33.10025                                                                
G17  23724098.94825    173390.14925      1528.64925        32.40025                                                                
G09  23147404.38524     27561.12824     -4477.49624        23.50024                                                                
E30  25581166.02707    716376.00707     -3628.70207        45.20007  25581178.91806    893247.39506     -2709.78706        40.90006
C21  22324187.78607     61042.35207     -3044.01007        43.80007  22324201.57725    683920.38525     -2292.47525        31.20025
E27  23522633.02007    758448.00707     -1246.42407        43.40007  23522656.70425    887161.78825      -931.61825        30.50025
E07  24303535.41307    735897.28007     -2530.11107        42.00007  24303562.69424   1316468.61524     -1875.82424        28.00024
C26  22060202.83906     97790.70906     -1139.66306        41.20006  22060212.43325    706431.32225      -859.75925        32.10025
R08  19240739.61306-103056649.25106     -2236.92706        40.50006
R11  19613319.58116-104830947.07716     -1295.01516        39.90016
R10  20995468.34006-111940916.31706     -4398.20206        36.40006
C09  39219432.15225     88357.44125     -1520.11425        34.20025                                                                
R01  20772100.47425-111062103.17825      1667.74125        33.20025
R12  22913363.90816-122422381.78016      1605.90916        38.20016
E21  25738890.43725   2416631.09225      1075.17825        30.50025  25738904.82705    966608.09605       799.06605        31.60005
E29  23825647.94726    776597.76126      -213.79226        38.50026  23825683.92225    710226.29725      -164.91825        30.50025
R07  22159310.32925-118643877.85425     -5285.78025        30.30025
C14  24496334.94025    945410.46325      1181.60625        34.00025                                                                
C10  38629354.25524   1099889.20424      -515.20924        26.40024                                                                
E19  26359526.77923   1187989.00923       956.46023        22.00023                                                                
> 2025 09 29 13 19 31.9999999  0 26                      
G07  22418416.45307     18035.28607     -2811.28107        45.40007                                                                
G22  20790261.90107    152516.83507       265.34407        44.40007                                                                
G30  21000406.22107     61204.11007     -1909.92607        43.40007  21000419.71206     51918.98306     -1426.17606        40.40006
G14  20251742.91006    120119.73306      -639.74506        40.90006  20251757.00006     97346.10806      -477.64206        35.60006
G13  22293103.80506    170968.11306      1370.52206        39.40006                                                                
G05  22280205.23525    102885.66225     -1323.65025        33.00025                                                                
G17  23723491.56925    174922.37625      1534.01425        31.30025                                                                
G09  23147966.79623     23085.30223     -4476.31623        23.40023                                                                
G21  21512068.00516    784908.00816     -3004.38016        35.70016  21512085.39325   1341341.01725     -2242.87225        32.10025
E30  25581551.26107    712746.23307     -3631.53407        45.60007  25581565.95006    890536.84306     -2711.85306        40.60006
C21  22324469.29207     57997.10407     -3047.11007        44.10007  22324481.88325    681625.54725     -2296.67825        31.10025
E27  23522566.76607    757200.14807     -1249.78507        43.30007  23522592.24825    886224.05425      -940.75725        30.10025
E07  24303712.89007    733366.06807     -2532.96807        41.90007  24303715.88824   1314586.67024     -1881.01324        27.10024
R08  19240848.73806-103058865.11006     -2240.30806        40.50006
C26  22060109.90406     96649.71306     -1142.84506        41.00006  22060127.89125    705571.40725      -860.98325        31.00025
R11  19613256.62506-104832236.94406     -1299.43306        39.70006
R10  20995989.67906-111945318.69106     -4400.97606        36.60006
C09  39219434.85015     86832.71915     -1527.72015        34.10015                                                                
R12  22912762.52526-122420797.32826      1603.84826        37.20026
E21  25738385.88625   2417700.09825      1069.00525        31.00025  25738396.97905    967406.33705       796.93805        32.60005
E29  23825377.83426    776381.51226      -218.71226        37.40026  23825417.70725    710064.52625      -161.71925        30.10025
R07  22159989.05925-118649141.34625     -5295.17625        29.90025
C10  38629150.09624   1099371.23924      -519.99124        27.00024                                                                
C14  24495824.09425    946596.29825      1187.40425        32.80025                                                                
C22  25456513.22323   2446104.75623     -4769.03523        22.90023                                                                
E19  26359034.52023   1188947.78023       958.50923        21.90023                                                                
> 2025 09 29 13 19 33.0000000  0 26                      
G07  22418717.44507     15220.50807     -2817.34807        45.20007                                                                
G22  20789962.40907    152778.31207       258.58107        44.20007                                                                
G30  21000524.04007     59290.77107     -1915.93107        43.30007  21000539.92906     50490.28306     -1430.60306        40.20006
G13  22292601.35306    172334.87406      1364.07906        39.40006                                                                
G21  21512386.08506    781899.77606     -3011.10606        35.60006  21512414.26615   1339094.85315     -2248.57115        32.10015
G05  22280212.43025    101554.73525     -1335.41325        32.90025                                                                
G17  23722999.30925    176451.12025      1527.00125        30.50025                                                                
G09  23148569.37923     18604.50223     -4483.28223        23.30023                                                                
G14  20251622.99306    119476.17706      -646.40506        41.10006  20251634.98505     96865.45705      -482.84305        35.40005
E30  25582001.24907    709111.17407     -3637.69907        45.80007  25582012.34106    887822.38306     -2716.41106        40.60006
C21  22324802.36107     54946.13607     -3053.82507        44.20007  22324822.14725    679324.96625     -2303.44925        31.10025
E27  23522557.47207    755946.79307     -1256.10307        43.10007  23522587.15225    885282.82825      -942.97125        29.80025
E07  24303947.32707    730829.52007     -2539.21407        41.80007  24303970.11224   1312700.44624     -1888.36224        26.70024
R08  19241031.91106-103061157.59006     -2247.31206        40.40006
C26  22060075.12806     95503.26306     -1149.17406        40.80006  22060101.21025    704705.34925      -869.12825        30.20025
R11  19613257.52406-104833550.51406     -1306.37606        39.60006
R10  20996567.37906-111949705.05106     -4407.52306        36.70006
C09  39219486.71425     85303.01725     -1532.19125        33.90025                                                                
E21  25737939.49525   2418762.66925      1059.35325        31.50025  25737950.28805    968200.41305       791.99405        32.60005
R12  22912259.47326-122419418.48826      1592.54626        36.30026
E29  23825147.29426    776158.73826      -226.03726        36.30026  23825213.24825    709892.77025      -176.74925        29.60025
R07  22160723.85025-118654384.92325     -5300.14625        29.70025
C10  38629000.79924   1098846.55824      -528.03824        27.60024                                                                
C14  24495371.40725    947770.76125      1168.77625        31.90025                                                                
R01  20770972.95524-111059013.13324      1650.53624        28.80024
E19  26358621.10623   1189901.21023       950.75823        21.80023                                                                
> 2025 09 29 13 19 33.9999999  0 26                      
G07  22418938.99107     12398.12007     -2826.19107        45.00007                                                                
G30  21000587.59607     57369.76707     -1924.83407        43.20007  21000601.08606     49055.81206     -1437.35506        40.10006
G22  20789591.56507    153031.44707       248.96307        44.00007                                                                
G14  20251443.11806    118824.44306      -655.82306        41.30006  20251454.21006     96378.78606      -489.68106        39.10006
G13  22292032.34706    173694.19706      1355.60206        39.40006                                                                
G21  21512657.69705    778883.17905     -3020.77805        35.40005  21512684.07905   1336842.37805     -2255.62905        32.00005
G05  22280172.55725    100216.74025     -1341.52725        32.80025                                                                
G17  23722392.82925    177968.38225      1511.52025        30.00025                                                                
G09  23149129.09123     14115.22323     -4493.51523        23.30023                                                                
E30  25582381.08607    705468.40607     -3646.61807        45.80007  25582394.87706    885102.17006     -2723.08706        39.80006
C21  22325089.26207     51887.10007     -3063.06707        44.20007  22325103.65225    677020.46625     -2306.45925        31.10025
E27  23522500.21207    754685.38807     -1265.42807        43.00007  23522499.61224    884332.57524      -954.76624        29.00024
E07  24304117.90907    728285.23807     -2548.14607        41.70007  24304148.48824   1310807.79224     -1895.86724        26.30024
C26  22060008.87406     94349.21506     -1157.84606        40.60006  22060019.66625    703837.05825      -869.40725        29.80025
R08  19241150.02906-103063420.19306     -2257.40506        40.30006
R11  19613194.26806-104834841.14806     -1315.30106        39.60006
R10  20997086.32006-111954094.46506     -4416.25806        36.70006
E21  25737421.45425   2419818.73225      1052.80725        32.40025  25737441.24005    968988.58205       785.21505        33.00005
C09  39219484.91615     83766.00415     -1540.66815        33.80015                                                                
R12  22911591.83526-122417478.62526      1587.13426        35.50026
E29  23824932.04325    775932.78625      -227.54025        35.30025  23824955.42724    709726.46024      -163.58624        29.30024
R07  22161402.58025-118659649.94625     -5306.25625        29.60025
C10  38628778.95324   1098314.38424      -535.92024        27.90024                                                                
C14  24494847.07025    948933.61125      1157.04225        31.30025                                                                
R01  20770309.51424-111057094.85324      1652.14424        28.40024
E19  26358139.04023   1190845.46023       939.66023        21.70023                                                                
> 2025 09 29 13 19 35.0000001  0 27                      
G07  22419261.56807      9566.76607     -2835.83407        44.80007                                                                
G30  21000740.79007     55440.53307     -1933.34707        43.40007  21000752.18206     47615.03306     -1443.93106        40.40006
G22  20789348.43407    153276.05507       240.34407        43.80007                                                                
G13  22291564.97106    175045.18006      1346.81106        39.40006                                                                
G21  21513017.14825    775857.54725     -3030.14625        35.30025  21513038.13405   1334583.50905     -2262.06305        31.60005
G05  22280207.33325     98871.55625     -1348.77725        32.70025                                                                
G17  23721860.69825    179478.14025      1506.00425        29.80025                                                                
G09  23149773.04623      9619.11023     -4499.52623        23.30023                                                                
G08  24305014.58923   2331443.02323     -3285.13623        17.60023                                                                
G14  20251342.08806    118163.71106      -665.23006        41.30006  20251363.07306     95885.46006      -496.65206        38.20006
E30  25582861.05407    701816.81807     -3655.99507        45.80007  25582879.94106    882375.39506     -2730.05406        39.70006
C21  22325465.50207     48819.10107     -3072.47707        44.20007  22325477.19425    674708.70125     -2315.39525        30.20025
E27  23522519.99807    753415.14407     -1274.66207        42.80007  23522538.28624    883381.34524      -951.71724        28.80024
C26  22060017.56806     93187.11806     -1166.12106        40.60006  22060030.75825    702966.38225      -871.86825        29.50025
E07  24304387.72227    725730.86227     -2559.42227        41.60027  24304414.40424   1308898.30124     -1917.90824        26.20024
R11  19613231.14306-104836185.30306     -1324.15606        39.70006
R08  19241357.48506-103065680.49706     -2267.20106        40.20006
R10  20997696.39706-111958490.74406     -4425.29506        36.70006
E21  25737035.62115   2420865.44115      1042.78115        33.40015  25737026.92705    969770.29805       778.48905        32.60005
C09  39219555.36725     82219.90725     -1550.63725        33.60025                                                                
E29  23824776.15125    775696.09225      -242.06425        34.70025  23824785.44424    709551.76824      -178.88324        29.00024
R12  22911089.08325-122415940.03625      1580.40225        34.80025
R07  22162146.96525-118664782.46425     -5316.80425        29.60025
C10  38628668.03024   1097775.68624      -541.95924        28.90024                                                                
R01  20769781.57924-111055420.56924      1640.75224        28.50024
C14  24494398.88125    950090.86125      1154.45025        30.80025                                                                
E19  26357742.11523   1191779.27123       928.59023        21.60023                                                                
> 2025 09 29 13 19 36.0000000  0 27                      
G07  22419506.49907      6727.88007     -2842.64807        44.60007                                                                
G30  21000803.44607     53503.01407     -1941.66007        43.50007  21000816.33706     46167.94606     -1450.24106        39.90006
G22  20788994.97807    153510.69707       229.65807        43.60007                                                                
G14  20251174.50406    117494.25406      -673.81806        41.20006  20251186.49506     95385.06506      -503.93106        37.70006
G13  22291004.95806    176387.54106      1338.04906        39.30006                                                                
G21  21513297.45415    772822.82115     -3039.27015        35.10015  21513313.64315   1332317.25815     -2269.94015        31.60015
G05  22280159.96625     97516.17725     -1360.47525        32.70025                                                                
G17  23721249.72125    180977.49425      1494.15125        29.70025                                                                
G09  23150341.45223      5115.94023     -4506.69323        23.20023                                                                
G08  24305353.35423   2328151.45523     -3291.56523        18.00023                                                                
E30  25583267.27307    698156.35607     -3664.89607        45.70007  25583269.97106    879642.58206     -2735.82906        39.50006
C21  22325752.40307     45741.63107     -3082.20407        44.40007  22325757.50024    672397.06424     -2311.57024        29.40024
E27  23522463.03807    752135.74807     -1283.97207        42.70007  23522470.53324    882425.78924      -957.71924        28.40024
E29  23824506.33716    775452.18716      -248.26116        41.00016  23824531.82024    709365.60924      -191.89224        28.70024
E07  24304575.69226    723169.69326     -2564.56226        41.40026  24304596.07824   1306982.86224     -1918.41024        28.70024
R11  19613171.48406-104837495.81606     -1334.61806        40.10006
R08  19241475.30406-103067943.86606     -2277.30306        40.10006
R10  20998226.13106-111962938.88506     -4433.32506        36.60006
C09  39219533.78215     80666.67315     -1556.80115        33.50015                                                                
R12  22910463.11625-122414224.89025      1569.44125        34.30025
R07  22162858.07325-118670222.12025     -5328.08125        29.60025
C14  24493886.23525    951239.84625      1144.85025        30.40025                                                                
R01  20769178.99724-111053828.12424      1630.76724        28.50024
C10  38628436.59024   1097229.02524      -550.64124        28.90024                                                                
E19  26357251.05523   1192702.23523       917.54123        21.50023                                                                
C26  22059936.62407     92015.84807     -1175.85507        41.70007  22059948.91525    702085.27425      -886.32325        32.60025
E21  25736503.48905   2421903.57405      1032.84405        33.40005  25736526.27405    970544.66605       770.69305        31.90005
> 2025 09 29 13 19 36.9999999  0 27                      
G07  22419720.85007      3881.96107     -2849.43407        44.50007                                                                
G30  21000853.51207     51558.51207     -1947.99107        43.70007  21000864.30406     44715.89606     -1454.53006        39.90006
G22  20788626.53307    153738.15407       223.86507        43.40007                                                                
G13  22290434.15416    177723.56116      1332.84816        39.30016                                                                
G21  21513548.98005    769780.64505     -3045.14905        35.10005  21513571.16505   1330045.89205     -2273.92205        31.70005
G05  22280101.20715     96153.69315     -1366.03515        32.70015                                                                
G17  23720626.75225    182472.97325      1493.54025        29.70025                                                                
G09  23150853.79723       607.49323     -4511.08223        23.20023                                                                
G08  24305657.34423   2324847.78723     -3309.71423        18.80023                                                                
G14  20250982.33706    116817.61006      -680.23706        41.10006  20250992.23006     94879.43606      -508.24406        37.30006
E30  25583634.21907    694489.70307     -3669.74507        45.60007  25583645.91006    876904.43206     -2740.81506        39.40006
C21  22326016.82007     42657.59607     -3087.31507        44.50007  22326031.21024    670076.61524     -2324.85424        29.30024
E27  23522377.89707    750849.36107     -1289.88007        42.60007  23522396.18424    881465.21924      -963.07524        28.20024
C26  22059839.19107     90838.09407     -1180.99507        41.90007  22059852.98225    701198.50325      -889.60125        32.00025
R11  19613096.83606-104838821.61606     -1339.76806        40.60006
E07  24304734.28326    720600.34526     -2573.43626        41.30026  24304764.56224   1305064.09224     -1920.43524        28.20024
E29  23824241.02106    775199.81406      -255.60706        41.00006  23824250.31525    709176.07625      -191.22025        32.20025
R08  19241566.74106-103070163.55506     -2283.47906        40.00006
R10  20998763.05906-111967522.78506     -4439.36906        36.60006
E21  25735952.17105   2422934.53405      1028.37305        33.40005  25736007.33315    971314.02115       766.84715        31.40015
C09  39219510.09805     79106.66805     -1563.38805        33.40005                                                                
R12  22909856.63625-122412709.99025      1559.40225        33.80025
C14  24493329.52125    952382.50725      1139.49825        30.30025                                                                
R07  22163515.51725-118675469.52425     -5328.90125        29.60025
R01  20768553.92924-111052213.49424      1625.84024        28.90024
C10  38628200.95324   1096675.26324      -557.31324        28.90024                                                                
E19  26356792.37223   1193612.94323       904.57823        21.90023                                                                
> 2025 09 29 13 19 38.0000001  0 27                      
G30  21001007.90507     49607.02807     -1954.97307        43.80007  21001020.49606     43258.84306     -1459.55206        40.20006
G07  22420066.51107      1029.90007     -2855.12807        44.30007                                                                
G22  20788368.71207    153958.11507       216.21307        43.20007                                                                
G14  20250888.80106    116133.53706      -687.78706        41.10006  20250908.28806     94368.16006      -514.10006        37.10006
G13  22289962.58006    179052.94506      1326.06506        39.30006                                                                
G05  22280150.67325     94783.65025     -1373.82125        32.80025                                                                
G17  23720095.52025    183965.51025      1491.06325        29.70025                                                                
G09  23151492.35523     -3909.00223     -4520.51523        23.40023                                                                
G08  24306105.23323   2321531.57823     -3322.47723        18.80023                                                                
G21  21513916.82505    766731.33305     -3053.12705        35.00005  21513936.61215   1327768.87415     -2279.84115        31.70015
E30  25584114.48607    690816.18307     -3676.95007        45.50007  25584130.37506    874161.43706     -2745.41606        39.40006
C21  22326398.45607     39565.85007     -3095.59907        44.50007  22326414.34524    667747.07324     -2334.08524        29.30024
C26  22059857.77807     89653.58507     -1187.88707        42.10007  22059865.87325    700307.07225      -893.76125        31.40025
E27  23522417.76907    749555.70007     -1297.29707        42.50007  23522429.16124    880499.29524      -968.60124        28.10024
R11  19613133.41006-104840163.47706     -1348.48606        41.00006
E07  24305013.68916    718024.34416     -2580.07516        41.10016  24305039.47124   1303141.07824     -1925.13424        27.70024
R08  19241790.38606-103072509.67006     -2291.15906        39.90006
E29  23824078.53406    774940.72206      -262.70206        40.70006  23824087.22825    708983.58625      -193.96825        31.60025
R10  20999368.93906-111971896.17906     -4446.91706        36.50006
E21  25735709.93925   3080337.74325      1025.30225        33.20025  25735596.31725    972084.28225       770.71425        30.20025
C09  39219595.23905     77539.91205     -1570.13105        33.30005                                                                
R12  22909348.18825-122411140.06325      1558.27525        33.40025
C14  24492887.02725    953518.02525      1131.94625        30.70025                                                                
R07  22164335.45025-118681007.98525     -5340.90125        29.90025
R01  20768038.28624-111050604.98924      1616.29624        29.20024
C10  38628125.10524   1096112.37524      -567.44924        28.80024                                                                
E19  26356387.65323   1194511.28723       892.16223        21.90023                                                                
> 2025 09 29 13 19 39.0000000  0 27                      
G30  21001056.47107     47647.88107     -1962.97707        43.90007  21001070.56106     41795.90806     -1465.87606        40.10006
G07  22420277.56507     -1829.90707     -2863.67807        44.20007                                                                
G22  20788009.56007    154170.06807       207.94807        43.00007                                                                
G14  20250698.43306    115440.37506      -697.70606        41.00006  20250717.92006     93850.80706      -520.39006        36.90006
G13  22289386.67906    180373.90606      1316.74806        39.30006                                                                
G21  21514169.85005    763673.77305     -3061.68205        35.00005  21514198.93025   1325484.37425     -2288.24025        31.60025
G05  22280071.52725     93406.82525     -1380.21525        32.80025                                                                
G17  23719503.72925    185448.27025      1477.87025        30.00025                                                                
G09  23152030.18324     -8434.62124     -4530.17824        23.60024                                                                
G08  24306429.60923   2318201.17423     -3337.49923        18.80023                                                                
E30  25584491.62507    687134.94607     -3685.09107        45.40007  25584505.41516    871412.59116     -2751.76916        38.70016
C21  22326674.26507     36466.27507     -3103.48507        44.40007  22326682.95925    665407.14525     -2345.12025        29.50025
C26  22059761.24527     88460.59827     -1197.22527        42.30027  22059773.83625    699406.89025      -904.55725        30.90025
E27  23522336.52507    748253.77307     -1306.05907        42.40007  23522352.41424    879527.07524      -975.36624        28.40024
R12  22908742.60825-122409632.04425      1547.01025        33.90025
R11  19613063.85806-104841519.09706     -1357.03206        41.20006
E07  24305185.17006    715439.73806     -2588.65606        40.90006  24305209.15424   1301212.20024     -1931.80824        27.30024
R08  19241898.31106-103074818.24006     -2300.64406        39.90006
E29  23823810.81906    774673.85806      -270.74906        40.40006  23823811.71825    708785.57125      -200.77825        31.60025
R10  20999878.28706-111976335.16706     -4455.49606        36.50006
E21  25735192.19725   3081354.90625      1017.66225        33.20025  25735077.37725    972851.71225       766.01325        29.90025
C09  39219595.53925     75964.59125     -1579.60125        33.20025                                                                
C14  24492358.49325    954642.63225      1119.15025        30.80025                                                                
R07  22165004.58725-118686318.96125     -5347.39425        29.90025
R01  20767427.60924-111049068.37724      1606.09524        29.30024
C10  38627923.04524   1095540.68624      -576.08924        28.80024                                                                
E19  26355893.89423   1195402.90823       888.25923        22.00023                                                                
> 2025 09 29 13 19 39.9999999  0 28                      
G07  22420513.20207     -4698.07307     -2872.34307        44.20007                                                                
G22  20787658.80307    154373.94407       199.83807        42.90007                                                                
G14  20250535.34606    114739.66206      -704.48806        40.90006  20250546.73806     93327.25006      -526.65906        36.90006
G13  22288839.25816    181686.73816      1308.76616        39.30016                                                                
G21  21514448.65705    760608.00105     -3069.87505        35.00005  21514479.23625   1323191.37325     -2297.24825        31.60025
G05  22280036.75215     92019.97915     -1391.85415        33.10015                                                                
G17  23718919.43425    186921.77025      1468.87025        30.60025                                                                
G09  23152597.39024    -12971.52824     -4542.54624        23.60024                                                                
G08  24306777.96823   2314858.66623     -3348.55723        18.70023                                                                
G30  21001129.32107     45680.88907     -1970.91207        43.90007  21001141.01306     40327.06106     -1471.80106        40.10006
E30  25584887.35107    683445.71407     -3693.22607        45.40007  25584903.84006    868657.44306     -2758.29606        38.60006
C21  22326961.16607     33358.29907     -3112.17507        44.30007  22326977.05525    663064.39425     -2344.16125        31.20025
E27  23522283.46207    746943.80807     -1313.98207        42.30007  23522296.95324    878550.05824      -979.41624        28.30024
C26  22059683.89917     87259.42117     -1205.27117        42.20017  22059700.08725    698502.29425      -906.80225        30.40025
R12  22908149.61816-122408091.16416      1538.04716        41.30016
R11  19613018.89006-104842907.59806     -1364.70806        41.20006
E07  24305370.74206    712847.04106     -2596.74106        40.90006  24305394.42624   1299276.98824     -1938.37724        26.90024
R08  19242017.02906-103077085.44006     -2309.37706        39.80006
E29  23823550.89926    774397.92326      -280.46926        40.20026  23823558.39425    708581.10125      -207.69825        31.30025
R10  21000400.22506-111980739.83306     -4463.26706        36.40006
E21  25734708.93215   3082364.98715      1006.29015        33.80015  25734582.41925    973612.93725       758.12225        29.50025
C07  38686841.25715    110701.41815      -787.91615        33.80015                                                                
C09  39219597.33825     74384.25425     -1582.84425        33.10025                                                                
C14  24491828.46025    955761.33825      1115.75525        30.90025                                                                
R07  22165683.91625-118691586.28325     -5355.30225        30.10025
R01  20766816.93224-111047431.57324      1598.14224        29.40024
C10  38627714.98924   1094963.50624      -579.92524        28.80024                                                                
E19  26355424.71923   1196287.68223       881.34923        22.10023                                                                
> 2025 09 29 13 19 40.9999999  0 28                      
G07  22420776.12007     -7569.11107     -2872.47007        44.30007                                                                
G30  21001209.96507     43710.71907     -1971.75707        44.10007  21001222.25606     38855.80706     -1472.45606        39.70006
G22  20787333.52807    154573.19907       196.94407        42.80007                                                                
G14  20250371.65906    114034.94706      -706.71606        40.90006  20250387.84806     92800.64006      -528.13506        36.70006
G13  22288302.62906    182997.33906      1309.48406        39.30006                                                                
G21  21514735.85815    757539.39815     -3070.76515        35.00015  21514766.73725   1320899.58125     -2291.18625        31.40025
G05  22279997.17925     90630.80025     -1390.34525        33.10025                                                                
G17  23718355.52425    188390.89725      1466.93925        30.80025                                                                
G09  23153159.80124    -17509.66624     -4538.74824        23.60024                                                                
G08  24307087.95323   2311508.33323     -3354.24323        18.60023                                                                
E30  25585287.27407    679753.01807     -3694.42507        45.30007  25585312.75706    865900.19306     -2758.29906        37.60006
C21  22327266.35527     30246.59427     -3113.56527        44.10027  22327280.44525    660718.86325     -2346.91725        32.30025
R12  22907564.72307-122406531.92907      1536.32407        42.00007
E27  23522234.59607    745630.02307     -1315.69407        42.30007  23522254.68224    877568.06224      -984.48424        28.30024
C26  22059622.74107     86055.17707     -1205.77507        42.20007  22059637.13125    697592.56925      -912.28925        29.70025
R11  19612975.71906-104844242.56806     -1366.70206        41.20006
E07  24305574.30106    710250.68506     -2598.18106        40.80006  24305592.88824   1297342.23724     -1934.51824        26.50024
R08  19242157.63106-103079408.56006     -2311.33906        39.70006
E29  23823318.56026    774123.02826      -274.37626        39.90026  23823320.35915    708374.30715      -207.95515        31.00015
R10  21000943.44906-111985198.64006     -4463.84106        36.40006
C07  38686691.66105    109915.37005      -786.04805        34.20005                                                                
C09  39219587.44525     72798.22325     -1588.87725        33.00025                                                                
C14  24491335.30125    956876.37425      1113.19925        31.10025                                                                
R07  22166388.42925-118696927.13025     -5360.62625        30.40025
R01  20766210.45225-111045757.27925      1593.76725        29.70025
C10  38627524.32124   1094382.67224      -582.66024        28.70024                                                                
E19  26354959.74123   1197170.18923       881.37423        22.10023                                                                
E21  25734221.46905   3083371.98505      1005.45405        34.00005  25734096.15624    974376.89424       765.32424        29.10024
> 2025 09 29 13 19 42.0000001  0 29                      
G07  22421090.30207    -10440.86907     -2872.11507        44.50007                                                                
G30  21001350.56807     41739.54307     -1971.67707        44.20007  21001364.65806     37383.80206     -1472.37906        39.70006
G22  20787058.61907    154771.88107       198.39607        42.70007                                                                
G14  20250270.03006    113329.01306      -706.54206        40.90006  20250288.31716     92273.69716      -527.10916        35.90016
G13  22287810.97006    184306.28906      1308.12306        39.20006                                                                
G21  21515091.41215    754469.07915     -3070.92415        34.90015  21515120.49225   1318608.09025     -2291.33725        31.30025
G05  22280046.34525     89239.60025     -1392.20925        33.10025                                                                
G17  23717841.98025    189860.79025      1470.27425        31.00025                                                                
G09  23153784.26924    -22045.36924     -4534.48224        23.80024                                                                
G08  24307480.68123   2308157.38023     -3351.26023        18.60023                                                                
E30  25585772.03907    676059.65607     -3693.69107        45.20007  25585783.43106    863141.99506     -2758.66806        37.70006
C21  22327634.50017     27133.92217     -3113.15317        43.80017  22327648.59125    658374.24125     -2344.16625        31.90025
E27  23522253.18307    744315.52307     -1314.85707        42.20007  23522272.96914    876586.19614      -981.80014        28.90014
R12  22907041.88507-122404984.16107      1538.39107        41.90007
C26  22059619.14307     84849.58907     -1206.26007        42.00007  22059636.23224    696683.04724      -909.41924        29.40024
E07  24305836.61906    707654.10006     -2596.69806        40.80006  24305851.30924   1295404.96124     -1938.53824        26.50024
R11  19613000.00316-104845618.06616     -1365.82216        41.10016
R08  19242339.90506-103081631.31106     -2311.03506        39.60006
E29  23823126.99226    773843.68226      -281.57026        39.60026  23823140.18305    708166.42305      -208.42905        30.70005
R10  21001533.44126-111989584.99526     -4464.57726        36.40026
C07  38686619.71025    109129.89725      -785.18425        34.20025                                                                
E21  25733799.96105   3084377.65605      1005.00805        34.00005  25733669.25124    975152.22824       781.02124        28.70024
C09  39219651.30025     71211.94425     -1586.40025        32.90025                                                                
C14  24490906.89825    957991.39625      1115.01425        31.10025                                                                
R07  22167131.91425-118702153.85325     -5354.47625        30.50025
R01  20765679.51925-111044163.29625      1601.35725        30.00025
C10  38627409.80124   1093799.07424      -584.98024        28.70024                                                                
C29  26417933.84524   3442859.86424      -173.02924        26.80024                                                                
E19  26354522.94323   1198058.04923       890.53523        22.10023                                                                
> 2025 09 29 13 19 43.0000000  0 29                      
G07  22421329.23707    -13316.01207     -2876.08307        45.00007                                                                
G30  21001420.11907     39765.28307     -1975.80107        44.30007  21001434.50907     35909.44707     -1475.52807        41.50007
G22  20786715.95607    154966.65207       193.56507        42.70007                                                                
G14  20250100.94706    112619.71106      -710.98606        40.90006  20250119.83426     91742.33426      -533.57326        35.70026
G13  22287261.15006    185612.14106      1304.30206        39.20006                                                                
G21  21515389.70625    751395.26225     -3075.56425        34.90025  21515395.40225   1316313.14825     -2296.66725        30.70025
G05  22280015.76625     87841.52625     -1401.50925        33.10025                                                                
G17  23717242.69525    191326.59625      1463.76225        31.30025                                                                
G09  23154339.78424    -26584.80824     -4541.30324        24.20024                                                                
G08  24307809.55423   2304805.89623     -3351.74523        18.50023                                                                
E30  25586159.37007    672363.06107     -3698.20707        45.10007  25586179.75606    860381.30506     -2761.93506        36.70006
C21  22327927.99707     24018.10807     -3117.38107        43.60007  22327937.59025    656025.76525     -2350.40025        30.80025
E27  23522206.41507    742997.70907     -1319.46907        42.10007  23522218.40724    875603.92324      -982.47524        28.70024
C26  22059550.19107     83641.25507     -1209.70607        41.80007  22059563.68224    695771.88524      -911.98324        29.20024
R12  22906462.08607-122403515.88807      1533.72507        41.70007
E07  24306019.79306    705054.40506     -2601.24806        40.80006  24306039.27924   1293466.77224     -1938.64224        26.10024
R11  19612939.14506-104846921.69306     -1372.02406        41.00006
R08  19242481.40706-103084022.63006     -2315.71206        39.50006
R10  21002078.16416-111994114.74116     -4468.68316        36.40016
E29  23822872.46916    773561.36116      -283.80816        38.40016  23822889.55705    707956.37305      -211.13305        30.60005
C07  38686506.68915    108341.49415      -789.86915        34.50015                                                                
E21  25733278.02205   3085380.13005      1000.87305        33.90005                                                                
C09  39219654.59825     69623.40825     -1589.66425        32.80025                                                                
C14  24490408.34325    959103.60625      1110.80425        31.10025                                                                
R07  22167844.52125-118707601.16825     -5362.24425        30.60025
R01  20765067.64325-111042522.66425      1590.27625        30.10025
C10  38627222.13124   1093213.71524      -586.23824        28.70024                                                                
E19  26354029.18523   1198950.32423       894.48223        22.10023                                                                
C29  26417677.52224   3442684.49124      -175.37224        26.50024                                                                
> 2025 09 29 13 19 43.9999999  0 29                      
G07  22421551.08307    -16192.34507     -2877.17607        45.00007                                                                
G30  21001475.58107     37789.82007     -1976.06307        44.40007  21001486.97306     34434.36306     -1475.44706        41.20006
G22  20786355.90507    155160.13207       192.58507        42.60007                                                                
G14  20249911.17806    111908.57506      -712.05206        41.00006  20249929.16626     91210.24026      -532.45926        35.60026
G13  22286681.35226    186916.95826      1304.29926        39.10026                                                                
G21  21515661.61725    748318.36825     -3078.42825        34.80025  21515663.41625   1314018.97725     -2293.78225        30.60025
G05  22279958.80515     86443.49715     -1398.00515        33.00015                                                                
G17  23716655.10125    192791.58525      1464.57925        31.70025                                                                
G09  23154875.21324    -31127.02724     -4543.60424        24.60024                                                                
G08  24308116.84123   2301451.43023     -3355.95523        18.40023                                                                
E30  25586546.70207    668664.77807     -3699.12407        44.90007  25586563.19116    857619.78816     -2761.92616        36.90016
C21  22328202.60707     20900.32207     -3118.77007        43.50007  22328215.19825    653675.76525     -2350.76025        31.50025
E27  23522125.47107    741678.17607     -1320.39107        42.00007  23522144.05924    874619.72124      -985.16724        28.40024
E07  24306193.97206    702452.40706     -2603.14606        40.80006  24306216.75624   1291528.11824     -1938.88624        26.00024
R12  22905847.81207-122401959.71307      1531.70807        41.50007
R08  19242598.62606-103086378.70006     -2317.42706        39.50006
C07  38686315.42106    107552.18406      -789.76106        35.60006                                                                
R10  21002598.00406-111998606.34706     -4468.83006        36.30006
E29  23822609.55116    773277.82516      -284.14316        38.00016  23822619.44405    707745.63605      -211.08105        34.90005
C26  22059465.95026     82432.37926     -1209.14626        41.10026  22059468.34824    694858.94024      -913.83424        28.60024
E21  25732772.87205   3086381.48105      1000.79005        33.80005                                                                
R11  19612886.08226-104848362.94426     -1371.51126        40.50026
C09  39219645.00525     68036.03425     -1586.79325        32.60025                                                                
C14  24489852.22825    960211.95425      1106.41525        31.10025                                                                
R01  20764470.45625-111041057.17625      1591.70725        30.30025
R07  22168567.32025-118713198.60225     -5360.57125        30.60025
C10  38626991.29024   1092629.68824      -583.36124        28.60024                                                                
C29  26417364.23924   3442512.08924      -170.91824        26.20024                                                                
E19  26353551.61623   1199845.85323       897.15523        22.10023                                                                
> 2025 09 29 13 19 44.9999999  0 29                      
G07  22421804.10807    -19072.22007     -2881.64207        45.00007                                                                
G30  21001550.22907     35810.57807     -1981.12807        44.40007  21001569.71606     32956.41606     -1479.37606        40.80006
G22  20786028.23207    155349.74207       187.67507        42.90007                                                                
G14  20249757.98406    111193.20606      -717.48506        41.10006  20249774.47325     90674.60825      -537.40025        35.40025
G13  22286137.22826    188217.87426      1298.96326        39.10026                                                                
G21  21515944.02215    745239.44715     -3079.93315        34.70015  21515953.61525   1311718.39125     -2303.79225        32.30025
G05  22279914.43625     85042.28125     -1402.80925        33.00025                                                                
G17  23716083.99725    194253.54925      1460.45025        31.80025                                                                
G09  23155440.02224    -35673.08524     -4547.97324        25.20024                                                                
G08  24308480.78923   2298093.80023     -3359.20823        18.30023                                                                
E30  25586956.21907    664962.85807     -3703.73407        44.80007  25586975.40606    854855.42206     -2765.78906        36.90006
C21  22328506.59707     17778.48707     -3123.85507        43.40007  22328519.48825    651321.55525     -2356.31225        30.80025
E07  24306402.32806    699846.89406     -2607.26706        41.30006  24306419.71624   1289586.15324     -1943.61924        25.80024
E27  23522083.20107    740354.39807     -1325.89907        41.90007  23522103.58724    873631.41224      -990.36024        28.40024
R12  22905269.51206-122400434.11306      1527.42306        41.30006
R08  19242736.23106-103088684.96806     -2322.91606        39.50006
C07  38686179.91506    106758.65606      -795.63606        36.00006                                                                
R10  21003142.72706-112003071.26506     -4473.74106        36.20006
E29  23822367.31806    772990.80706      -288.75906        37.50006  23822380.20906    707531.88506      -215.25706        38.60006
C26  22059406.29126     81219.33626     -1215.12526        40.30026  22059412.58624    693944.37124      -915.38024        28.40024
R11  19612856.70216-104849772.08616     -1377.49016        39.50016
E21  25732298.90025   3087378.84125       995.36325        33.70025                                                                
C09  39219659.39525     66444.41025     -1593.74725        32.50025                                                                
C14  24489347.07825    961318.29725      1105.34025        31.50025                                                                
R01  20763862.77725-111039373.70925      1588.43125        30.80025
R07  22169268.83525-118718522.59925     -5368.57825        30.60025
C10  38626824.90624   1092041.22824      -590.67724        28.60024                                                                
C29  26417091.42824   3442343.14324      -167.21724        26.00024                                                                
E19  26353111.22123   1200738.66323       891.45123        22.10023                                                                
> 2025 09 29 13 19 45.9999998  0 29                      
G07  22422029.25207    -21952.51207     -2880.49907        44.90007                                                                
G30  21001610.48807     33830.78507     -1980.06707        44.40007  21001624.27826     31478.94326     -1477.23626        40.60026
G22  20785666.98207    155538.07907       187.70007        42.90007                                                                
G14  20249575.71006    110477.17506      -716.36106        41.30006  20249582.30625     90138.93525      -535.69325        34.80025
G13  22285574.21826    189518.20926      1300.04426        39.00026                                                                
G21  21516209.03805    742159.88705     -3079.87505        34.60005  21516215.93425   1309418.02125     -2300.26025        31.90025
G05  22279857.17615     83640.71515     -1401.73815        32.90015                                                                
G17  23715505.99725    195712.07625      1456.80725        31.80025                                                                
G08  24308793.77223   2294734.50423     -3360.12723        18.20023                                                                
G09  23155990.14224    -40219.56624     -4546.68824        25.30024                                                                
E29  23822090.01006    772704.28206      -286.27906        40.80006  23822112.49516    707318.10216      -213.80016        37.70016
E30  25587337.55507    661260.57307     -3702.46507        44.60007  25587354.94306    852090.54106     -2765.13606        36.30006
C21  22328786.30307     14656.30507     -3122.35407        43.40007  22328797.99526    648968.89026     -2351.89026        39.30026
E07  24306569.61216    697239.65016     -2607.35816        41.30016  24306586.40025   1287640.48225     -1947.52225        32.40025
E27  23522021.44317    739029.96617     -1324.00817        41.70017  23522035.23424    872640.78024      -991.79424        28.40024
R08  19242846.55506-103091006.55606     -2322.90206        39.50006
R12  22904663.33206-122398923.03006      1527.30506        41.00006
C07  38685985.94906    105963.94406      -795.30406        36.20006                                                                
R11  19612781.75406-104851098.64506     -1376.87706        38.90006
R10  21003659.86906-112007550.66406     -4472.62006        36.20006
C26  22059310.05716     80005.41416     -1214.36116        39.60016  22059323.84824    693031.08124      -912.65024        28.30024
E21  25731779.36015   3088375.57915       996.42715        33.60015  25731676.53124   2726312.54124       741.81924        25.10024
C14  24488787.06525    962423.67725      1104.89725        32.10025                                                                
C09  39219655.19825     64848.22425     -1598.46625        32.30025                                                                
R01  20763255.69725-111037856.21225      1586.11625        31.00025
R07  22169916.68625-118723720.21625     -5367.49325        30.50025
