NMEA,$GPGGA,131911.000,3154.0051,N,03500.4211,E,1,23,0.6,268.6,M,16.6,M,,*5D,1759151951000
NMEA,$PSAMSA,131911.000,3154.0051,N,03500.4211,E,0,M,,*64,1759151951000
NMEA,$GPGLL,3154.0051,N,03500.4211,E,131911.000,A,A*54,1759151951000
NMEA,$GPVTG,129.7,T,,M,1.1,N,2.0,K,A*02,1759151951000
NMEA,$GPGSV,4,1,12,05,36,284,33,07,39,054,46,09,23,127,24,13,30,317,40*75,1759151951000
NMEA,$GPGSV,4,2,12,14,77,202,41,21,46,240,36,22,59,206,45,30,60,017,44*74,1759151951000
NMEA,$GPGSV,4,3,12*7D,1759151951000
NMEA,$GPGSV,4,4,12,14,77,202,37,21,46,240,33,30,60,017,40,8*5F,1759151951000
NMEA,$GLGSV,2,1,06,65,41,329,33,71,23,148,32,72,78,141,41,74,40,023,36*6D,1759151951000
NMEA,$GLGSV,2,2,06,75,64,286,40,76,16,235,41*6C,1759151951000
NMEA,$GAGSV,4,1,11,107,53,105,42,119,17,312,22,121,34,209,34,127,80,121,44*67,1759151951000
NMEA,$GAGSV,4,2,11,129,62,335,39,130,34,044,45*6B,1759151951000
NMEA,$GAGSV,4,3,11,107,53,105,29,121,34,209,31,127,80,121,31,129,62,335,31,1*74,1759151951000
NMEA,$GAGSV,4,4,11,130,34,044,39,1*7A,1759151951000
NMEA,$BDGSV,3,1,09,207,30,077,35,209,24,062,35,210,35,089,26,214,27,317,36*6E,1759151951000
NMEA,$BDGSV,3,2,09,221,64,178,43,224,24,249,35,226,67,291,41*69,1759151951000
NMEA,$BDGSV,3,3,09,221,64,178,32,226,67,291,35,5*7F,1759151951000
NMEA,$GPGSA,A,3,05,07,13,22,,,,,,,,,1.2,0.6,1.0*36,1759151951000
NMEA,$GNGSA,A,3,65,72,74,75,76,,,,,,,,1.2,0.6,1.0*2E,1759151951000
NMEA,$GAGSA,A,3,107,119,127,129,130,,,,,,,,1.2,0.6,1.0*14,1759151951000
NMEA,$BDGSA,A,3,209,214,221,224,226,,,,,,,,1.2,0.6,1.0*18,1759151951000
NMEA,$PSSGR,GSA,A,3,14,21,30,,,,,,,,,,1.2,0.6,1.0,1,8*44,1759151951000
NMEA,$PSSGR,GSA,A,3,121,,,,,,,,,,,,1.2,0.6,1.0,3,1*78,1759151951000
NMEA,$GPRMC,131911.000,A,3154.0051,N,03500.4211,E,1.1,129.7,290925,,,A*6B,1759151951000
NMEA,$GPGGA,131912.000,3154.0049,N,03500.4209,E,1,23,0.6,265.8,M,16.6,M,,*5D,1759151952000
NMEA,$PSAMSA,131912.000,3154.0049,N,03500.4209,E,0,M,,*67,1759151952000
NMEA,$GPGLL,3154.0049,N,03500.4209,E,131912.000,A,A*57,1759151952000
NMEA,$GPVTG,143.9,T,,M,0.1,N,0.1,K,A*02,1759151952000
NMEA,$GPGSV,4,1,12,05,36,284,33,07,39,054,46,09,23,127,24,13,30,317,40*75,1759151952000
NMEA,$GPGSV,4,2,12,14,77,202,41,17,16,157,35,21,46,240,36,22,59,206,45*73,1759151952000
NMEA,$GPGSV,4,3,12,30,60,017,44*4E,1759151952000
NMEA,$GPGSV,4,4,12,14,77,202,36,21,46,240,33,30,60,017,40,8*5E,1759151952000
NMEA,$GLGSV,2,1,06,65,41,329,33,71,23,148,31,72,78,141,41,74,40,023,36*6E,1759151952000
NMEA,$GLGSV,2,2,06,75,64,286,40,76,16,235,40*6D,1759151952000
NMEA,$GAGSV,4,1,11,107,53,105,42,119,17,312,22,121,34,209,32,127,80,121,44*61,1759151952000
NMEA,$GAGSV,4,2,11,129,62,335,39,130,34,044,45*6B,1759151952000
NMEA,$GAGSV,4,3,11,107,53,105,29,121,34,209,31,127,80,121,31,129,62,335,31,1*74,1759151952000
NMEA,$GAGSV,4,4,11,130,34,044,39,1*7A,1759151952000
NMEA,$BDGSV,3,1,09,207,30,077,35,209,24,062,34,210,35,089,26,214,27,317,35*6C,1759151952000
NMEA,$BDGSV,3,2,09,221,64,178,43,224,24,249,35,226,67,291,41*69,1759151952000
NMEA,$BDGSV,3,3,09,221,64,178,32,226,67,291,34,5*7E,1759151952000
NMEA,$GPGSA,A,3,05,07,13,22,,,,,,,,,1.2,0.6,1.0*36,1759151952000
NMEA,$GNGSA,A,3,65,72,74,75,76,,,,,,,,1.2,0.6,1.0*2E,1759151952000
NMEA,$GAGSA,A,3,107,127,129,130,,,,,,,,,1.2,0.6,1.0*2D,1759151952000
NMEA,$BDGSA,A,3,207,209,214,221,224,226,,,,,,,1.2,0.6,1.0*2D,1759151952000
NMEA,$PSSGR,GSA,A,3,14,21,30,,,,,,,,,,1.2,0.6,1.0,1,8*44,1759151952000
NMEA,$PSSGR,GSA,A,3,121,,,,,,,,,,,,1.2,0.6,1.0,3,1*78,1759151952000
NMEA,$GPRMC,131912.000,A,3154.0049,N,03500.4209,E,0.1,143.9,290925,,,A*6B,1759151952000
NMEA,$GPGGA,131913.000,3154.0049,N,03500.4209,E,1,25,0.6,265.9,M,16.6,M,,*5B,1759151953000
NMEA,$PSAMSA,131913.000,3154.0049,N,03500.4209,E,1,M,,*67,1759151953000
NMEA,$GPGLL,3154.0049,N,03500.4209,E,131913.000,A,A*56,1759151953000
NMEA,$GPVTG,143.9,T,,M,0.0,N,0.0,K,A*02,1759151953000
NMEA,$GPGSV,4,1,12,05,36,284,33,07,39,054,46,09,23,127,24,13,30,317,40*75,1759151953000
NMEA,$GPGSV,4,2,12,14,77,202,41,17,16,157,33,21,46,240,36,22,59,206,45*75,1759151953000
NMEA,$GPGSV,4,3,12,30,60,017,44*4E,1759151953000
NMEA,$GPGSV,4,4,12,14,77,202,36,21,46,240,32,30,60,017,40,8*5F,1759151953000
NMEA,$GLGSV,2,1,06,65,41,329,33,71,23,148,31,72,78,141,41,74,40,023,36*6E,1759151953000
NMEA,$GLGSV,2,2,06,75,64,286,40,76,16,235,39*63,1759151953000
NMEA,$GAGSV,4,1,11,107,53,105,42,119,17,312,22,121,34,209,31,127,80,121,44*62,1759151953000
NMEA,$GAGSV,4,2,11,129,62,335,39,130,34,044,45*6B,1759151953000
NMEA,$GAGSV,4,3,11,107,53,105,28,121,34,209,32,127,80,121,31,129,62,335,31,1*76,1759151953000
NMEA,$GAGSV,4,4,11,130,34,044,41,1*75,1759151953000
NMEA,$BDGSV,3,1,09,207,30,077,35,209,24,062,34,210,35,089,26,214,27,317,35*6C,1759151953000
NMEA,$BDGSV,3,2,09,221,64,178,44,224,24,249,36,226,67,291,41*6D,1759151953000
NMEA,$BDGSV,3,3,09,221,64,178,31,226,67,291,33,5*7A,1759151953000
NMEA,$GPGSA,A,3,05,07,13,22,,,,,,,,,1.0,0.6,0.8*3D,1759151953000
NMEA,$GNGSA,A,3,65,72,74,75,76,,,,,,,,1.0,0.6,0.8*25,1759151953000
NMEA,$GAGSA,A,3,107,119,127,129,,,,,,,,,1.0,0.6,0.8*2D,1759151953000
NMEA,$BDGSA,A,3,207,209,210,214,221,224,226,,,,,,1.0,0.6,0.8*15,1759151953000
NMEA,$PSSGR,GSA,A,3,14,21,30,,,,,,,,,,1.0,0.6,0.8,1,8*4F,1759151953000
NMEA,$PSSGR,GSA,A,3,121,130,,,,,,,,,,,1.0,0.6,0.8,3,1*41,1759151953000
NMEA,$GPRMC,131913.000,A,3154.0049,N,03500.4209,E,0.0,,290925,,,A*4A,1759151953000
NMEA,$GPGGA,131914.000,3154.0049,N,03500.4209,E,1,24,0.6,265.9,M,16.6,M,,*5D,1759151954000
NMEA,$PSAMSA,131914.000,3154.0049,N,03500.4209,E,1,M,,*60,1759151954000
NMEA,$GPGLL,3154.0049,N,03500.4209,E,131914.000,A,A*51,1759151954000
NMEA,$GPVTG,143.9,T,,M,0.0,N,0.0,K,A*02,1759151954000
NMEA,$GPGSV,4,1,12,05,36,284,33,07,39,054,46,09,23,127,24,13,30,317,39*7B,1759151954000
NMEA,$GPGSV,4,2,12,14,77,202,41,17,16,157,32,21,46,240,36,22,59,206,45*74,1759151954000
NMEA,$GPGSV,4,3,12,30,60,017,43*49,1759151954000
NMEA,$GPGSV,4,4,12,14,77,202,36,21,46,240,32,30,60,017,40,8*5F,1759151954000
NMEA,$GLGSV,2,1,06,65,41,329,32,71,23,148,30,72,78,141,41,74,40,023,37*6F,1759151954000
NMEA,$GLGSV,2,2,06,75,64,286,40,76,16,235,38*62,1759151954000
NMEA,$GAGSV,4,1,11,107,53,105,42,119,17,312,22,121,34,209,31,127,80,121,43*65,1759151954000
NMEA,$GAGSV,4,2,11,129,62,335,38,130,34,044,46*69,1759151954000
NMEA,$GAGSV,4,3,11,107,53,105,28,121,34,209,33,127,80,121,30,129,62,335,30,1*77,1759151954000
NMEA,$GAGSV,4,4,11,130,34,044,41,1*75,1759151954000
NMEA,$BDGSV,3,1,10,207,30,077,34,209,24,062,34,210,35,089,27,214,27,317,33*62,1759151954000
NMEA,$BDGSV,3,2,10,221,64,178,44,222,15,152,23,224,24,249,37,226,67,291,41*65,1759151954000
NMEA,$BDGSV,3,3,10,221,64,178,31,226,67,291,32,5*73,1759151954000
NMEA,$GPGSA,A,3,05,07,13,22,,,,,,,,,1.0,0.6,0.8*3D,1759151954000
NMEA,$GNGSA,A,3,72,74,75,76,,,,,,,,,1.0,0.6,0.8*26,1759151954000
NMEA,$GAGSA,A,3,107,119,127,130,,,,,,,,,1.0,0.6,0.8*25,1759151954000
NMEA,$BDGSA,A,3,207,209,210,214,221,224,226,,,,,,1.0,0.6,0.8*15,1759151954000
NMEA,$PSSGR,GSA,A,3,14,21,30,,,,,,,,,,1.0,0.6,0.8,1,8*4F,1759151954000
NMEA,$PSSGR,GSA,A,3,121,129,,,,,,,,,,,1.0,0.6,0.8,3,1*49,1759151954000
NMEA,$GPRMC,131914.000,A,3154.0049,N,03500.4209,E,0.0,,290925,,,A*4D,1759151954000
NMEA,$GPGGA,131915.000,3154.0049,N,03500.4209,E,1,22,0.6,265.9,M,16.6,M,,*5A,1759151955000
NMEA,$PSAMSA,131915.000,3154.0049,N,03500.4209,E,1,M,,*61,1759151955000
NMEA,$GPGLL,3154.0049,N,03500.4209,E,131915.000,A,A*50,1759151955000
NMEA,$GPVTG,143.9,T,,M,0.0,N,0.0,K,A*02,1759151955000
NMEA,$GPGSV,4,1,12,05,36,284,33,07,39,054,45,09,23,127,23,13,30,317,39*7F,1759151955000
NMEA,$GPGSV,4,2,12,14,77,202,41,17,16,157,31,21,46,240,36,22,59,206,44*76,1759151955000
NMEA,$GPGSV,4,3,12,30,60,017,43*49,1759151955000
NMEA,$GPGSV,4,4,12,14,77,202,36,21,46,240,32,30,60,017,40,8*5F,1759151955000
NMEA,$GLGSV,2,1,06,65,41,329,29,71,23,148,30,72,78,141,40,74,40,023,37*64,1759151955000
NMEA,$GLGSV,2,2,06,75,64,286,40,76,16,235,37*6D,1759151955000
NMEA,$GAGSV,4,1,11,107,53,105,42,119,17,312,22,121,34,209,32,127,80,121,43*66,1759151955000
NMEA,$GAGSV,4,2,11,129,62,335,37,130,34,044,46*66,1759151955000
NMEA,$GAGSV,4,3,11,107,53,105,27,121,34,209,33,127,80,121,30,129,62,335,30,1*78,1759151955000
NMEA,$GAGSV,4,4,11,130,34,044,41,1*75,1759151955000
NMEA,$BDGSV,3,1,10,207,30,077,34,209,24,062,34,210,35,089,28,214,27,317,32*6C,1759151955000
NMEA,$BDGSV,3,2,10,221,64,178,44,222,15,152,21,224,24,249,38,226,67,291,41*68,1759151955000
NMEA,$BDGSV,3,3,10,221,64,178,31,226,67,291,31,5*70,1759151955000
NMEA,$GPGSA,A,3,05,07,13,22,,,,,,,,,1.2,0.6,1.0*36,1759151955000
NMEA,$GNGSA,A,3,72,74,75,76,,,,,,,,,1.2,0.6,1.0*2D,1759151955000
NMEA,$GAGSA,A,3,107,127,130,,,,,,,,,,1.2,0.6,1.0*17,1759151955000
NMEA,$BDGSA,A,3,207,209,214,221,224,226,,,,,,,1.2,0.6,1.0*2D,1759151955000
NMEA,$PSSGR,GSA,A,3,14,21,30,,,,,,,,,,1.2,0.6,1.0,1,8*44,1759151955000
NMEA,$PSSGR,GSA,A,3,121,129,,,,,,,,,,,1.2,0.6,1.0,3,1*42,1759151955000
NMEA,$GPRMC,131915.000,A,3154.0049,N,03500.4209,E,0.0,,290925,,,A*4C,1759151955000
NMEA,$GPGGA,131916.000,3154.0049,N,03500.4209,E,1,24,0.6,265.8,M,16.6,M,,*5E,1759151956000
NMEA,$PSAMSA,131916.000,3154.0049,N,03500.4209,E,1,M,,*62,1759151956000
NMEA,$GPGLL,3154.0049,N,03500.4209,E,131916.000,A,A*53,1759151956000
NMEA,$GPVTG,143.9,T,,M,0.0,N,0.0,K,A*02,1759151956000
NMEA,$GPGSV,4,1,12,05,36,284,33,07,39,054,45,09,23,127,23,13,30,317,39*7F,1759151956000
NMEA,$GPGSV,4,2,12,14,77,202,41,17,16,157,30,21,46,240,36,22,59,206,44*77,1759151956000
NMEA,$GPGSV,4,3,12,30,60,017,43*49,1759151956000
NMEA,$GPGSV,4,4,12,14,77,202,39,21,46,240,32,30,60,017,40,8*50,1759151956000
NMEA,$GLGSV,2,1,06,65,41,329,29,71,23,148,30,72,78,141,40,74,40,023,37*64,1759151956000
NMEA,$GLGSV,2,2,06,75,64,286,40,76,16,235,36*6C,1759151956000
NMEA,$GAGSV,4,1,11,107,53,105,42,119,17,312,22,121,34,209,32,127,80,121,43*66,1759151956000
NMEA,$GAGSV,4,2,11,129,62,335,36,130,34,044,46*67,1759151956000
NMEA,$GAGSV,4,3,11,107,53,105,27,121,34,209,33,127,80,121,29,129,62,335,30,1*70,1759151956000
NMEA,$GAGSV,4,4,11,130,34,044,40,1*74,1759151956000
NMEA,$BDGSV,3,1,10,207,30,077,33,209,24,062,34,210,35,089,28,214,27,317,32*6B,1759151956000
NMEA,$BDGSV,3,2,10,221,64,178,44,222,15,152,18,224,24,249,39,226,67,291,41*63,1759151956000
NMEA,$BDGSV,3,3,10,221,64,178,31,226,67,291,30,5*71,1759151956000
NMEA,$GPGSA,A,3,05,07,13,22,,,,,,,,,1.0,0.6,1.0*34,1759151956000
NMEA,$GNGSA,A,3,65,72,74,75,76,,,,,,,,1.0,0.6,1.0*2C,1759151956000
NMEA,$GAGSA,A,3,107,119,127,130,,,,,,,,,1.0,0.6,1.0*2C,1759151956000
NMEA,$BDGSA,A,3,207,209,214,221,224,226,,,,,,,1.0,0.6,1.0*2F,1759151956000
NMEA,$PSSGR,GSA,A,3,14,21,30,,,,,,,,,,1.0,0.6,1.0,1,8*46,1759151956000
NMEA,$PSSGR,GSA,A,3,121,129,,,,,,,,,,,1.0,0.6,1.0,3,1*40,1759151956000
NMEA,$GPRMC,131916.000,A,3154.0049,N,03500.4209,E,0.0,,290925,,,A*4F,1759151956000
NMEA,$GPGGA,131917.000,3154.0049,N,03500.4207,E,1,25,0.6,264.8,M,16.6,M,,*51,1759151957000
NMEA,$PSAMSA,131917.000,3154.0049,N,03500.4207,E,0,M,,*6C,1759151957000
NMEA,$GPGLL,3154.0049,N,03500.4207,E,131917.000,A,A*5C,1759151957000
NMEA,$GPVTG,143.9,T,,M,0.8,N,1.4,K,A*0F,1759151957000
NMEA,$GPGSV,4,1,13,05,36,284,33,07,39,054,45,08,10,046,18,09,23,127,23*72,1759151957000
NMEA,$GPGSV,4,2,13,13,30,317,39,14,77,202,41,17,16,157,30,21,46,240,35*73,1759151957000
NMEA,$GPGSV,4,3,13,22,59,206,44,30,60,017,43*70,1759151957000
NMEA,$GPGSV,4,4,13,14,77,202,39,21,46,240,32,30,60,017,40,8*51,1759151957000
NMEA,$GLGSV,2,1,06,65,41,329,29,71,23,148,30,72,78,141,40,74,40,023,37*64,1759151957000
NMEA,$GLGSV,2,2,06,75,64,286,40,76,16,235,35*6F,1759151957000
NMEA,$GAGSV,4,1,11,107,53,105,42,119,17,312,22,121,34,209,33,127,80,121,43*67,1759151957000
NMEA,$GAGSV,4,2,11,129,62,335,35,130,34,044,46*64,1759151957000
NMEA,$GAGSV,4,3,11,107,53,105,26,121,34,209,33,127,80,121,29,129,62,335,29,1*79,1759151957000
NMEA,$GAGSV,4,4,11,130,34,044,40,1*74,1759151957000
NMEA,$BDGSV,3,1,10,207,30,077,33,209,24,062,34,210,35,089,29,214,27,317,31*69,1759151957000
NMEA,$BDGSV,3,2,10,221,64,178,44,222,15,152,15,224,24,249,40,226,67,291,41*60,1759151957000
NMEA,$BDGSV,3,3,10,221,64,178,31,226,67,291,30,5*71,1759151957000
NMEA,$GPGSA,A,3,05,07,13,22,,,,,,,,,1.0,0.6,0.8*3D,1759151957000
NMEA,$GNGSA,A,3,65,72,74,75,76,,,,,,,,1.0,0.6,0.8*25,1759151957000
NMEA,$GAGSA,A,3,107,119,127,130,,,,,,,,,1.0,0.6,0.8*25,1759151957000
NMEA,$BDGSA,A,3,207,209,210,214,221,224,226,,,,,,1.0,0.6,0.8*15,1759151957000
NMEA,$PSSGR,GSA,A,3,14,21,30,,,,,,,,,,1.0,0.6,0.8,1,8*4F,1759151957000
NMEA,$PSSGR,GSA,A,3,121,129,,,,,,,,,,,1.0,0.6,0.8,3,1*49,1759151957000
NMEA,$GPRMC,131917.000,A,3154.0049,N,03500.4207,E,0.8,143.9,290925,,,A*69,1759151957000
NMEA,$GPGGA,131918.000,3154.0046,N,03500.4204,E,1,27,0.4,263.1,M,16.6,M,,*5C,1759151958000
NMEA,$PSAMSA,131918.000,3154.0046,N,03500.4204,E,0,M,,*6F,1759151958000
NMEA,$GPGLL,3154.0046,N,03500.4204,E,131918.000,A,A*5F,1759151958000
NMEA,$GPVTG,143.9,T,,M,0.6,N,1.2,K,A*07,1759151958000
NMEA,$GPGSV,4,1,13,05,36,284,33,07,39,054,45,08,10,046,18,09,23,127,23*72,1759151958000
NMEA,$GPGSV,4,2,13,13,30,317,39,14,77,202,41,17,16,157,30,21,46,240,35*73,1759151958000
NMEA,$GPGSV,4,3,13,22,59,206,44,30,60,017,44*77,1759151958000
NMEA,$GPGSV,4,4,13,14,77,202,38,21,46,240,32,30,60,017,40,8*50,1759151958000
NMEA,$GLGSV,2,1,06,65,41,329,29,71,23,148,30,72,78,141,40,74,40,023,37*64,1759151958000
NMEA,$GLGSV,2,2,06,75,64,286,40,76,16,235,35*6F,1759151958000
NMEA,$GAGSV,4,1,11,107,53,105,42,119,17,312,22,121,34,209,33,127,80,121,43*67,1759151958000
NMEA,$GAGSV,4,2,11,129,62,335,41,130,34,044,46*67,1759151958000
NMEA,$GAGSV,4,3,11,107,53,105,29,121,34,209,32,127,80,121,29,129,62,335,29,1*77,1759151958000
NMEA,$GAGSV,4,4,11,130,34,044,40,1*74,1759151958000
NMEA,$BDGSV,3,1,10,207,30,077,33,209,24,062,34,210,35,089,29,214,27,317,31*69,1759151958000
NMEA,$BDGSV,3,2,10,221,64,178,44,222,15,152,13,224,24,249,40,226,67,291,42*65,1759151958000
NMEA,$BDGSV,3,3,10,221,64,178,30,226,67,291,33,5*73,1759151958000
NMEA,$GPGSA,A,3,05,07,08,13,22,,,,,,,,1.0,0.4,0.8*37,1759151958000
NMEA,$GNGSA,A,3,65,71,72,74,75,76,,,,,,,1.0,0.4,0.8*21,1759151958000
NMEA,$GAGSA,A,3,107,119,121,127,129,130,,,,,,,1.0,0.4,0.8*2F,1759151958000
NMEA,$BDGSA,A,3,207,209,210,214,221,224,226,,,,,,1.0,0.4,0.8*17,1759151958000
NMEA,$PSSGR,GSA,A,3,14,21,30,,,,,,,,,,1.0,0.4,0.8,1,8*4D,1759151958000
NMEA,$GPRMC,131918.000,A,3154.0046,N,03500.4204,E,0.6,143.9,290925,,,A*64,1759151958000
NMEA,$GPGGA,131919.000,3154.0042,N,03500.4208,E,1,26,0.4,262.1,M,16.6,M,,*55,1759151959000
NMEA,$PSAMSA,131919.000,3154.0042,N,03500.4208,E,0,M,,*66,1759151959000
NMEA,$GPGLL,3154.0042,N,03500.4208,E,131919.000,A,A*56,1759151959000
NMEA,$GPVTG,143.9,T,,M,0.6,N,1.2,K,A*07,1759151959000
NMEA,$GPGSV,4,1,13,05,36,284,33,07,39,054,45,08,10,046,19,09,23,127,23*73,1759151959000
NMEA,$GPGSV,4,2,13,13,30,317,39,14,77,202,41,17,16,157,30,21,46,240,35*73,1759151959000
NMEA,$GPGSV,4,3,13,22,59,206,44,30,60,017,44*77,1759151959000
NMEA,$GPGSV,4,4,13,14,77,202,38,21,46,240,32,30,60,017,40,8*50,1759151959000
NMEA,$GLGSV,2,1,06,65,41,329,29,71,23,148,30,72,78,141,40,74,40,023,37*64,1759151959000
NMEA,$GLGSV,2,2,06,75,64,286,41,76,16,235,34*6F,1759151959000
NMEA,$GAGSV,4,1,11,107,53,105,41,119,17,312,22,121,34,209,33,127,80,121,43*64,1759151959000
NMEA,$GAGSV,4,2,11,129,62,335,41,130,34,044,46*67,1759151959000
NMEA,$GAGSV,4,3,11,107,53,105,28,121,34,209,32,127,80,121,28,129,62,335,32,1*7D,1759151959000
NMEA,$GAGSV,4,4,11,130,34,044,40,1*74,1759151959000
NMEA,$BDGSV,3,1,09,207,30,077,33,209,24,062,34,210,35,089,29,214,27,317,30*60,1759151959000
NMEA,$BDGSV,3,2,09,221,64,178,45,224,24,249,40,226,67,291,42*6E,1759151959000
NMEA,$BDGSV,3,3,09,221,64,178,29,226,67,291,32,5*72,1759151959000
NMEA,$GPGSA,A,3,05,07,08,13,22,,,,,,,,1.0,0.4,0.8*37,1759151959000
NMEA,$GNGSA,A,3,65,71,72,74,75,76,,,,,,,1.0,0.4,0.8*21,1759151959000
NMEA,$GAGSA,A,3,107,127,129,130,,,,,,,,,1.0,0.4,0.8*24,1759151959000
NMEA,$BDGSA,A,3,207,209,210,214,221,224,226,,,,,,1.0,0.4,0.8*17,1759151959000
NMEA,$PSSGR,GSA,A,3,14,21,30,,,,,,,,,,1.0,0.4,0.8,1,8*4D,1759151959000
NMEA,$PSSGR,GSA,A,3,121,,,,,,,,,,,,1.0,0.4,0.8,3,1*71,1759151959000
NMEA,$GPRMC,131919.000,A,3154.0042,N,03500.4208,E,0.6,143.9,290925,,,A*6D,1759151959000
NMEA,$GPGGA,131920.000,3154.0038,N,03500.4207,E,1,25,0.4,260.5,M,16.6,M,,*58,1759151960000
NMEA,$PSAMSA,131920.000,3154.0038,N,03500.4207,E,0,M,,*6E,1759151960000
NMEA,$GPGLL,3154.0038,N,03500.4207,E,131920.000,A,A*5E,1759151960000
NMEA,$GPVTG,143.9,T,,M,0.6,N,1.2,K,A*07,1759151960000
NMEA,$GPGSV,4,1,13,05,36,284,33,07,39,054,44,08,10,046,19,09,23,127,23*72,1759151960000
NMEA,$GPGSV,4,2,13,13,30,317,39,14,77,202,41,17,16,157,30,21,46,240,35*73,1759151960000
NMEA,$GPGSV,4,3,13,22,59,206,43,30,60,017,44*70,1759151960000
NMEA,$GPGSV,4,4,13,14,77,202,37,21,46,240,32,30,60,017,40,8*5F,1759151960000
NMEA,$GLGSV,2,1,06,65,41,329,29,71,23,148,30,72,77,141,40,74,40,023,37*6B,1759151960000
NMEA,$GLGSV,2,2,06,75,64,286,41,76,16,235,34*6F,1759151960000
NMEA,$GAGSV,4,1,11,107,53,105,41,119,17,312,22,121,34,209,33,127,80,121,43*64,1759151960000
NMEA,$GAGSV,4,2,11,129,62,335,41,130,34,044,46*67,1759151960000
NMEA,$GAGSV,4,3,11,107,53,105,28,121,34,209,31,127,80,121,28,129,62,335,32,1*7E,1759151960000
NMEA,$GAGSV,4,4,11,130,34,044,39,1*7A,1759151960000
NMEA,$BDGSV,3,1,09,207,30,077,33,209,24,062,33,210,35,089,29,214,27,317,31*66,1759151960000
NMEA,$BDGSV,3,2,09,221,64,178,45,224,24,249,40,226,67,292,42*6D,1759151960000
NMEA,$BDGSV,3,3,09,221,64,178,29,226,67,292,32,5*71,1759151960000
NMEA,$GPGSA,A,3,05,07,13,17,22,,,,,,,,1.0,0.4,0.8*39,1759151960000
NMEA,$GNGSA,A,3,65,72,74,75,76,,,,,,,,1.0,0.4,0.8*27,1759151960000
NMEA,$GAGSA,A,3,107,119,127,129,130,,,,,,,,1.0,0.4,0.8*1D,1759151960000
NMEA,$BDGSA,A,3,207,209,210,214,221,224,226,,,,,,1.0,0.4,0.8*17,1759151960000
NMEA,$PSSGR,GSA,A,3,14,21,30,,,,,,,,,,1.0,0.4,0.8,1,8*4D,1759151960000
NMEA,$GPRMC,131920.000,A,3154.0038,N,03500.4207,E,0.6,143.9,290925,,,A*65,1759151960000
NMEA,$GPGGA,131921.000,3154.0040,N,03500.4206,E,1,27,0.4,260.1,M,16.6,M,,*51,1759151961000
NMEA,$PSAMSA,131921.000,3154.0040,N,03500.4206,E,0,M,,*61,1759151961000
NMEA,$GPGLL,3154.0040,N,03500.4206,E,131921.000,A,A*51,1759151961000
NMEA,$GPVTG,143.9,T,,M,0.5,N,0.9,K,A*0E,1759151961000
NMEA,$GPGSV,4,1,13,05,36,284,33,07,39,054,44,08,10,046,19,09,23,127,24*75,1759151961000
NMEA,$GPGSV,4,2,13,13,30,317,39,14,77,202,41,17,16,157,30,21,46,240,35*73,1759151961000
NMEA,$GPGSV,4,3,13,22,59,206,43,30,60,017,44*70,1759151961000
NMEA,$GPGSV,4,4,13,14,77,202,37,21,46,240,32,30,60,017,40,8*5F,1759151961000
NMEA,$GLGSV,2,1,06,65,41,329,29,71,23,148,30,72,77,141,40,74,40,023,37*6B,1759151961000
NMEA,$GLGSV,2,2,06,75,64,286,41,76,16,235,34*6F,1759151961000
NMEA,$GAGSV,4,1,11,107,53,105,41,119,17,312,22,121,34,209,33,127,80,121,43*64,1759151961000
NMEA,$GAGSV,4,2,11,129,62,335,41,130,34,044,45*64,1759151961000
NMEA,$GAGSV,4,3,11,107,53,105,27,121,34,209,30,127,80,121,28,129,62,335,32,1*70,1759151961000
NMEA,$GAGSV,4,4,11,130,34,044,39,1*7A,1759151961000
NMEA,$BDGSV,3,1,09,207,30,077,33,209,24,062,33,210,35,089,29,214,27,317,31*66,1759151961000
NMEA,$BDGSV,3,2,09,221,64,178,44,224,24,249,40,226,67,292,42*6C,1759151961000
NMEA,$BDGSV,3,3,09,221,64,178,30,226,67,292,31,5*7A,1759151961000
NMEA,$GPGSA,A,3,05,07,08,13,17,22,,,,,,,0.8,0.4,0.8*38,1759151961000
NMEA,$GNGSA,A,3,65,72,74,75,76,,,,,,,,0.8,0.4,0.8*2E,1759151961000
NMEA,$GAGSA,A,3,107,119,127,129,130,,,,,,,,0.8,0.4,0.8*14,1759151961000
NMEA,$BDGSA,A,3,207,209,210,214,221,224,226,,,,,,0.8,0.4,0.8*1E,1759151961000
NMEA,$PSSGR,GSA,A,3,14,21,30,,,,,,,,,,0.8,0.4,0.8,1,8*44,1759151961000
NMEA,$PSSGR,GSA,A,3,121,,,,,,,,,,,,0.8,0.4,0.8,3,1*78,1759151961000
NMEA,$GPRMC,131921.000,A,3154.0040,N,03500.4206,E,0.5,143.9,290925,,,A*69,1759151961000
NMEA,$GPGGA,131922.000,3154.0039,N,03500.4206,E,1,25,0.4,259.4,M,16.6,M,,*51,1759151962000
NMEA,$PSAMSA,131922.000,3154.0039,N,03500.4206,E,0,M,,*6C,1759151962000
NMEA,$GPGLL,3154.0039,N,03500.4206,E,131922.000,A,A*5C,1759151962000
NMEA,$GPVTG,143.9,T,,M,0.6,N,1.0,K,A*05,1759151962000
NMEA,$GPGSV,4,1,13,05,36,284,33,07,39,054,44,08,10,046,19,09,23,127,24*75,1759151962000
NMEA,$GPGSV,4,2,13,13,30,317,39,14,77,202,41,17,16,157,31,21,46,240,35*72,1759151962000
NMEA,$GPGSV,4,3,13,22,59,206,43,30,60,017,44*70,1759151962000
NMEA,$GPGSV,4,4,13,14,77,202,37,21,46,240,32,30,60,017,40,8*5F,1759151962000
NMEA,$GLGSV,2,1,06,65,41,329,29,71,23,148,30,72,77,141,40,74,40,023,36*6A,1759151962000
NMEA,$GLGSV,2,2,06,75,64,286,41,76,16,235,41*6D,1759151962000
NMEA,$GAGSV,4,1,11,107,53,105,41,119,17,312,22,121,34,209,34,127,80,121,42*62,1759151962000
NMEA,$GAGSV,4,2,11,129,62,335,40,130,34,044,45*65,1759151962000
NMEA,$GAGSV,4,3,11,107,53,105,27,121,34,209,30,127,80,121,28,129,62,335,31,1*73,1759151962000
NMEA,$GAGSV,4,4,11,130,34,044,39,1*7A,1759151962000
NMEA,$BDGSV,3,1,09,207,30,077,34,209,24,062,33,210,35,089,29,214,27,317,31*61,1759151962000
NMEA,$BDGSV,3,2,09,221,64,178,44,224,24,249,39,226,67,292,42*62,1759151962000
NMEA,$BDGSV,3,3,09,221,64,178,31,226,67,292,31,5*7B,1759151962000
NMEA,$GPGSA,A,3,05,07,08,13,17,22,,,,,,,1.0,0.4,0.8*31,1759151962000
NMEA,$GNGSA,A,3,72,74,75,76,,,,,,,,,1.0,0.4,0.8*24,1759151962000
NMEA,$GAGSA,A,3,107,119,127,129,130,,,,,,,,1.0,0.4,0.8*1D,1759151962000
NMEA,$BDGSA,A,3,207,209,210,214,221,224,226,,,,,,1.0,0.4,0.8*17,1759151962000
NMEA,$PSSGR,GSA,A,3,14,21,30,,,,,,,,,,1.0,0.4,0.8,1,8*4D,1759151962000
NMEA,$GPRMC,131922.000,A,3154.0039,N,03500.4206,E,0.6,143.9,290925,,,A*67,1759151962000
NMEA,$GPGGA,131923.000,3154.0039,N,03500.4206,E,1,26,0.4,258.7,M,16.6,M,,*51,1759151963000
NMEA,$PSAMSA,131923.000,3154.0039,N,03500.4206,E,0,M,,*6D,1759151963000
NMEA,$GPGLL,3154.0039,N,03500.4206,E,131923.000,A,A*5D,1759151963000
NMEA,$GPVTG,143.9,T,,M,0.6,N,1.2,K,A*07,1759151963000
NMEA,$GPGSV,4,1,13,05,36,284,33,07,39,054,44,08,10,046,19,09,23,127,24*75,1759151963000
NMEA,$GPGSV,4,2,13,13,30,317,39,14,77,202,41,17,16,157,31,21,46,240,35*72,1759151963000
NMEA,$GPGSV,4,3,13,22,59,206,43,30,60,017,44*70,1759151963000
NMEA,$GPGSV,4,4,13,14,77,202,37,21,46,240,32,30,60,017,40,8*5F,1759151963000
NMEA,$GLGSV,2,1,06,65,41,329,30,71,23,148,30,72,77,141,40,74,40,023,36*62,1759151963000
NMEA,$GLGSV,2,2,06,75,64,286,41,76,16,235,42*6E,1759151963000
NMEA,$GAGSV,4,1,11,107,53,105,41,119,17,312,22,121,34,209,34,127,80,121,42*62,1759151963000
NMEA,$GAGSV,4,2,11,129,62,335,40,130,34,044,45*65,1759151963000
NMEA,$GAGSV,4,3,11,107,53,105,27,121,34,209,29,127,80,121,28,129,62,335,31,1*7B,1759151963000
NMEA,$GAGSV,4,4,11,130,34,044,38,1*7B,1759151963000
NMEA,$BDGSV,3,1,09,207,30,077,34,209,24,062,33,210,35,089,29,214,27,317,31*61,1759151963000
NMEA,$BDGSV,3,2,09,221,64,178,44,224,24,249,38,226,67,292,42*63,1759151963000
NMEA,$BDGSV,3,3,09,221,64,178,32,226,67,292,30,5*79,1759151963000
NMEA,$GPGSA,A,3,05,07,08,13,17,22,,,,,,,1.0,0.4,0.8*31,1759151963000
NMEA,$GNGSA,A,3,65,72,74,75,76,,,,,,,,1.0,0.4,0.8*27,1759151963000
NMEA,$GAGSA,A,3,107,119,127,129,130,,,,,,,,1.0,0.4,0.8*1D,1759151963000
NMEA,$BDGSA,A,3,207,209,210,214,221,224,226,,,,,,1.0,0.4,0.8*17,1759151963000
NMEA,$PSSGR,GSA,A,3,14,21,30,,,,,,,,,,1.0,0.4,0.8,1,8*4D,1759151963000
NMEA,$GPRMC,131923.000,A,3154.0039,N,03500.4206,E,0.6,143.9,290925,,,A*66,1759151963000
NMEA,$GPGGA,131924.000,3154.0038,N,03500.4203,E,1,25,0.6,258.6,M,16.6,M,,*52,1759151964000
NMEA,$PSAMSA,131924.000,3154.0038,N,03500.4203,E,0,M,,*6E,1759151964000
NMEA,$GPGLL,3154.0038,N,03500.4203,E,131924.000,A,A*5E,1759151964000
NMEA,$GPVTG,143.9,T,,M,0.2,N,0.4,K,A*04,1759151964000
NMEA,$GPGSV,4,1,13,05,36,284,33,07,39,054,45,08,10,046,19,09,23,127,24*74,1759151964000
NMEA,$GPGSV,4,2,13,13,30,317,39,14,77,202,41,17,16,157,31,21,46,240,35*72,1759151964000
NMEA,$GPGSV,4,3,13,22,59,206,43,30,60,017,44*70,1759151964000
NMEA,$GPGSV,4,4,13,14,77,202,36,21,46,240,31,30,60,017,40,8*5D,1759151964000
NMEA,$GLGSV,2,1,06,65,41,329,30,71,23,148,31,72,77,141,40,74,40,023,36*63,1759151964000
NMEA,$GLGSV,2,2,06,75,64,286,41,76,16,235,42*6E,1759151964000
NMEA,$GAGSV,4,1,11,107,53,105,41,119,17,313,22,121,34,209,34,127,80,120,42*62,1759151964000
NMEA,$GAGSV,4,2,11,129,62,335,40,130,34,044,45*65,1759151964000
NMEA,$GAGSV,4,3,11,107,53,105,27,121,34,209,29,127,80,120,29,129,62,335,31,1*7B,1759151964000
NMEA,$GAGSV,4,4,11,130,34,044,38,1*7B,1759151964000
NMEA,$BDGSV,3,1,10,207,30,077,34,209,24,062,33,210,35,089,29,214,27,317,31*69,1759151964000
NMEA,$BDGSV,3,2,10,221,64,178,44,224,24,249,37,226,67,292,42,229,05,081,27*64,1759151964000
NMEA,$BDGSV,3,3,10,221,64,178,32,226,67,292,30,5*71,1759151964000
NMEA,$GPGSA,A,3,05,07,08,13,22,,,,,,,,1.0,0.6,0.8*35,1759151964000
NMEA,$GNGSA,A,3,65,72,74,75,76,,,,,,,,1.0,0.6,0.8*25,1759151964000
NMEA,$GAGSA,A,3,107,119,127,129,130,,,,,,,,1.0,0.6,0.8*1F,1759151964000
NMEA,$BDGSA,A,3,207,209,210,214,221,224,226,,,,,,1.0,0.6,0.8*15,1759151964000
NMEA,$PSSGR,GSA,A,3,14,21,30,,,,,,,,,,1.0,0.6,0.8,1,8*4F,1759151964000
NMEA,$GPRMC,131924.000,A,3154.0038,N,03500.4203,E,0.2,143.9,290925,,,A*61,1759151964000
NMEA,$GPGGA,131925.000,3154.0039,N,03500.4204,E,1,26,0.6,257.5,M,16.6,M,,*5A,1759151965000
NMEA,$PSAMSA,131925.000,3154.0039,N,03500.4204,E,0,M,,*69,1759151965000
NMEA,$GPGLL,3154.0039,N,03500.4204,E,131925.000,A,A*59,1759151965000
NMEA,$GPVTG,143.9,T,,M,0.5,N,0.9,K,A*0E,1759151965000
NMEA,$GPGSV,4,1,13,05,36,284,33,07,39,054,45,08,10,046,19,09,23,127,24*74,1759151965000
NMEA,$GPGSV,4,2,13,13,30,317,39,14,77,202,41,17,16,157,31,21,46,240,35*72,1759151965000
NMEA,$GPGSV,4,3,13,22,59,206,43,30,60,017,44*70,1759151965000
NMEA,$GPGSV,4,4,13,14,77,202,36,21,46,240,31,30,60,017,42,8*5F,1759151965000
NMEA,$GLGSV,2,1,06,65,41,329,30,71,23,148,31,72,77,141,40,74,40,023,36*63,1759151965000
NMEA,$GLGSV,2,2,06,75,64,286,41,76,16,235,42*6E,1759151965000
NMEA,$GAGSV,3,1,10,107,53,105,41,119,17,313,22,121,34,209,34,127,80,120,42*64,1759151965000
NMEA,$GAGSV,3,2,10,129,62,335,39,130,34,044,45*6D,1759151965000
NMEA,$GAGSV,3,3,10,107,53,105,26,127,80,120,29,129,62,335,31,130,34,044,37,1*78,1759151965000
NMEA,$BDGSV,3,1,10,207,30,077,35,209,24,062,33,210,35,089,29,214,27,317,31*68,1759151965000
NMEA,$BDGSV,3,2,10,221,64,178,44,224,24,249,37,226,67,292,42,229,05,081,27*64,1759151965000
NMEA,$BDGSV,3,3,10,221,64,178,31,226,67,292,29,5*7A,1759151965000
NMEA,$GPGSA,A,3,05,07,08,13,22,,,,,,,,1.0,0.6,0.8*35,1759151965000
NMEA,$GNGSA,A,3,65,72,74,75,76,,,,,,,,1.0,0.6,0.8*25,1759151965000
NMEA,$GAGSA,A,3,107,119,127,130,,,,,,,,,1.0,0.6,0.8*25,1759151965000
NMEA,$BDGSA,A,3,207,209,210,214,221,224,226,229,,,,,1.0,0.6,0.8*2C,1759151965000
NMEA,$PSSGR,GSA,A,3,14,21,30,,,,,,,,,,1.0,0.6,0.8,1,8*4F,1759151965000
NMEA,$PSSGR,GSA,A,3,129,,,,,,,,,,,,1.0,0.6,0.8,3,1*7B,1759151965000
NMEA,$GPRMC,131925.000,A,3154.0039,N,03500.4204,E,0.5,143.9,290925,,,A*61,1759151965000
NMEA,$GPGGA,131926.000,3154.0038,N,03500.4206,E,1,26,0.6,256.6,M,16.6,M,,*58,1759151966000
NMEA,$PSAMSA,131926.000,3154.0038,N,03500.4206,E,0,M,,*69,1759151966000
NMEA,$GPGLL,3154.0038,N,03500.4206,E,131926.000,A,A*59,1759151966000
NMEA,$GPVTG,143.9,T,,M,0.8,N,1.5,K,A*0E,1759151966000
NMEA,$GPGSV,4,1,13,05,36,284,33,07,39,055,45,08,10,046,18,09,23,127,25*75,1759151966000
NMEA,$GPGSV,4,2,13,13,30,317,39,14,77,202,41,17,16,157,32,21,46,240,35*71,1759151966000
NMEA,$GPGSV,4,3,13,22,59,206,43,30,60,017,44*70,1759151966000
NMEA,$GPGSV,4,4,13,14,77,202,36,21,46,240,31,30,60,017,41,8*5C,1759151966000
NMEA,$GLGSV,2,1,06,65,41,329,30,71,23,148,31,72,77,141,40,74,40,023,36*63,1759151966000
NMEA,$GLGSV,2,2,06,75,64,286,41,76,16,235,42*6E,1759151966000
NMEA,$GAGSV,3,1,11,107,53,105,41,119,17,313,22,121,34,209,34,127,80,120,42*65,1759151966000
NMEA,$GAGSV,3,2,11,129,62,335,38,130,34,044,45*6D,1759151966000
NMEA,$GAGSV,3,3,11,107,53,105,26,127,80,120,29,129,62,335,35,130,34,044,37,1*7D,1759151966000
NMEA,$BDGSV,3,1,10,207,30,077,36,209,24,062,33,210,35,089,29,214,27,317,31*6B,1759151966000
NMEA,$BDGSV,3,2,10,221,64,178,44,224,24,249,36,226,67,292,42,229,05,081,26*64,1759151966000
NMEA,$BDGSV,3,3,10,221,64,178,32,226,67,292,29,5*79,1759151966000
NMEA,$GPGSA,A,3,05,07,08,13,22,,,,,,,,1.0,0.6,0.8*35,1759151966000
NMEA,$GNGSA,A,3,65,72,74,75,76,,,,,,,,1.0,0.6,0.8*25,1759151966000
NMEA,$GAGSA,A,3,107,119,127,130,,,,,,,,,1.0,0.6,0.8*25,1759151966000
NMEA,$BDGSA,A,3,207,209,210,214,221,224,226,229,,,,,1.0,0.6,0.8*2C,1759151966000
NMEA,$PSSGR,GSA,A,3,14,21,30,,,,,,,,,,1.0,0.6,0.8,1,8*4F,1759151966000
NMEA,$PSSGR,GSA,A,3,129,,,,,,,,,,,,1.0,0.6,0.8,3,1*7B,1759151966000
NMEA,$GPRMC,131926.000,A,3154.0038,N,03500.4206,E,0.8,143.9,290925,,,A*6C,1759151966000
NMEA,$GPGGA,131927.000,3154.0038,N,03500.4205,E,1,25,0.6,255.5,M,16.6,M,,*59,1759151967000
NMEA,$PSAMSA,131927.000,3154.0038,N,03500.4205,E,0,M,,*6B,1759151967000
NMEA,$GPGLL,3154.0038,N,03500.4205,E,131927.000,A,A*5B,1759151967000
NMEA,$GPVTG,143.9,T,,M,0.7,N,1.3,K,A*07,1759151967000
NMEA,$GPGSV,4,1,13,05,36,284,33,07,39,055,45,08,10,046,18,09,22,127,25*74,1759151967000
NMEA,$GPGSV,4,2,13,13,30,317,39,14,77,202,41,17,16,157,32,21,46,240,35*71,1759151967000
NMEA,$GPGSV,4,3,13,22,59,206,43,30,60,017,44*70,1759151967000
NMEA,$GPGSV,4,4,13,14,77,202,36,21,46,240,32,30,60,017,41,8*5F,1759151967000
NMEA,$GLGSV,2,1,06,65,41,329,31,71,23,148,31,72,77,141,40,74,40,023,36*62,1759151967000
NMEA,$GLGSV,2,2,06,75,64,286,40,76,16,235,41*6C,1759151967000
NMEA,$GAGSV,3,1,11,107,53,105,41,119,17,313,22,121,34,209,34,127,80,120,42*65,1759151967000
NMEA,$GAGSV,3,2,11,129,62,335,38,130,34,044,45*6D,1759151967000
NMEA,$GAGSV,3,3,11,107,53,105,26,127,80,120,28,129,62,335,39,130,34,044,37,1*70,1759151967000
NMEA,$BDGSV,3,1,10,207,30,077,36,209,24,062,33,210,35,089,29,214,27,317,32*68,1759151967000
NMEA,$BDGSV,3,2,10,221,64,178,43,224,24,249,35,226,67,292,41,229,05,081,26*63,1759151967000
NMEA,$BDGSV,3,3,10,221,64,178,31,226,67,292,29,5*7A,1759151967000
NMEA,$GPGSA,A,3,05,07,13,22,,,,,,,,,1.0,0.6,0.8*3D,1759151967000
NMEA,$GNGSA,A,3,65,72,74,75,76,,,,,,,,1.0,0.6,0.8*25,1759151967000
NMEA,$GAGSA,A,3,107,119,127,130,,,,,,,,,1.0,0.6,0.8*25,1759151967000
NMEA,$BDGSA,A,3,207,209,210,214,221,224,226,229,,,,,1.0,0.6,0.8*2C,1759151967000
NMEA,$PSSGR,GSA,A,3,14,21,30,,,,,,,,,,1.0,0.6,0.8,1,8*4F,1759151967000
NMEA,$PSSGR,GSA,A,3,129,,,,,,,,,,,,1.0,0.6,0.8,3,1*7B,1759151967000
NMEA,$GPRMC,131927.000,A,3154.0038,N,03500.4205,E,0.7,143.9,290925,,,A*61,1759151967000
NMEA,$GPGGA,131928.000,3154.0043,N,03500.4203,E,1,24,0.6,255.3,M,16.6,M,,*5B,1759151968000
NMEA,$PSAMSA,131928.000,3154.0043,N,03500.4203,E,0,M,,*6E,1759151968000
NMEA,$GPGLL,3154.0043,N,03500.4203,E,131928.000,A,A*5E,1759151968000
NMEA,$GPVTG,143.9,T,,M,0.8,N,1.5,K,A*0E,1759151968000
NMEA,$GPGSV,4,1,13,05,36,284,33,07,39,055,45,08,10,046,18,09,22,127,25*74,1759151968000
NMEA,$GPGSV,4,2,13,13,30,317,39,14,77,203,41,17,16,157,32,21,46,240,35*70,1759151968000
NMEA,$GPGSV,4,3,13,22,59,206,43,30,60,017,44*70,1759151968000
NMEA,$GPGSV,4,4,13,14,77,203,35,21,46,240,32,30,60,017,41,8*5D,1759151968000
NMEA,$GLGSV,2,1,06,65,41,329,31,71,23,148,31,72,77,141,40,74,40,023,36*62,1759151968000
NMEA,$GLGSV,2,2,06,75,64,286,39,76,16,235,41*62,1759151968000
NMEA,$GAGSV,4,1,11,107,53,105,41,119,17,313,22,121,34,209,34,127,80,120,42*62,1759151968000
NMEA,$GAGSV,4,2,11,129,62,335,41,130,34,044,45*64,1759151968000
NMEA,$GAGSV,4,3,11,107,53,105,32,121,34,209,25,127,80,120,28,129,62,335,38,1*7B,1759151968000
NMEA,$GAGSV,4,4,11,130,34,044,37,1*74,1759151968000
NMEA,$BDGSV,3,1,10,207,30,077,36,209,24,062,32,210,35,089,29,214,27,317,32*69,1759151968000
NMEA,$BDGSV,3,2,10,221,64,178,43,224,24,249,35,226,67,292,40,229,05,081,26*62,1759151968000
NMEA,$BDGSV,3,3,10,221,64,178,39,226,67,292,28,5*73,1759151968000
NMEA,$GPGSA,A,3,05,07,13,22,,,,,,,,,1.0,0.6,0.8*3D,1759151968000
NMEA,$GNGSA,A,3,65,72,74,75,76,,,,,,,,1.0,0.6,0.8*25,1759151968000
NMEA,$GAGSA,A,3,107,119,127,129,130,,,,,,,,1.0,0.6,0.8*1F,1759151968000
NMEA,$BDGSA,A,3,207,209,214,224,226,229,,,,,,,1.0,0.6,0.8*2E,1759151968000
NMEA,$PSSGR,GSA,A,3,14,21,30,,,,,,,,,,1.0,0.6,0.8,1,8*4F,1759151968000
NMEA,$PSSGR,GSA,A,3,221,,,,,,,,,,,,1.0,0.6,0.8,4,5*73,1759151968000
NMEA,$GPRMC,131928.000,A,3154.0043,N,03500.4203,E,0.8,143.9,290925,,,A*6B,1759151968000
NMEA,$GPGGA,131929.000,3154.0046,N,03500.4197,E,1,28,0.4,256.0,M,16.6,M,,*5F,1759151969000
NMEA,$PSAMSA,131929.000,3154.0046,N,03500.4197,E,0,M,,*64,1759151969000
NMEA,$GPGLL,3154.0046,N,03500.4197,E,131929.000,A,A*54,1759151969000
NMEA,$GPVTG,143.9,T,,M,1.1,N,2.0,K,A*00,1759151969000
NMEA,$GPGSV,4,1,13,05,36,284,33,07,39,055,45,08,10,046,18,09,22,127,25*74,1759151969000
NMEA,$GPGSV,4,2,13,13,30,317,39,14,77,203,42,17,16,157,32,21,46,240,35*73,1759151969000
NMEA,$GPGSV,4,3,13,22,59,206,43,30,60,017,44*70,1759151969000
NMEA,$GPGSV,4,4,13,14,77,203,35,21,46,240,32,30,60,017,40,8*5C,1759151969000
NMEA,$GLGSV,2,1,06,65,41,329,31,71,23,148,31,72,77,141,39,74,40,023,36*6C,1759151969000
NMEA,$GLGSV,2,2,06,75,64,286,39,76,16,235,41*62,1759151969000
NMEA,$GAGSV,4,1,11,107,53,105,41,119,17,313,22,121,34,209,34,127,80,120,42*62,1759151969000
NMEA,$GAGSV,4,2,11,129,62,335,44,130,34,044,45*61,1759151969000
NMEA,$GAGSV,4,3,11,107,53,105,32,121,34,209,29,127,80,120,29,129,62,335,37,1*79,1759151969000
NMEA,$GAGSV,4,4,11,130,34,044,36,1*75,1759151969000
NMEA,$BDGSV,3,1,10,207,30,077,37,209,24,062,32,210,35,089,29,214,27,317,32*68,1759151969000
NMEA,$BDGSV,3,2,10,221,64,178,43,224,24,249,35,226,67,292,39,229,05,081,26*6C,1759151969000
NMEA,$BDGSV,3,3,10,221,64,178,39,226,67,292,32,5*78,1759151969000
NMEA,$GPGSA,A,3,05,07,08,09,13,17,22,,,,,,0.8,0.4,0.6*3F,1759151969000
NMEA,$GNGSA,A,3,65,72,74,75,76,,,,,,,,0.8,0.4,0.6*20,1759151969000
NMEA,$GAGSA,A,3,107,127,129,130,,,,,,,,,0.8,0.4,0.6*23,1759151969000
NMEA,$BDGSA,A,3,207,209,210,214,221,224,226,229,,,,,0.8,0.4,0.6*29,1759151969000
NMEA,$PSSGR,GSA,A,3,14,21,30,,,,,,,,,,0.8,0.4,0.6,1,8*4A,1759151969000
NMEA,$PSSGR,GSA,A,3,121,,,,,,,,,,,,0.8,0.4,0.6,3,1*76,1759151969000
NMEA,$GPRMC,131929.000,A,3154.0046,N,03500.4197,E,1.1,143.9,290925,,,A*69,1759151969000
NMEA,$GPGGA,131930.000,3154.0047,N,03500.4195,E,1,29,0.4,255.4,M,16.6,M,,*52,1759151970000
NMEA,$PSAMSA,131930.000,3154.0047,N,03500.4195,E,0,M,,*6F,1759151970000
NMEA,$GPGLL,3154.0047,N,03500.4195,E,131930.000,A,A*5F,1759151970000
NMEA,$GPVTG,143.9,T,,M,0.9,N,1.7,K,A*0D,1759151970000
NMEA,$GPGSV,4,1,13,05,36,284,33,07,39,055,45,08,10,046,18,09,22,127,25*74,1759151970000
NMEA,$GPGSV,4,2,13,13,30,317,38,14,77,203,42,17,16,157,32,21,46,240,35*72,1759151970000
NMEA,$GPGSV,4,3,13,22,59,206,43,30,60,017,44*70,1759151970000
NMEA,$GPGSV,4,4,13,14,77,203,35,21,46,240,32,30,60,017,40,8*5C,1759151970000
NMEA,$GLGSV,2,1,06,65,41,329,31,71,23,148,31,72,77,141,39,74,40,023,36*6C,1759151970000
NMEA,$GLGSV,2,2,06,75,64,286,39,76,16,235,40*63,1759151970000
NMEA,$GAGSV,4,1,11,107,53,105,41,119,17,313,22,121,34,209,33,127,80,120,42*65,1759151970000
NMEA,$GAGSV,4,2,11,129,62,335,44,130,34,044,44*60,1759151970000
NMEA,$GAGSV,4,3,11,107,53,105,32,121,34,209,29,127,80,120,29,129,62,335,37,1*79,1759151970000
NMEA,$GAGSV,4,4,11,130,34,044,35,1*76,1759151970000
NMEA,$BDGSV,3,1,10,207,30,077,38,209,24,062,32,210,35,089,29,214,27,317,33*66,1759151970000
NMEA,$BDGSV,3,2,10,221,64,178,43,224,24,249,34,226,67,292,39,229,05,081,26*6D,1759151970000
NMEA,$BDGSV,3,3,10,221,64,178,38,226,67,292,36,5*7D,1759151970000
NMEA,$GPGSA,A,3,05,07,08,09,13,17,22,,,,,,0.8,0.4,0.6*3F,1759151970000
NMEA,$GNGSA,A,3,65,72,74,75,76,,,,,,,,0.8,0.4,0.6*20,1759151970000
NMEA,$GAGSA,A,3,107,119,127,129,,,,,,,,,0.8,0.4,0.6*28,1759151970000
NMEA,$BDGSA,A,3,207,209,210,214,221,224,229,,,,,,0.8,0.4,0.6*1F,1759151970000
NMEA,$PSSGR,GSA,A,3,14,21,30,,,,,,,,,,0.8,0.4,0.6,1,8*4A,1759151970000
NMEA,$PSSGR,GSA,A,3,121,130,,,,,,,,,,,0.8,0.4,0.6,3,1*44,1759151970000
NMEA,$PSSGR,GSA,A,3,226,,,,,,,,,,,,0.8,0.4,0.6,4,5*71,1759151970000
NMEA,$GPRMC,131930.000,A,3154.0047,N,03500.4195,E,0.9,143.9,290925,,,A*6B,1759151970000
NMEA,$GPGGA,131931.000,3154.0050,N,03500.4190,E,1,25,0.6,254.9,M,16.6,M,,*52,1759151971000
NMEA,$PSAMSA,131931.000,3154.0050,N,03500.4190,E,0,M,,*6D,1759151971000
NMEA,$GPGLL,3154.0050,N,03500.4190,E,131931.000,A,A*5D,1759151971000
NMEA,$GPVTG,143.9,T,,M,1.0,N,1.8,K,A*0A,1759151971000
NMEA,$GPGSV,4,1,13,05,36,284,33,07,39,055,45,08,10,046,18,09,22,127,25*74,1759151971000
NMEA,$GPGSV,4,2,13,13,30,317,37,14,77,203,42,17,16,157,32,21,46,240,35*7D,1759151971000
NMEA,$GPGSV,4,3,13,22,59,206,43,30,59,017,44*7A,1759151971000
NMEA,$GPGSV,4,4,13,14,77,203,34,21,46,240,31,30,59,017,39,8*5A,1759151971000
NMEA,$GLGSV,2,1,06,65,41,329,31,71,23,148,30,72,77,141,39,74,40,023,36*6D,1759151971000
NMEA,$GLGSV,2,2,06,75,64,286,39,76,16,235,40*63,1759151971000
NMEA,$GAGSV,4,1,11,107,53,105,41,119,17,313,22,121,34,209,33,127,80,120,41*66,1759151971000
NMEA,$GAGSV,4,2,11,129,62,335,44,130,34,044,43*67,1759151971000
NMEA,$GAGSV,4,3,11,107,53,105,31,121,34,209,28,127,80,120,29,129,62,335,36,1*7A,1759151971000
NMEA,$GAGSV,4,4,11,130,34,044,35,1*76,1759151971000
NMEA,$BDGSV,3,1,10,207,30,077,39,209,24,062,32,210,35,089,30,214,27,317,33*6F,1759151971000
NMEA,$BDGSV,3,2,10,221,64,178,43,224,24,249,34,226,67,292,43,229,05,081,25*63,1759151971000
NMEA,$BDGSV,3,3,10,221,64,178,37,226,67,292,38,5*7C,1759151971000
NMEA,$GPGSA,A,3,05,07,08,13,14,22,,,,,,,1.0,0.6,0.8*30,1759151971000
NMEA,$GNGSA,A,3,65,72,74,75,76,,,,,,,,1.0,0.6,0.8*25,1759151971000
NMEA,$GAGSA,A,3,107,127,129,130,,,,,,,,,1.0,0.6,0.8*26,1759151971000
NMEA,$BDGSA,A,3,207,209,210,214,221,224,226,229,,,,,1.0,0.6,0.8*2C,1759151971000
NMEA,$PSSGR,GSA,A,3,21,30,,,,,,,,,,,1.0,0.6,0.8,1,8*4A,1759151971000
NMEA,$GPRMC,131931.000,A,3154.0050,N,03500.4190,E,1.0,143.9,290925,,,A*61,1759151971000
NMEA,$GPGGA,131932.000,3154.0056,N,03500.4188,E,1,27,0.4,255.0,M,16.6,M,,*56,1759151972000
NMEA,$PSAMSA,131932.000,3154.0056,N,03500.4188,E,0,M,,*61,1759151972000
NMEA,$GPGLL,3154.0056,N,03500.4188,E,131932.000,A,A*51,1759151972000
NMEA,$GPVTG,345.1,T,,M,1.0,N,1.9,K,A*07,1759151972000
NMEA,$GPGSV,4,1,13,05,36,284,33,07,39,055,45,08,10,046,18,09,22,127,25*74,1759151972000
NMEA,$GPGSV,4,2,13,13,30,317,36,14,77,203,41,17,16,157,32,21,46,240,35*7F,1759151972000
NMEA,$GPGSV,4,3,13,22,59,206,42,30,59,017,44*7B,1759151972000
NMEA,$GPGSV,4,4,13,14,77,203,33,21,46,240,33,30,59,017,39,8*5F,1759151972000
NMEA,$GLGSV,2,1,06,65,41,329,31,71,23,148,31,72,77,141,39,74,40,023,36*6C,1759151972000
NMEA,$GLGSV,2,2,06,75,64,286,44,76,16,235,39*67,1759151972000
NMEA,$GAGSV,4,1,11,107,53,105,41,119,17,313,23,121,34,209,33,127,80,120,41*67,1759151972000
NMEA,$GAGSV,4,2,11,129,62,335,44,130,34,044,43*67,1759151972000
NMEA,$GAGSV,4,3,11,107,53,105,32,121,34,209,28,127,80,120,28,129,62,335,36,1*78,1759151972000
NMEA,$GAGSV,4,4,11,130,34,044,34,1*77,1759151972000
NMEA,$BDGSV,3,1,10,207,30,077,39,209,24,062,32,210,35,089,30,214,27,317,33*6F,1759151972000
NMEA,$BDGSV,3,2,10,221,64,178,43,224,24,249,34,226,67,292,47,229,05,081,25*67,1759151972000
NMEA,$BDGSV,3,3,10,221,64,178,36,226,67,292,40,5*72,1759151972000
NMEA,$GPGSA,A,3,05,07,08,13,17,22,,,,,,,0.8,0.4,0.6*36,1759151972000
NMEA,$GNGSA,A,3,65,72,74,75,76,,,,,,,,0.8,0.4,0.6*20,1759151972000
NMEA,$GAGSA,A,3,107,119,127,129,130,,,,,,,,0.8,0.4,0.6*1A,1759151972000
NMEA,$BDGSA,A,3,207,209,210,214,221,224,226,229,,,,,0.8,0.4,0.6*29,1759151972000
NMEA,$PSSGR,GSA,A,3,14,21,30,,,,,,,,,,0.8,0.4,0.6,1,8*4A,1759151972000
NMEA,$GPRMC,131932.000,A,3154.0056,N,03500.4188,E,1.0,345.1,290925,,,A*61,1759151972000
NMEA,$GPGGA,131933.000,3154.0059,N,03500.4189,E,1,27,0.4,254.3,M,16.6,M,,*5B,1759151973000
NMEA,$PSAMSA,131933.000,3154.0059,N,03500.4189,E,0,M,,*6E,1759151973000
NMEA,$GPGLL,3154.0059,N,03500.4189,E,131933.000,A,A*5E,1759151973000
NMEA,$GPVTG,331.5,T,,M,1.1,N,2.1,K,A*0A,1759151973000
NMEA,$GPGSV,4,1,14,05,36,284,33,07,39,055,44,08,10,046,18,09,22,127,26*71,1759151973000
NMEA,$GPGSV,4,2,14,13,30,317,36,14,77,203,41,17,16,157,32,21,46,240,36*7B,1759151973000
NMEA,$GPGSV,4,3,14,22,59,206,41,30,59,017,44*7F,1759151973000
NMEA,$GPGSV,4,4,14,09,22,127,24,14,77,203,33,21,46,240,32,30,59,017,38,8*63,1759151973000
NMEA,$GLGSV,2,1,06,65,41,329,31,71,23,148,31,72,77,141,39,74,40,023,36*6C,1759151973000
NMEA,$GLGSV,2,2,06,75,64,286,46,76,16,235,38*64,1759151973000
NMEA,$GAGSV,4,1,11,107,53,105,41,119,17,313,23,121,34,209,34,127,80,120,41*60,1759151973000
NMEA,$GAGSV,4,2,11,129,62,335,44,130,34,044,43*67,1759151973000
NMEA,$GAGSV,4,3,11,107,53,105,35,121,34,209,28,127,80,120,28,129,62,335,35,1*7C,1759151973000
NMEA,$GAGSV,4,4,11,130,34,044,34,1*77,1759151973000
NMEA,$BDGSV,3,1,10,207,30,077,39,209,24,062,32,210,35,089,30,214,27,317,33*6F,1759151973000
NMEA,$BDGSV,3,2,10,221,64,178,43,224,24,249,34,226,67,292,47,229,05,081,25*67,1759151973000
NMEA,$BDGSV,3,3,10,221,64,178,35,226,67,292,39,5*7F,1759151973000
NMEA,$GPGSA,A,3,05,07,08,13,17,22,30,,,,,,0.8,0.4,0.6*35,1759151973000
NMEA,$GNGSA,A,3,65,72,74,75,76,,,,,,,,0.8,0.4,0.6*20,1759151973000
NMEA,$GAGSA,A,3,107,119,127,129,130,,,,,,,,0.8,0.4,0.6*1A,1759151973000
NMEA,$BDGSA,A,3,207,209,210,214,221,224,226,229,,,,,0.8,0.4,0.6*29,1759151973000
NMEA,$PSSGR,GSA,A,3,14,21,,,,,,,,,,,0.8,0.4,0.6,1,8*49,1759151973000
NMEA,$GPRMC,131933.000,A,3154.0059,N,03500.4189,E,1.1,331.5,290925,,,A*68,1759151973000
NMEA,$GPGGA,131934.000,3154.0060,N,03500.4184,E,1,30,0.4,254.4,M,16.6,M,,*5A,1759151974000
NMEA,$PSAMSA,131934.000,3154.0060,N,03500.4184,E,0,M,,*6E,1759151974000
NMEA,$GPGLL,3154.0060,N,03500.4184,E,131934.000,A,A*5E,1759151974000
NMEA,$GPVTG,320.5,T,,M,0.8,N,1.5,K,A*05,1759151974000
NMEA,$GPGSV,4,1,13,05,36,284,33,07,39,055,44,08,10,046,19,09,22,127,26*77,1759151974000
NMEA,$GPGSV,4,2,13,13,30,317,40,14,77,203,41,17,16,157,32,21,46,240,36*7D,1759151974000
NMEA,$GPGSV,4,3,13,22,59,206,40,30,59,017,44*79,1759151974000
NMEA,$GPGSV,4,4,13,14,77,203,33,21,46,240,32,30,59,017,37,8*50,1759151974000
NMEA,$GLGSV,2,1,06,65,41,329,32,71,23,148,35,72,77,141,39,74,40,023,36*6B,1759151974000
NMEA,$GLGSV,2,2,06,75,64,286,46,76,16,235,38*64,1759151974000
NMEA,$GAGSV,4,1,11,107,53,105,41,119,17,313,23,121,34,209,35,127,80,120,41*61,1759151974000
NMEA,$GAGSV,4,2,11,129,62,335,44,130,34,044,42*66,1759151974000
NMEA,$GAGSV,4,3,11,107,53,105,35,121,34,209,27,127,80,120,28,129,62,335,35,1*73,1759151974000
NMEA,$GAGSV,4,4,11,130,34,044,34,1*77,1759151974000
NMEA,$BDGSV,3,1,10,207,30,077,39,209,24,062,32,210,35,089,30,214,27,317,34*68,1759151974000
NMEA,$BDGSV,3,2,10,221,64,178,43,224,24,249,34,226,67,292,47,229,05,081,25*67,1759151974000
NMEA,$BDGSV,3,3,10,221,64,178,35,226,67,292,38,5*7E,1759151974000
NMEA,$GPGSA,A,3,05,07,08,09,13,17,22,,,,,,0.8,0.4,0.6*3F,1759151974000
NMEA,$GNGSA,A,3,65,71,72,74,75,76,,,,,,,0.8,0.4,0.6*26,1759151974000
NMEA,$GAGSA,A,3,107,119,121,127,129,130,,,,,,,0.8,0.4,0.6*28,1759151974000
NMEA,$BDGSA,A,3,207,209,210,214,221,224,226,229,,,,,0.8,0.4,0.6*29,1759151974000
NMEA,$PSSGR,GSA,A,3,14,21,30,,,,,,,,,,0.8,0.4,0.6,1,8*4A,1759151974000
NMEA,$GPRMC,131934.000,A,3154.0060,N,03500.4184,E,0.8,320.5,290925,,,A*60,1759151974000
NMEA,$GPGGA,131935.000,3154.0061,N,03500.4180,E,1,28,0.4,254.0,M,16.6,M,,*53,1759151975000
NMEA,$PSAMSA,131935.000,3154.0061,N,03500.4180,E,0,M,,*6A,1759151975000
NMEA,$GPGLL,3154.0061,N,03500.4180,E,131935.000,A,A*5A,1759151975000
NMEA,$GPVTG,311.6,T,,M,0.5,N,1.0,K,A*0C,1759151975000
NMEA,$GPGSV,4,1,14,05,36,284,33,07,39,055,43,08,10,046,19,09,22,127,26*77,1759151975000
NMEA,$GPGSV,4,2,14,13,30,317,40,14,77,203,41,17,16,157,32,21,46,240,36*7A,1759151975000
NMEA,$GPGSV,4,3,14,22,59,206,39,30,59,017,44*70,1759151975000
NMEA,$GPGSV,4,4,14,09,22,127,26,14,77,203,33,21,46,240,32,30,59,017,37,8*6E,1759151975000
NMEA,$GLGSV,2,1,06,65,41,329,32,71,23,148,35,72,77,141,39,74,40,023,36*6B,1759151975000
NMEA,$GLGSV,2,2,06,75,64,286,46,76,16,235,37*6B,1759151975000
NMEA,$GAGSV,4,1,11,107,53,105,41,119,17,313,23,121,34,209,35,127,80,120,41*61,1759151975000
NMEA,$GAGSV,4,2,11,129,62,335,45,130,34,044,42*67,1759151975000
NMEA,$GAGSV,4,3,11,107,53,105,34,121,34,209,27,127,80,120,28,129,62,335,41,1*71,1759151975000
NMEA,$GAGSV,4,4,11,130,34,044,34,1*77,1759151975000
NMEA,$BDGSV,3,1,10,207,30,077,40,209,24,062,32,210,35,089,31,214,27,317,34*67,1759151975000
NMEA,$BDGSV,3,2,10,221,64,178,42,224,24,249,34,226,67,292,47,229,05,081,25*66,1759151975000
NMEA,$BDGSV,3,3,10,221,64,178,34,226,67,292,41,5*71,1759151975000
NMEA,$GPGSA,A,3,05,07,13,17,22,,,,,,,,0.8,0.4,0.8*30,1759151975000
NMEA,$GNGSA,A,3,65,71,72,74,75,76,,,,,,,0.8,0.4,0.8*28,1759151975000
NMEA,$GAGSA,A,3,107,119,121,127,130,,,,,,,,0.8,0.4,0.8*1C,1759151975000
NMEA,$BDGSA,A,3,207,209,210,214,221,224,226,,,,,,0.8,0.4,0.8*1E,1759151975000
NMEA,$PSSGR,GSA,A,3,09,14,21,30,,,,,,,,,0.8,0.4,0.8,1,8*4D,1759151975000
NMEA,$PSSGR,GSA,A,3,129,,,,,,,,,,,,0.8,0.4,0.8,3,1*70,1759151975000
NMEA,$GPRMC,131935.000,A,3154.0061,N,03500.4180,E,0.5,311.6,290925,,,A*68,1759151975000
NMEA,$GPGGA,131936.000,3154.0061,N,03500.4176,E,1,26,0.4,253.4,M,16.6,M,,*54,1759151976000
NMEA,$PSAMSA,131936.000,3154.0061,N,03500.4176,E,0,M,,*60,1759151976000
NMEA,$GPGLL,3154.0061,N,03500.4176,E,131936.000,A,A*50,1759151976000
NMEA,$GPVTG,304.2,T,,M,0.7,N,1.3,K,A*0D,1759151976000
NMEA,$GPGSV,4,1,14,05,36,284,35,07,39,055,43,08,10,046,19,09,22,127,26*71,1759151976000
NMEA,$GPGSV,4,2,14,13,30,317,40,14,77,203,41,17,16,157,32,21,46,240,36*7A,1759151976000
NMEA,$GPGSV,4,3,14,22,59,206,38,30,59,017,44*71,1759151976000
NMEA,$GPGSV,4,4,14,09,22,127,27,14,77,203,32,21,46,240,32,30,59,017,37,8*6E,1759151976000
NMEA,$GLGSV,2,1,06,65,41,329,32,71,23,148,35,72,77,141,38,74,40,023,36*6A,1759151976000
NMEA,$GLGSV,2,2,06,75,64,286,46,76,16,235,37*6B,1759151976000
NMEA,$GAGSV,4,1,11,107,53,105,41,119,17,313,23,121,34,209,35,127,80,120,41*61,1759151976000
NMEA,$GAGSV,4,2,11,129,62,335,45,130,34,044,42*67,1759151976000
NMEA,$GAGSV,4,3,11,107,53,105,34,121,34,209,26,127,80,120,28,129,62,335,41,1*70,1759151976000
NMEA,$GAGSV,4,4,11,130,34,044,34,1*77,1759151976000
NMEA,$BDGSV,3,1,10,207,30,077,40,209,24,062,32,210,35,089,31,214,27,317,34*67,1759151976000
NMEA,$BDGSV,3,2,10,221,64,178,42,224,24,249,34,226,67,292,47,229,05,081,25*66,1759151976000
NMEA,$BDGSV,3,3,10,221,64,178,33,226,67,292,41,5*76,1759151976000
NMEA,$GPGSA,A,3,05,07,08,13,14,17,,,,,,,1.0,0.4,0.8*34,1759151976000
NMEA,$GNGSA,A,3,65,71,72,74,75,76,,,,,,,1.0,0.4,0.8*21,1759151976000
NMEA,$GAGSA,A,3,107,121,127,129,130,,,,,,,,1.0,0.4,0.8*16,1759151976000
NMEA,$BDGSA,A,3,207,209,210,214,221,226,,,,,,,1.0,0.4,0.8*23,1759151976000
NMEA,$PSSGR,GSA,A,3,09,21,30,,,,,,,,,,1.0,0.4,0.8,1,8*41,1759151976000
NMEA,$GPRMC,131936.000,A,3154.0061,N,03500.4176,E,0.7,304.2,290925,,,A*60,1759151976000
NMEA,$GPGGA,131937.000,3154.0063,N,03500.4174,E,1,26,0.4,252.0,M,16.6,M,,*50,1759151977000
NMEA,$PSAMSA,131937.000,3154.0063,N,03500.4174,E,0,M,,*61,1759151977000
NMEA,$GPGLL,3154.0063,N,03500.4174,E,131937.000,A,A*51,1759151977000
NMEA,$GPVTG,299.5,T,,M,0.8,N,1.4,K,A*07,1759151977000
NMEA,$GPGSV,4,1,14,05,36,284,40,07,39,055,42,08,10,046,19,09,22,127,26*72,1759151977000
NMEA,$GPGSV,4,2,14,13,30,317,40,14,77,203,41,17,16,157,32,21,46,240,36*7A,1759151977000
NMEA,$GPGSV,4,3,14,22,59,206,37,30,59,017,44*7E,1759151977000
NMEA,$GPGSV,4,4,14,09,22,127,27,14,77,203,31,21,46,240,31,30,59,017,36,8*6F,1759151977000
NMEA,$GLGSV,2,1,06,65,41,329,32,71,23,148,34,72,77,141,37,74,40,023,36*64,1759151977000
NMEA,$GLGSV,2,2,06,75,64,286,46,76,16,235,36*6A,1759151977000
NMEA,$GAGSV,4,1,11,107,53,105,41,119,17,313,23,121,34,209,35,127,80,120,41*61,1759151977000
NMEA,$GAGSV,4,2,11,129,62,335,45,130,34,044,41*64,1759151977000
NMEA,$GAGSV,4,3,11,107,53,105,33,121,34,209,26,127,80,120,28,129,62,335,40,1*76,1759151977000
NMEA,$GAGSV,4,4,11,130,34,044,34,1*77,1759151977000
NMEA,$BDGSV,3,1,10,207,30,077,39,209,24,062,32,210,35,089,32,214,27,317,35*6B,1759151977000
NMEA,$BDGSV,3,2,10,221,64,178,42,224,24,249,34,226,67,292,47,229,05,081,24*67,1759151977000
NMEA,$BDGSV,3,3,10,221,64,178,32,226,67,292,40,5*76,1759151977000
NMEA,$GPGSA,A,3,05,07,08,13,14,17,21,22,,,,,1.0,0.4,0.8*37,1759151977000
NMEA,$GNGSA,A,3,65,72,74,75,76,,,,,,,,1.0,0.4,0.8*27,1759151977000
NMEA,$GAGSA,A,3,107,119,121,127,129,130,,,,,,,1.0,0.4,0.8*2F,1759151977000
NMEA,$BDGSA,A,3,207,209,210,214,221,226,,,,,,,1.0,0.4,0.8*23,1759151977000
NMEA,$PSSGR,GSA,A,3,30,,,,,,,,,,,,1.0,0.4,0.8,1,8*4B,1759151977000
NMEA,$GPRMC,131937.000,A,3154.0063,N,03500.4174,E,0.8,299.5,290925,,,A*6C,1759151977000
NMEA,$GPGGA,131938.000,3154.0066,N,03500.4168,E,1,23,0.6,250.7,M,16.6,M,,*55,1759151978000
NMEA,$PSAMSA,131938.000,3154.0066,N,03500.4168,E,0,M,,*66,1759151978000
NMEA,$GPGLL,3154.0066,N,03500.4168,E,131938.000,A,A*56,1759151978000
NMEA,$GPVTG,291.0,T,,M,0.2,N,0.4,K,A*01,1759151978000
NMEA,$GPGSV,4,1,14,05,36,284,40,07,39,055,42,08,10,046,19,09,22,127,27*73,1759151978000
NMEA,$GPGSV,4,2,14,13,30,317,40,14,77,203,41,17,16,157,32,21,46,240,36*7A,1759151978000
NMEA,$GPGSV,4,3,14,22,59,206,37,30,59,017,44*7E,1759151978000
NMEA,$GPGSV,4,4,14,09,22,127,27,14,77,203,32,21,46,240,30,30,59,017,36,8*6D,1759151978000
NMEA,$GLGSV,2,1,06,65,41,329,32,71,23,148,34,72,77,141,37,74,40,023,36*64,1759151978000
NMEA,$GLGSV,2,2,06,75,64,286,46,76,16,235,36*6A,1759151978000
NMEA,$GAGSV,4,1,11,107,53,105,41,119,17,313,23,121,34,209,35,127,80,120,41*61,1759151978000
NMEA,$GAGSV,4,2,11,129,62,335,45,130,34,044,41*64,1759151978000
NMEA,$GAGSV,4,3,11,107,53,105,32,121,34,209,29,127,80,120,29,129,62,335,39,1*77,1759151978000
NMEA,$GAGSV,4,4,11,130,34,044,34,1*77,1759151978000
NMEA,$BDGSV,3,1,10,207,30,077,39,209,24,062,32,210,35,089,32,214,27,317,35*6B,1759151978000
NMEA,$BDGSV,3,2,10,221,64,178,42,224,24,249,33,226,67,292,47,229,05,081,24*60,1759151978000
NMEA,$BDGSV,3,3,10,221,64,178,32,226,67,292,40,5*76,1759151978000
NMEA,$GPGSA,A,3,05,07,08,13,22,,,,,,,,1.2,0.6,0.8*37,1759151978000
NMEA,$GNGSA,A,3,72,74,75,76,,,,,,,,,1.2,0.6,0.8*24,1759151978000
NMEA,$GAGSA,A,3,107,119,127,129,130,,,,,,,,1.2,0.6,0.8*1D,1759151978000
NMEA,$BDGSA,A,3,207,209,210,214,221,226,,,,,,,1.2,0.6,0.8*23,1759151978000
NMEA,$PSSGR,GSA,A,3,14,21,30,,,,,,,,,,1.2,0.6,0.8,1,8*4D,1759151978000
NMEA,$GPRMC,131938.000,A,3154.0066,N,03500.4168,E,0.2,291.0,290925,,,A*6C,1759151978000
NMEA,$GPGGA,131939.000,3154.0067,N,03500.4167,E,1,25,0.6,250.3,M,16.6,M,,*58,1759151979000
NMEA,$PSAMSA,131939.000,3154.0067,N,03500.4167,E,0,M,,*69,1759151979000
NMEA,$GPGLL,3154.0067,N,03500.4167,E,131939.000,A,A*59,1759151979000
NMEA,$GPVTG,291.0,T,,M,0.8,N,1.4,K,A*0A,1759151979000
NMEA,$GPGSV,4,1,14,05,36,284,40,07,39,055,42,08,10,046,19,09,22,127,34*71,1759151979000
NMEA,$GPGSV,4,2,14,13,30,317,41,14,77,203,41,17,16,157,32,21,46,240,36*7B,1759151979000
NMEA,$GPGSV,4,3,14,22,59,206,36,30,59,017,44*7F,1759151979000
NMEA,$GPGSV,4,4,14,09,22,127,25,14,77,203,32,21,46,240,30,30,59,017,36,8*6F,1759151979000
NMEA,$GLGSV,2,1,06,65,41,329,32,71,23,148,34,72,77,141,36,74,40,023,36*65,1759151979000
NMEA,$GLGSV,2,2,06,75,64,286,46,76,16,235,36*6A,1759151979000
NMEA,$GAGSV,4,1,11,107,53,105,41,119,17,313,23,121,34,209,35,127,80,120,41*61,1759151979000
NMEA,$GAGSV,4,2,11,129,62,335,46,130,34,044,41*67,1759151979000
NMEA,$GAGSV,4,3,11,107,53,105,31,121,34,209,28,127,80,120,29,129,62,335,39,1*75,1759151979000
NMEA,$GAGSV,4,4,11,130,34,044,34,1*77,1759151979000
NMEA,$BDGSV,3,1,10,207,30,077,39,209,24,062,32,210,35,089,33,214,27,317,35*6A,1759151979000
NMEA,$BDGSV,3,2,10,221,64,178,41,224,24,249,33,226,67,292,47,229,05,081,24*63,1759151979000
NMEA,$BDGSV,3,3,10,221,64,178,31,226,67,292,39,5*7B,1759151979000
NMEA,$GPGSA,A,3,05,07,08,13,22,,,,,,,,1.0,0.6,0.8*35,1759151979000
NMEA,$GNGSA,A,3,65,72,74,75,76,,,,,,,,1.0,0.6,0.8*25,1759151979000
NMEA,$GAGSA,A,3,107,119,127,129,130,,,,,,,,1.0,0.6,0.8*1F,1759151979000
NMEA,$BDGSA,A,3,207,209,210,214,221,224,226,,,,,,1.0,0.6,0.8*15,1759151979000
NMEA,$PSSGR,GSA,A,3,14,21,30,,,,,,,,,,1.0,0.6,0.8,1,8*4F,1759151979000
NMEA,$GPRMC,131939.000,A,3154.0067,N,03500.4167,E,0.8,291.0,290925,,,A*69,1759151979000
NMEA,$GPGGA,131940.000,3154.0069,N,03500.4164,E,1,25,0.6,249.6,M,16.6,M,,*56,1759151980000
NMEA,$PSAMSA,131940.000,3154.0069,N,03500.4164,E,0,M,,*6A,1759151980000
NMEA,$GPGLL,3154.0069,N,03500.4164,E,131940.000,A,A*5A,1759151980000
NMEA,$GPVTG,291.0,T,,M,1.0,N,1.8,K,A*0F,1759151980000
NMEA,$GPGSV,4,1,14,05,36,284,39,07,39,055,42,08,10,046,19,09,22,127,34*7F,1759151980000
NMEA,$GPGSV,4,2,14,13,30,317,41,14,77,203,41,17,16,157,32,21,46,240,36*7B,1759151980000
NMEA,$GPGSV,4,3,14,22,59,206,36,30,59,017,44*7F,1759151980000
NMEA,$GPGSV,4,4,14,09,22,127,23,14,77,203,32,21,46,240,30,30,59,017,36,8*69,1759151980000
NMEA,$GLGSV,2,1,06,65,42,329,32,71,23,148,34,72,77,142,36,74,40,023,35*66,1759151980000
NMEA,$GLGSV,2,2,06,75,64,286,46,76,16,235,35*69,1759151980000
NMEA,$GAGSV,4,1,11,107,53,105,40,119,17,313,23,121,34,209,35,127,80,120,41*60,1759151980000
NMEA,$GAGSV,4,2,11,129,62,335,46,130,34,044,41*67,1759151980000
NMEA,$GAGSV,4,3,11,107,53,105,31,121,34,209,28,127,80,120,28,129,62,335,38,1*75,1759151980000
NMEA,$GAGSV,4,4,11,130,34,044,33,1*70,1759151980000
NMEA,$BDGSV,3,1,10,207,30,077,40,209,24,062,32,210,35,089,33,214,27,317,35*64,1759151980000
NMEA,$BDGSV,3,2,10,221,64,178,41,224,24,249,33,226,67,292,47,229,05,081,24*63,1759151980000
NMEA,$BDGSV,3,3,10,221,64,178,31,226,67,292,39,5*7B,1759151980000
NMEA,$GPGSA,A,3,05,07,08,13,22,,,,,,,,1.0,0.6,0.8*35,1759151980000
NMEA,$GNGSA,A,3,72,74,75,76,,,,,,,,,1.0,0.6,0.8*26,1759151980000
NMEA,$GAGSA,A,3,107,119,121,127,129,130,,,,,,,1.0,0.6,0.8*2D,1759151980000
NMEA,$BDGSA,A,3,207,209,210,214,221,224,226,,,,,,1.0,0.6,0.8*15,1759151980000
NMEA,$PSSGR,GSA,A,3,14,21,30,,,,,,,,,,1.0,0.6,0.8,1,8*4F,1759151980000
NMEA,$GPRMC,131940.000,A,3154.0069,N,03500.4164,E,1.0,291.0,290925,,,A*63,1759151980000
NMEA,$GPGGA,131941.000,3154.0073,N,03500.4162,E,1,22,0.6,248.7,M,16.6,M,,*5D,1759151981000
NMEA,$PSAMSA,131941.000,3154.0073,N,03500.4162,E,0,M,,*66,1759151981000
NMEA,$GPGLL,3154.0073,N,03500.4162,E,131941.000,A,A*56,1759151981000
NMEA,$GPVTG,291.0,T,,M,1.3,N,2.4,K,A*03,1759151981000
NMEA,$GPGSV,4,1,14,05,36,284,39,07,39,055,42,08,10,046,19,09,22,127,34*7F,1759151981000
NMEA,$GPGSV,4,2,14,13,30,317,42,14,77,203,41,17,16,157,32,21,46,240,36*78,1759151981000
NMEA,$GPGSV,4,3,14,22,59,206,36,30,59,017,43*78,1759151981000
NMEA,$GPGSV,4,4,14,09,22,127,27,14,77,203,33,21,46,240,30,30,59,017,36,8*6C,1759151981000
NMEA,$GLGSV,2,1,06,65,42,329,32,71,23,148,34,72,77,142,36,74,40,023,35*66,1759151981000
NMEA,$GLGSV,2,2,06,75,64,286,46,76,16,235,35*69,1759151981000
NMEA,$GAGSV,4,1,11,107,53,105,40,119,17,313,23,121,34,209,34,127,80,120,41*61,1759151981000
NMEA,$GAGSV,4,2,11,129,62,335,46,130,34,044,41*67,1759151981000
NMEA,$GAGSV,4,3,11,107,53,105,31,121,34,209,28,127,80,120,30,129,62,335,37,1*73,1759151981000
NMEA,$GAGSV,4,4,11,130,34,044,33,1*70,1759151981000
NMEA,$BDGSV,3,1,10,207,30,077,40,209,24,062,32,210,35,089,34,214,27,317,35*63,1759151981000
NMEA,$BDGSV,3,2,10,221,64,178,41,224,24,249,33,226,67,292,47,229,05,081,24*63,1759151981000
NMEA,$BDGSV,3,3,10,221,64,178,31,226,67,292,39,5*7B,1759151981000
NMEA,$GPGSA,A,3,05,07,08,13,22,,,,,,,,1.2,0.6,1.0*3E,1759151981000
NMEA,$GNGSA,A,3,72,74,75,,,,,,,,,,1.2,0.6,1.0*2C,1759151981000
NMEA,$GAGSA,A,3,107,121,127,129,130,,,,,,,,1.2,0.6,1.0*1F,1759151981000
NMEA,$BDGSA,A,3,209,210,214,221,224,226,,,,,,,1.2,0.6,1.0*2B,1759151981000
NMEA,$PSSGR,GSA,A,3,14,21,30,,,,,,,,,,1.2,0.6,1.0,1,8*44,1759151981000
NMEA,$GPRMC,131941.000,A,3154.0073,N,03500.4162,E,1.3,291.0,290925,,,A*6C,1759151981000
NMEA,$GPGGA,131942.000,3154.0074,N,03500.4159,E,1,23,0.6,247.5,M,16.6,M,,*5D,1759151982000
NMEA,$PSAMSA,131942.000,3154.0074,N,03500.4159,E,0,M,,*6A,1759151982000
NMEA,$GPGLL,3154.0074,N,03500.4159,E,131942.000,A,A*5A,1759151982000
NMEA,$GPVTG,291.0,T,,M,0.9,N,1.7,K,A*08,1759151982000
NMEA,$GPGSV,4,1,14,05,36,284,39,07,39,055,42,08,10,046,18,09,22,127,34*7E,1759151982000
NMEA,$GPGSV,4,2,14,13,30,317,42,14,77,203,42,17,16,157,33,21,46,240,36*7A,1759151982000
NMEA,$GPGSV,4,3,14,22,59,206,41,30,59,017,43*78,1759151982000
NMEA,$GPGSV,4,4,14,09,22,127,27,14,77,203,33,21,46,240,30,30,59,017,35,8*6F,1759151982000
NMEA,$GLGSV,2,1,06,65,42,329,32,71,23,148,33,72,77,142,37,74,40,023,35*60,1759151982000
NMEA,$GLGSV,2,2,06,75,64,286,46,76,16,235,35*69,1759151982000
NMEA,$GAGSV,4,1,11,107,53,105,39,119,17,313,23,121,34,209,34,127,80,120,41*6F,1759151982000
NMEA,$GAGSV,4,2,11,129,62,335,46,130,34,044,42*64,1759151982000
NMEA,$GAGSV,4,3,11,107,53,105,31,121,34,209,27,127,80,120,30,129,62,335,37,1*7C,1759151982000
NMEA,$GAGSV,4,4,11,130,34,044,33,1*70,1759151982000
NMEA,$BDGSV,3,1,10,207,30,077,40,209,24,062,32,210,35,089,34,214,27,317,36*60,1759151982000
NMEA,$BDGSV,3,2,10,221,64,178,41,224,24,249,33,226,67,292,47,229,05,081,23*64,1759151982000
NMEA,$BDGSV,3,3,10,221,64,178,34,226,67,292,38,5*7F,1759151982000
NMEA,$GPGSA,A,3,05,07,08,13,22,,,,,,,,1.0,0.6,0.8*35,1759151982000
NMEA,$GNGSA,A,3,71,72,74,75,76,,,,,,,,1.0,0.6,0.8*20,1759151982000
NMEA,$GAGSA,A,3,107,121,127,129,130,,,,,,,,1.0,0.6,0.8*14,1759151982000
NMEA,$BDGSA,A,3,209,210,214,221,226,,,,,,,,1.0,0.6,0.8*14,1759151982000
NMEA,$PSSGR,GSA,A,3,14,21,30,,,,,,,,,,1.0,0.6,0.8,1,8*4F,1759151982000
NMEA,$GPRMC,131942.000,A,3154.0074,N,03500.4159,E,0.9,291.0,290925,,,A*6B,1759151982000
NMEA,$GPGGA,131943.000,3154.0073,N,03500.4156,E,1,28,0.4,246.4,M,16.6,M,,*5D,1759151983000
NMEA,$PSAMSA,131943.000,3154.0073,N,03500.4156,E,0,M,,*63,1759151983000
NMEA,$GPGLL,3154.0073,N,03500.4156,E,131943.000,A,A*53,1759151983000
NMEA,$GPVTG,291.0,T,,M,0.4,N,0.8,K,A*0B,1759151983000
NMEA,$GPGSV,4,1,14,05,36,284,38,07,39,055,42,08,10,046,18,09,22,127,34*7F,1759151983000
NMEA,$GPGSV,4,2,14,13,30,317,43,14,77,203,42,17,16,157,33,21,46,240,36*7B,1759151983000
NMEA,$GPGSV,4,3,14,22,59,206,43,30,59,017,43*7A,1759151983000
NMEA,$GPGSV,4,4,14,09,22,127,26,14,77,203,33,21,46,240,30,30,59,017,35,8*6E,1759151983000
NMEA,$GLGSV,2,1,06,65,42,329,32,71,23,148,33,72,77,142,37,74,40,023,35*60,1759151983000
NMEA,$GLGSV,2,2,06,75,64,286,46,76,16,235,35*69,1759151983000
NMEA,$GAGSV,4,1,11,107,53,105,39,119,17,313,23,121,34,209,34,127,80,120,41*6F,1759151983000
NMEA,$GAGSV,4,2,11,129,62,335,47,130,34,044,42*65,1759151983000
NMEA,$GAGSV,4,3,11,107,53,105,30,121,34,209,27,127,80,120,29,129,62,335,37,1*75,1759151983000
NMEA,$GAGSV,4,4,11,130,34,044,32,1*71,1759151983000
NMEA,$BDGSV,3,1,10,207,30,077,41,209,24,062,32,210,35,089,35,214,27,317,36*60,1759151983000
NMEA,$BDGSV,3,2,10,221,64,178,41,224,24,249,33,226,67,292,47,229,05,081,23*64,1759151983000
NMEA,$BDGSV,3,3,10,221,64,178,37,226,67,292,38,5*7C,1759151983000
NMEA,$GPGSA,A,3,05,07,08,13,22,,,,,,,,0.8,0.4,0.6*30,1759151983000
NMEA,$GNGSA,A,3,65,71,72,74,75,76,,,,,,,0.8,0.4,0.6*26,1759151983000
NMEA,$GAGSA,A,3,107,119,121,127,129,130,,,,,,,0.8,0.4,0.6*28,1759151983000
NMEA,$BDGSA,A,3,207,209,210,214,224,226,229,,,,,,0.8,0.4,0.6*18,1759151983000
NMEA,$PSSGR,GSA,A,3,14,21,30,,,,,,,,,,0.8,0.4,0.6,1,8*4A,1759151983000
NMEA,$PSSGR,GSA,A,3,221,,,,,,,,,,,,0.8,0.4,0.6,4,5*76,1759151983000
NMEA,$GPRMC,131943.000,A,3154.0073,N,03500.4156,E,0.4,291.0,290925,,,A*6F,1759151983000
NMEA,$GPGGA,131944.000,3154.0074,N,03500.4155,E,1,24,0.6,245.2,M,16.6,M,,*55,1759151984000
NMEA,$PSAMSA,131944.000,3154.0074,N,03500.4155,E,0,M,,*60,1759151984000
NMEA,$GPGLL,3154.0074,N,03500.4155,E,131944.000,A,A*50,1759151984000
NMEA,$GPVTG,291.0,T,,M,0.5,N,1.0,K,A*03,1759151984000
NMEA,$GPGSV,4,1,14,05,36,284,38,07,39,055,42,08,10,046,18,09,22,127,34*7F,1759151984000
NMEA,$GPGSV,4,2,14,13,30,317,43,14,77,203,42,17,16,157,39,21,46,240,35*72,1759151984000
NMEA,$GPGSV,4,3,14,22,59,206,43,30,59,017,43*7A,1759151984000
NMEA,$GPGSV,4,4,14,09,22,127,26,14,77,203,33,21,46,240,29,30,59,017,35,8*66,1759151984000
NMEA,$GLGSV,2,1,06,65,42,329,32,71,23,148,32,72,77,142,37,74,40,023,35*61,1759151984000
NMEA,$GLGSV,2,2,06,75,64,286,46,76,16,235,34*68,1759151984000
NMEA,$GAGSV,4,1,11,107,53,105,39,119,17,313,23,121,34,209,34,127,80,120,41*6F,1759151984000
NMEA,$GAGSV,4,2,11,129,62,335,47,130,34,044,42*65,1759151984000
NMEA,$GAGSV,4,3,11,107,53,105,30,121,34,209,27,127,80,120,29,129,62,335,36,1*74,1759151984000
NMEA,$GAGSV,4,4,11,130,34,044,32,1*71,1759151984000
NMEA,$BDGSV,3,1,10,207,30,077,41,209,24,062,31,210,35,089,35,214,27,317,36*63,1759151984000
NMEA,$BDGSV,3,2,10,221,64,178,41,224,24,249,34,226,67,292,47,229,05,081,23*63,1759151984000
NMEA,$BDGSV,3,3,10,221,64,178,36,226,67,292,38,5*7D,1759151984000
NMEA,$GPGSA,A,3,05,07,08,13,22,,,,,,,,1.0,0.6,0.8*35,1759151984000
