     4.01           OBSERVATION DATA    M                   RINEX VERSION / TYPE
GnssLogger          samsung 15          20251005 091533 UTC PGM / RUN BY / DATE
Google GnssLogger                                           MARKER NAME
Unknown                                                     MARKER NUMBER
Unknown             Unknown                                 OBSERVER / AGENCY
Unknown             GnssLogger          v3.1.1.1            REC # / TYPE / VERS
Unknown             Unknown                                 ANT # / TYPE
        0.0000        0.0000        0.0000                  ANTENNA: DELTA H/E/N
G    8 C1C L1C D1C S1C C5Q L5Q D5Q S5Q                      SYS / # / OBS TYPES
R    4 C1C L1C D1C S1C                                      SYS / # / OBS TYPES
C    8 C2I L2I D2I S2I C5P L5P D5P S5P                      SYS / # / OBS TYPES
E    8 C1C L1C D1C S1C C5Q L5Q D5Q S5Q                      SYS / # / OBS TYPES
  2025    10    05    09    15   33.0000000     GPS         TIME OF FIRST OBS
 9 R03  5 R04  6 R05  1 R14 -7 R15  0 R16 -1 R19  3 R20  2  GLONASS SLOT / FRQ #
   R21  4                                                   GLONASS SLOT / FRQ #
samsung SM-S711B (Android 15) HW Year: 2021 HW Model:       COMMENT
S.LSI,K040,SPOTNAV_4.6.2_7_E23                              COMMENT
                                                            END OF HEADER
> 2025 10 05 09 15 33.0000000  0 33                      
G03  21403093.14707    -22598.50207     -2538.13707        47.00007  21403097.34405    -24554.87305     -1895.31705        34.40005
G16  22672695.91907    -48523.14307        23.91607        43.50007                                                                
G04  21461878.85007    -39277.49707     -1435.17707        41.80007  21461883.04824    -36938.58524     -1070.85024        28.50024
G07  21594010.57806    -48366.28906      1461.80506        41.20006                                                                
G01  24710207.47925    -14657.39225     -3789.03625        30.50025  24710205.68123   2071169.19023     -2827.66123        22.10023
G30  23820644.41125   -159812.60825      2794.35425        31.40025  23820652.50505   -126729.76105      2090.16905        31.30005
G09  20719505.48525    -51101.71225       418.44525        30.50025  20719472.20823   -219784.91123       317.26423        23.40023
G06  22481703.54125    -56305.22125      -248.61125        29.80025  22481729.02324   2040118.59824      -180.57324        25.10024
G11  24573815.40224   -117309.54924      1912.82924        27.10024                                                                
C21  22315982.76708   -105583.71208        28.26608        52.60008  22315982.76705    -87119.55405        21.25005        35.10005
E29  23912064.32207    -44206.84807      -657.89807        42.60007  23912068.51906   2049372.01806      -491.32006        35.90006
R14  20718569.23326 110442070.31626     -1849.45926        39.10026
E12  26176549.35206    -84091.58606      1109.49906        37.10006  26176545.15505    -70400.64805       828.47805        33.90005
R15  20128897.25405 107563162.12705      2212.73205        35.30005
C13  40414470.24405   -118488.43505     -1163.61205        34.80005                                                                
R04  20710112.38815 110902149.78815      -954.16815        33.00015
E33  24392249.09705    -38013.80105     -1647.50405        34.10005  24392234.70725   2053841.08825     -1228.40425        32.90025
C26  23090800.27205   -127623.06805      2290.55205        32.50005  23090817.36023   -103809.68523      1719.09123        23.20023
R20  21865521.51425 116925208.44925     -1992.05925        32.90025
R19  23234866.73625 124291308.89125     -4059.19825        30.90025
E26  26336536.59525   -518140.46925     -3272.95725        30.70025                                                                
C34  25613112.21125   -140745.08725     -2439.61225        29.70025                                                                
E19  24393118.79524   -159095.48124       804.26724        29.10024                                                                
E27  26112315.52024   -123325.79124      1330.91324        28.20024                                                                
R05  20777300.37425 111067016.21225      1226.92525        35.10025
C09  38064557.85524   -120463.85724      -790.63424        28.00024                                                                
E21  27334864.06724   -451418.38524      2488.52124        25.50024                                                                
R16  23471748.04724 125382303.38024      4220.14424        25.40024
R03  23661334.09924 126661412.74424     -2473.68324        25.40024
C14  26194654.11823   -334404.43923      2154.93923        23.20023                                                                
C16  40012120.58523   -410472.78423     -1095.66223        23.30023                                                                
E07  26635845.78823   -134640.01423     -1916.24923        22.20023  26635900.65023   -108356.41923     -1441.07523        22.60023
E30  27419767.99024   -121641.86824      -777.66524        28.90024                                                                
> 2025 10 05 09 15 34.0000002  0 33                      
G03  21403580.60907    -20057.05007     -2543.50907        47.30007  21403586.30605    -22656.97505     -1899.46905        34.40005
G04  21462157.05807    -37839.14307     -1440.27207        41.90007  21462157.95724    -35864.78624     -1075.61424        28.20024
G16  22672697.71807    -48543.80407        18.57007        43.30007                                                                
G07  21593735.96806    -49824.62506      1456.23106        41.20006                                                                
G01  24710930.57925    -10865.12125     -3794.16325        30.40025  24710931.47823   2073999.39223     -2831.73523        22.30023
G30  23820093.39225   -162603.67525      2787.86425        31.10025  23820124.27105   -128817.66905      2086.50105        31.30005
G06  22481749.10925    -56054.60925      -252.67225        29.70025  22481788.98124   2040304.21724      -188.01724        24.90024
G09  20719422.14325    -51524.22125       422.74225        30.20025  20719393.36224   -220098.66924       312.00524        23.80024
G11  24573455.95024   -119222.39824      1912.16824        27.20024                                                                
C21  22315982.16708   -105608.81908        23.18308        52.60008  22315983.36605    -87138.60805        17.68405        35.00005
E29  23912196.23107    -43545.83607      -662.88507        42.90007  23912201.02806   2049865.51506      -494.82706        36.10006
E12  26176341.59606    -85197.63406      1103.94306        37.30006  26176338.89805    -71226.68705       824.51505        33.90005
R15  20128498.23105 107561002.91705      2206.96405        35.30005
C13  40414687.29405   -117321.78605     -1168.48705        34.80005                                                                
R04  20710295.26105 110903102.94905      -960.47905        33.70005
E33  24392562.08105    -36362.79805     -1653.15805        33.90005  24392552.48725   2055074.10125     -1235.28725        33.60025
R14  20718995.53826 110444314.98326     -1857.96726        38.00026
C26  23090356.87905   -129910.22005      2285.05905        32.60005  23090385.35923   -105524.50023      1712.20323        23.10023
R19  23235623.41325 124295328.75625     -4061.67425        30.80025
C34  25613585.58425   -138301.18325     -2445.92225        30.00025  25613585.58423   1976144.14823     -1842.89823        20.60023
E26  26337176.35225   -514863.34725     -3279.20325        30.60025                                                                
E19  24392953.61024   -159894.22924       795.90324        29.20024                                                                
R05  20777053.04525 111065666.99925      1222.72125        34.10025
E27  26112069.69024   -124657.58624      1330.64324        28.30024                                                                
C09  38064708.65124   -119668.24824      -798.06324        28.10024                                                                
R16  23471048.93124 125378540.60224      4218.21124        25.30024
E21  27334411.98024   -453903.73824      2483.76924        25.40024                                                                
R03  23661710.03924 126663398.04824     -2471.49524        25.20024
C14  26194251.49724   -336551.79024      2143.63924        24.00024                                                                
C16  40012354.42324   -409375.49324     -1098.10624        23.60024                                                                
E07  26636183.95423   -132716.61823     -1928.11323        22.20023  26636272.99223   -106913.98923     -1443.81123        22.10023
E10  28154301.78223   -546004.20523      1956.29723        19.90023                                                                
E30  27419906.49424   -120858.19124      -786.96524        28.90024  27419925.68023   1992216.85123      -583.95223        19.40023
> 2025 10 05 09 15 35.0000003  0 34                      
G03  21404050.38408    -17511.91008     -2546.98408        47.50008  21404063.57505    -20756.37805     -1901.94605        34.30005
G04  21462433.16707    -36397.32907     -1443.54307        42.20007  21462429.56924    -34789.64824     -1075.80824        28.10024
G16  22672690.82307    -48560.19007        14.24907        43.10007                                                                
G07  21593461.05806    -51279.15706      1452.63106        41.10006                                                                
G01  24711646.78325     -7073.52525     -3791.25925        30.30025  24711649.48123   2076832.16223     -2834.05323        22.30023
G30  23819570.85425   -165396.55925      2793.79125        30.80025  23819587.34305   -130902.35105      2083.06805        32.60005
G09  20719297.42925    -51942.78825       416.59725        29.90025  20719311.51924   -220410.50324       310.87124        23.70024
G06  22481830.05325    -55801.36525      -254.56125        29.60025  22481824.05724   2040494.94624      -193.28424        24.80024
G11  24573070.71724   -121129.50724      1904.23924        27.20024                                                                
C21  22315970.17508   -105630.14508        19.43508        52.50008  22315973.47306    -87154.58106        14.43206        35.50006
E29  23912308.35307    -42881.16507      -666.50107        42.90007  23912320.64506   2050362.00506      -497.98706        36.30006
E12  26176117.65106    -86299.79606      1100.21906        37.30006  26176123.64705    -72049.63505       821.40105        34.10005
R15  20128096.50906 107558893.40906      2202.93106        35.50006
R14  20719304.32416 110445997.53816     -1857.52216        37.50016
C13  40414929.82605   -116151.63505     -1171.90205        34.80005                                                                
R04  20710467.64205 110904063.01005      -963.71405        34.10005
E33  24392875.36405    -34708.02805     -1656.65305        33.70005  24392858.87525   2056308.21825     -1234.66825        34.90025
C26  23089904.19205   -132194.00405      2282.09905        32.60005  23089909.58824   -107235.22024      1708.67324        24.00024
R19  23236365.09925 124299333.32225     -4069.83525        30.80025
C34  25614040.66925   -135851.74525     -2452.20525        30.10025  25614048.76323   1977988.65723     -1844.50823        23.30023
E26  26337776.83725   -511581.39925     -3284.36125        30.50025                                                                
E19  24392777.33224   -160686.90924       789.64724        29.20024                                                                
C09  38064867.54124   -118868.89724      -801.22224        28.20024                                                                
E30  27420054.59124   -120070.78224      -789.27524        28.80024  27420063.88523   1992796.37223      -577.30623        19.70023
R05  20776827.30225 111064497.52925      1222.81925        33.20025
E27  26111797.17924   -125989.54524      1332.04224        28.30024                                                                
R16  23470278.76424 125374463.68924      4212.35724        25.90024
C16  40012574.77124   -408271.67424     -1107.08324        24.70024                                                                
C14  26193843.47924   -338696.94424      2144.05524        24.70024                                                                
E21  27333870.25524   -456385.13024      2479.41124        25.30024                                                                
R03  23662183.41124 126665969.29524     -2476.84324        25.10024
C06  38597094.78724   -775023.10124     -1052.57324        25.40024                                                                
E07  26636532.31223   -130788.41423     -1930.60723        22.60023  26636629.74523   -105467.72623     -1448.17823        21.80023
E10  28153933.63723   -547960.36323      1956.15823        20.00023                                                                
> 2025 10 05 09 15 36.0000005  0 34                      
G03  21404557.63308    -14964.48008     -2548.57308        47.50008  21404553.73605    -18854.01105     -1903.25305        34.20005
G16  22672695.02007    -48574.71307        13.59107        42.90007                                                                
G04  21462706.87707    -34953.49807     -1444.84007        42.30007  21462711.07424    -33710.87124     -1080.59524        28.00024
G09  20719217.68425    -52359.93425       416.43525        30.90025  20719232.67424   -220720.41224       308.94724        23.60024
G07  21593202.63706    -52731.00506      1450.50606        41.00006                                                                
G06  22481923.88825    -55545.99725      -256.42925        33.40025  22481859.43324   2040686.48824      -191.94924        26.00024
G01  24712390.56825     -3279.44125     -3795.32825        30.20025  24712373.78023   2079665.54023     -2833.68223        22.30023
G30  23819057.01025   -168185.87325      2787.52825        30.60025  23819058.80905   -132985.42605      2082.27305        32.10005
G11  24572705.87024   -123038.12224      1909.36824        27.40024                                                                
E29  23912457.65007    -42215.53607      -666.85807        42.80007  23912451.05506   2050859.64606      -498.21706        35.90006
C21  22315976.47108   -105649.53808        18.42708        52.00008  22315975.27206    -87169.23906        14.00006        36.80006
E12  26175905.69806    -87400.15106      1099.45106        37.40006  26175918.28905    -72871.32205       821.05705        34.00005
R14  20719659.27806 110447862.37206     -1859.81706        37.30006
R15  20127692.08906 107556705.14206      2201.50906        35.60006
C13  40415151.67305   -114979.80205     -1172.67405        34.90005                                                                
R04  20710677.19705 110905157.91605      -964.55005        34.10005
C26  23089491.67805   -134475.14805      2279.82405        33.50005  23089474.88924   -108946.80524      1712.01624        23.80024
E33  24393157.76805    -33050.70505     -1658.59905        33.70005  24393180.25315   2057545.62615     -1239.05315        34.90015
R19  23237048.02625 124302959.77725     -4079.34025        30.70025
C34  25614523.33425   -133403.62625     -2447.45925        30.10025  25614522.13523   1979830.39623     -1840.35523        23.00023
C09  38065028.52924   -118069.18024      -799.90124        29.00024                                                                
E26  26338246.31125   -886694.76125     -3280.81725        29.90025                                                                
E19  24392642.12524   -161478.06624       790.39424        29.10024                                                                
R05  20776623.44325 111063380.07225      1217.71425        32.40025
R16  23469477.71924 125370158.23824      4212.16324        27.60024
E27  26111558.84424   -127316.12124      1323.88424        28.20024                                                                
C06  38597300.74524   -773964.84324     -1058.25724        26.40024                                                                
C16  40012796.61724   -407164.61924     -1108.67324        25.60024                                                                
E21  27333372.60024   -458866.99524      2482.10124        25.30024                                                                
C14  26193438.16024   -340842.91024      2146.37224        24.70024                                                                
R03  23662690.06124 126668653.13124     -2480.06724        25.00024
E07  26636890.56423   -128861.17823     -1926.75123        23.20023  26636999.38923   -104021.44223     -1446.29523        21.40023
E10  28153552.90123   -549917.51423      1957.64623        20.00023                                                                
E30  27420220.37624   -119284.40224      -785.86624        28.70024  27420218.27823   1993375.33223      -578.67923        19.90023
> 2025 10 05 09 15 37.0000006  0 33                      
G03  21405022.91107    -12414.79007     -2550.82107        47.40007  21405031.60505    -16950.13005     -1904.63605        34.10005
G16  22672680.03007    -48586.59707        11.31607        42.90007                                                                
G04  21462968.59607    -33507.62707     -1446.89107        42.30007  21462981.18724    -32631.28024     -1079.99824        27.90024
G06  22482005.43216    -55289.90016      -256.46316        35.60016  22481909.79824   2040878.92524      -192.88424        25.70024
G01  24713111.56925       518.18125     -3799.38925        30.20025  24713088.48523   2082504.58823     -2841.88323        22.30023
G30  23818540.76725   -170974.13325      2787.73325        30.50025  23818525.17805   -135066.92405      2080.70905        32.00005
G11  24572318.53824   -124945.81224      1907.22724        27.40024                                                                
C21  22315957.28408   -105666.77708        16.16208        50.60008  22315965.97806    -87182.28306        12.23706        37.70006
R05  20776383.30925 111062131.82325      1216.87325        32.10025
E29  23912570.07207    -41547.32907      -669.24607        42.70007  23912573.07006   2051358.76506      -499.85706        36.50006
E12  26175689.84706    -88497.13806      1096.05506        37.40006  26175702.43806    -73691.62706       819.61406        36.20006
R14  20719943.18206 110449411.45406     -1863.76106        37.20006
R15  20127229.50906 107554267.62306      2199.24506        35.80006
R04  20710826.79305 110905993.08705      -966.33305        34.70005
C13  40415350.43505   -113806.17405     -1174.52505        34.90005                                                                
C26  23089062.67515   -136754.29615      2278.15015        33.90015  23089059.67724   -110658.71824      1712.07824        23.50024
E33  24393482.74315    -31392.20815     -1659.08515        33.70015  24393485.44105   2058785.30305     -1240.81305        34.40005
C34  25614968.22625   -130952.25025     -2453.00525        30.00025  25614985.01523   1981667.89023     -1835.37023        22.70023
C09  38065168.53225   -117267.81825      -802.18325        29.80025                                                                
C06  38597509.70024   -772900.46624     -1067.43624        28.40024                                                                
E19  24392511.71624   -162270.99224       793.81124        29.00024                                                                
E30  27420379.56624   -118496.80424      -788.20724        28.70024  27420362.77823   1993957.15723      -583.25823        19.90023
R16  23468685.36724 125365960.56524      4209.83824        28.00024
E26  26338898.66024   -883413.32224     -3281.43924        29.40024  26338868.98023   -667356.69323     -2444.83323        22.30023
C16  40013018.46424   -406053.33824     -1113.39424        25.80024                                                                
E21  27332879.44124   -461348.83824      2481.83124        25.60024  27332933.70423   -351735.54423      1846.06923        18.60023
C14  26193009.45724   -342987.80824      2144.36324        24.70024                                                                
R03  23663163.43324 126671223.61124     -2480.16524        24.80024
R19  23237844.57525 124307255.18825     -4082.86125        29.60025
E07  26637264.40623   -126934.88823     -1925.81723        23.30023  26637361.23923   -102574.23023     -1447.67623        21.10023
E10  28153140.68623   -551871.58123      1952.52623        19.90023                                                                
E27  26111320.20924   -128640.19724      1322.82524        28.20024                                                                
G09                                                                  20719133.14324   -221027.66724       305.92824        23.60024
> 2025 10 05 09 15 38.0000008  0 35                      
G03  21405514.87007     -9856.72207     -2562.25607        47.30007  21405524.16405    -15040.17505     -1912.99205        34.10005
G16  22672686.32607    -48590.86407         0.20807        42.80007                                                                
G04  21463258.19607    -32053.88007     -1457.68307        42.20007  21463263.29224    -31545.19324     -1089.33524        27.60024
G07  21592619.84026  -1053590.79326      1432.84626        37.30026                                                                
G09  20719086.67524    -53175.29424       401.13224        29.20024  20719059.69324   -221331.80724       302.58124        24.40024
G30  23818035.61725   -173754.61525      2776.59225        30.40025  23818001.74115   -137141.26515      2070.76215        32.00015
G01  24713824.47525      4324.06625     -3810.01725        30.10025  24713815.18223   2085345.63623     -2842.04823        22.30023
G11  24571955.18924   -126842.28824      1890.87024        27.30024                                                                
G06  22482051.30026    -55020.10726      -276.64026        35.80026  22481953.26824   2041078.58724      -203.27524        25.30024
C21  22315963.58008   -105675.57108         4.57108        50.20008  22315970.17506    -87188.45406         2.73606        38.10006
R05  20776153.96817 111060878.22317      1204.89817        43.30017
E29  23912700.48217    -40870.92617      -680.50017        42.60017  23912709.17626   2051864.91926      -509.67126        36.50026
E12  26175484.18906    -89586.51306      1084.56806        37.40006  26175500.67806    -74505.73806       811.01306        36.50006
R14  20720320.62126 110451396.80826     -1875.29326        37.10026
R04  20711012.06505 110906959.28405      -977.90005        35.20005
R15  20126849.67216 107552210.11616      2185.94216        35.80016
C13  40415571.98205   -112625.60305     -1184.04305        34.90005                                                                
C26  23088613.28625   -139025.84625      2267.75025        34.10025  23088619.88123   -112384.72923      1733.05923        23.30023
E33  24393838.59725  -1079716.78125     -1672.10125        33.10025  24393812.81505   2060032.00805     -1250.21805        34.30005
C34  25615449.09425   -128491.94625     -2464.76725        30.60025  25615459.58623   1983511.45423     -1846.59923        22.50023
C09  38065319.92725   -116461.20525      -809.23825        29.90025                                                                
C06  38597709.06224   -771827.98924     -1076.52724        28.90024                                                                
R20  21867360.14224 116935031.19324     -2018.49824        26.80024
E19  24392359.72124   -163056.26924       781.45224        28.90024                                                                
R16  23467825.26324 125361337.92624      4192.44624        28.00024
E30  27420552.84624   -117697.46124      -805.21524        28.50024  27420524.06623   1994542.80423      -587.55623        19.80023
E27  26111092.96624   -129958.53524      1315.46824        28.10024                                                                
E26  26339511.73524   -880123.96124     -3293.32224        29.00024                                                                
C16  40013256.49924   -404938.14624     -1117.14724        25.90024                                                                
E21  27332449.23924   -463823.69924      2471.37124        25.60024  27332467.22723   -353583.08823      1848.28123        18.80023
C14  26192599.34124   -345125.49224      2134.07724        24.80024                                                                
R03  23663598.43224 126673523.71424     -2482.23824        24.70024
E07  26637658.63323   -125004.81623     -1931.96323        23.30023  26637734.78023   -101126.58323     -1447.86523        21.00023
R19  23238646.82024 124311519.98824     -4090.48324        28.70024
E10  28152774.64023   -553820.58523      1946.47123        19.90023                                                                
> 2025 10 05 09 15 39.0000010  0 35                      
G03  21406005.03107     -7290.58907     -2570.16507        47.10007  21406017.92205    -13124.03605     -1919.23105        34.50005
G16  22672692.32207    -48586.79607        -8.23607        42.90007                                                                
G04  21463531.00707    -30591.24107     -1467.08607        42.10007  21463547.49524    -30451.69824     -1097.19924        27.50024
G06  22482089.97326    -54741.29526      -283.32226        35.70026  22482018.32324   2041286.84524      -212.55624        25.10024
G07  21592345.83026  -1055020.20526      1429.41126        36.80026                                                                
G09  20719014.72525    -53570.70225       395.40825        33.00025  20718997.03724   -221626.63424       290.17224        26.00024
G01  24714576.65525      8139.24725     -3819.82725        30.10025  24714545.47623   2088198.19323     -2858.31023        22.20023
G30  23817484.89825   -176521.54025      2760.14725        30.40025  23817481.60115   -139209.16515      2064.67915        31.90015
G11  24571578.35024   -128722.78924      1872.51224        27.30024                                                                
C21  22315967.77708   -105675.94608        -3.83308        49.70008  22315975.57216    -87188.31816        -3.29016        38.50016
R05  20775931.22207 111059662.86307      1195.74607        43.90007
E29  23912855.17507    -40186.32007      -688.70707        42.50007  23912846.18126   2052378.74026      -517.65426        36.40026
E12  26175280.93006    -90667.06706      1077.14306        37.40006  26175299.81706    -75313.72406       804.92406        37.40006
R14  20720677.97316 110453275.37816     -1884.26716        37.00016
R04  20711192.24006 110907897.12506      -987.15106        35.60006
R15  20126454.24606 107550071.55306      2176.61806        35.70006
C13  40415802.22215   -111436.91915     -1192.74015        34.80015                                                                
C26  23088177.68725   -141286.85625      2255.74025        34.10025  23088184.28323   -114102.44323      1713.56423        23.10023
E33  24394121.30125  -1078038.15925     -1678.62125        33.00025  24394137.79015   2061285.40715     -1256.74515        34.20015
C34  25615945.25025   -126023.34325     -2472.75225        31.40025  25615942.25223   1985367.13723     -1861.74323        22.20023
R20  21867712.39825 116936888.92925     -2023.42825        30.20025
C09  38065477.31825   -115640.19125      -828.21625        29.90025                                                                
C06  38597912.92124   -770744.66924     -1088.74124        28.90024                                                                
E26  26340164.68324  -1175031.39124     -3304.96024        28.70024                                                                
E19  24392226.91324   -163828.31624       765.43224        28.80024                                                                
R16  23467077.88024 125357320.62924      4194.69324        28.20024
E30  27420678.45924   -116883.29924      -821.57224        28.40024  27420680.25823   1995137.71923      -599.55023        19.90023
E27  26110834.24624   -131270.17624      1308.29324        28.00024                                                                
C16  40013473.24924   -403814.93024     -1127.22824        25.90024                                                                
R19  23239481.74224 124315960.82024     -4095.34124        27.90024
C14  26192210.81024   -347253.44424      2123.08524        24.80024                                                                
R03  23664097.28624 126676169.25324     -2494.51424        24.60024
E07  26638012.08823   -123063.71523     -1946.61523        23.30023  26638109.82023    -99670.75523     -1459.91723        20.90023
E10  28152436.77423   -555762.29223      1938.05823        19.90023                                                                
E21  27331991.75624   -466283.06624      2451.61924        25.60024  27331997.15223   -355435.45223      1854.77323        18.70023
> 2025 10 05 09 15 40.0000011  0 34                      
G03  21406491.59407     -4718.22807     -2575.47607        47.00007  21406501.78705    -11202.95905     -1923.54505        34.50005
G16  22672691.42207    -48576.17707       -13.89507        43.10007                                                                
G06  22482143.63626    -54457.72426      -285.95026        35.60026  22482065.39024   2041497.76224      -212.24724        24.80024
G07  21592081.41326  -1056446.58026      1424.85826        36.50026                                                                
G09  20718930.78325    -53960.27325       386.65325        34.10025  20718916.99224   -221913.15824       282.37224        25.60024
G30  23816965.95825   -179283.41325      2759.34625        30.30025  23816949.16925   -141271.27525      2059.21525        31.70025
G01  24715274.57125     11958.81325     -3821.76025        30.10025  24715272.17323   2091046.98523     -2846.91023        22.20023
G11  24571205.40824   -130598.17024      1872.82124        27.20024                                                                
R05  20775719.26917 111058564.52917      1188.23617        43.70017
E29  23912966.39807    -39494.39607      -694.83307        42.10007  23912961.90126   2052894.85926      -517.26926        36.10026
E12  26175090.26226    -91740.40526      1069.48126        37.30026  26175087.86406    -76116.67706       800.43706        37.00006
R14  20721020.63606 110455136.40706     -1888.99806        36.90006
R04  20711375.71306 110908916.18606      -991.95206        35.60006
R15  20126050.42506 107547949.04506      2173.52606        35.60006
C13  40416031.26425   -110239.12925     -1202.34225        34.70025                                                                
C26  23087748.68425   -143541.92725      2252.10125        34.00025  23087746.58623   -115804.10123      1693.63123        22.90023
E33  24394456.76915  -1076353.55215     -1686.85015        33.30015  24394450.17425   2062540.81825     -1256.41725        33.00025
C34  25616433.91225   -123551.15225     -2473.98525        32.00025  25616412.02723   1987232.72023     -1870.53223        22.00023
R20  21868127.01125 116939141.47425     -2032.47925        30.20025
C09  38065639.20625   -114814.92525      -827.39125        29.80025                                                                
C06  38598119.17824   -769662.43124     -1081.69724        29.20024                                                                
R16  23466273.83724 125353061.04624      4183.01324        28.40024
E26  26340781.95624  -1171723.41624     -3307.97424        28.60024                                                                
E19  24392093.20524   -164595.64724       764.97224        28.70024                                                                
E30  27420802.87324   -116066.19724      -818.57224        28.20024  27420825.05823   1995732.09723      -594.11023        19.90023
E27  26110561.43424   -132568.67724      1291.93024        27.80024                                                                
E21  27331510.88924   -468736.33024      2450.21224        25.70024  27331500.09623   -357304.84423      1877.90723        18.30023
C16  40013683.10424   -402681.34124     -1138.77424        25.90024                                                                
R19  23240244.11424 124320073.30224     -4094.72824        27.40024
C14  26191784.80524   -349367.82224      2107.59124        24.70024                                                                
R03  23664641.41024 126679116.57424     -2503.98724        24.50024
E07  26638388.32824   -121109.63124     -1960.57524        23.60024  26638471.07023    -98210.41323     -1462.60023        21.10023
E10  28152062.03323   -557701.34523      1937.72623        19.80023                                                                
G04                                                                  21463821.80524    -29352.85324     -1101.51924        27.40024
> 2025 10 05 09 15 41.0000013  0 35                      
G03  21406982.35407     -2138.62507     -2583.22307        46.80007  21406997.64405     -9276.66705     -1928.90005        34.50005
G16  22672690.82307    -48558.11207       -21.78707        43.10007                                                                
G07  21591812.49926  -1057864.62526      1413.87826        36.30026                                                                
G06  22482177.81226    -54165.70226      -296.24726        35.60026  22482125.04924   2041714.64724      -219.86924        24.50024
G09  20718857.33425    -54344.17925       381.07225        34.30025  20718849.53924   -222197.73424       283.60124        25.20024
G30  23816418.53725   -182042.31825      2757.42125        30.30025  23816428.13025   -143328.27125      2054.43725        32.60025
G01  24716029.44925     15787.30525     -3832.95325        30.10025  24716013.86023   2093902.50123     -2858.87723        22.30023
G04  21464128.19326  -1378957.80726     -1476.90026        39.40026  21464102.71124    -28250.16224     -1104.61324        27.00024
G11  24570861.54724   -132467.79924      1866.75324        27.20024                                                                
R05  20775489.62807 111057310.15807      1185.43007        43.50007
E29  23913104.30207    -38796.16607      -701.63307        42.10007  23913105.50226   2053418.69626      -527.69526        36.30026
R14  20721415.16306 110457212.52206     -1899.68206        36.90006
R04  20711611.05006 110910149.01306      -999.99406        35.70006
C13  40416255.50915   -109037.61715     -1203.37215        34.70015                                                                
R15  20125604.63426 107545539.81426      2169.81226        35.50026
C26  23087349.96025   -145790.98425      2246.05025        34.00025  23087320.28123   -117494.89323      1685.35823        22.70023
E33  24394784.44225  -1074662.01425     -1695.25425        33.50025  24394777.54725   2063803.27925     -1265.98625        33.30025
C34  25616888.39725   -121070.97925     -2484.16525        32.00025  25616895.89223   1989100.92423     -1869.51523        21.80023
E12  26174881.60726    -92807.14526      1063.44026        36.40026  26174889.10106    -76914.29006       794.94306        36.20006
R20  21868499.95325 116941107.85825     -2035.39025        30.40025
C09  38065809.78825   -113984.78625      -832.57525        29.90025                                                                
C06  38598343.72324   -768572.78024     -1093.35724        29.20024                                                                
E19  24391920.82524   -165357.50124       759.11624        28.60024                                                                
R16  23465443.41224 125348598.14724      4177.99824        28.40024
E30  27420960.86424   -115250.06724      -815.64324        28.20024  27420982.14923   1996332.95723      -604.10023        19.80023
E27  26110352.77924   -133861.35524      1289.76824        27.60024                                                                
R19  23240969.01224 124323924.78424     -4100.12124        27.10024
E21  27331044.11224   -471187.42624      2450.01124        25.90024  27331022.52723   -359186.13823      1887.24423        17.90023
C16  40013918.14124   -401541.89524     -1142.37524        25.80024                                                                
C14  26191385.78124   -351473.39324      2101.16624        24.60024                                                                
R03  23665060.81924 126681335.48824     -2511.11624        24.40024
E07  26638765.76624   -119144.47124     -1970.69724        23.70024  26638847.61023    -96746.61023     -1465.53423        22.10023
C24  26575347.67023  -1211827.52123      3083.08123        21.60023                                                                
E10  28151706.77923   -559641.68823      1940.98723        19.70023                                                                
E26  26341391.73424  -1168410.30824     -3315.67524        28.60024                                                                
> 2025 10 05 09 15 42.0000015  0 33                      
G03  21407464.72107       445.89907     -2586.98407        46.70007  21407473.11505     -7346.92005     -1931.47305        34.60005
G16  22672675.83307    -48535.28607       -25.20707        43.20007                                                                
G04  21464370.12626  -1377479.70726     -1478.10026        38.40026  21464365.62924    -27144.82824     -1106.65624        26.40024
G09  20718778.18815    -54722.39315       375.36915        35.00015  20718768.59524   -222481.49524       283.35424        24.80024
G06  22482232.67426    -53870.52926      -296.74926        35.50026  22482316.01624   2041935.50424      -222.84224        24.20024
G30  23815891.80125   -184793.04525      2746.63725        30.30025  23815892.10115   -145382.06315      2052.19115        32.50015
G01  24716729.46425     19619.47025     -3834.00125        30.10025  24716733.36223   2096764.01223     -2864.50823        22.40023
G11  24570502.09524   -134333.65724      1863.97324        27.80024                                                                
G07  21591536.09116  -1059279.66916      1413.54516        36.30016                                                                
R05  20775239.90117 111056045.07717      1179.11017        43.40017
E29  23913224.81907    -38093.50107      -704.88207        42.00007  23913222.72026   2053942.66726      -524.03826        35.90026
R14  20721735.04126 110458988.11726     -1905.43926        36.80026
R04  20711762.14506 110911028.61206     -1000.84306        36.00006
C13  40416480.65305   -107831.75705     -1208.03305        35.20005                                                                
R15  20125222.09925 107543565.63625      2159.88125        35.40025
C26  23086868.49425   -148035.88425      2242.82025        33.90025  23086884.08323   -119175.39523      1675.35823        22.50023
E33  24395072.24325  -1072964.71225     -1700.18325        33.40025  24395086.93325   2065072.01925     -1271.87925        33.10025
C34  25617364.46825   -118582.53025     -2492.58625        32.00025  25617353.97523   1990972.60723     -1873.42223        21.60023
R20  21868829.12525 116942938.81125     -2045.57525        30.80025
C09  38065950.99025   -113151.83425      -834.35825        30.40025                                                                
E12  26174680.44625  -1475962.96625      1062.78725        35.00025  26174673.85006    -77708.79506       792.94906        35.60006
C06  38598542.48524   -767477.22124     -1098.51224        29.10024                                                                
R16  23464674.44424 125344560.20824      4172.41824        28.40024
E30  27421103.26524   -114427.67724      -825.52124        28.30024                                                                
E19  24391770.02924   -166112.51124       751.58824        28.60024                                                                
E27  26110052.38724   -135145.52824      1279.91924        27.50024                                                                
R19  23241743.07624 124328135.99524     -4111.98224        27.00024
E21  27330576.13624   -473634.00124      2444.31424        25.90024  27330550.65323   -361049.80723      1854.85523        17.60023
C16  40014109.10924   -400399.81724     -1143.39324        25.80024                                                                
R03  23665521.30124 126683869.96324     -2508.60424        24.30024
C14  26190988.25624   -353575.97224      2101.08424        24.50024                                                                
E10  28151340.43323   -561581.92423      1940.18223        19.60023                                                                
E07  26639111.12724   -117172.18624     -1975.84724        23.70024  26639209.15923    -95283.67323     -1462.50323        22.60023
> 2025 10 05 09 15 43.0000017  0 35                      
G03  21407963.57507      3027.86407     -2581.43407        46.50007  21407973.46805     -5417.42705     -1929.36605        34.60005
G16  22672690.82307    -48513.16807       -21.76407        43.30007                                                                
G09  20718692.74725    -55102.05525       380.38625        35.40025  20718702.94024   -222768.92924       289.27124        24.60024
G06  22482277.04326    -53575.52226      -294.92426        35.50026                                                                
G04  21464658.82626  -1376002.52626     -1476.72026        37.80026  21464660.02524    -26036.88924     -1109.24124        26.20024
G01  24717474.74825     23453.34125     -3834.72325        30.10025  24717469.35223   2099627.27523     -2864.13923        22.40023
G11  24570158.53324   -136200.53824      1867.39124        28.10024                                                                
G26  24637013.15124  -1540791.09624     -2614.36524        26.40024                                                                
G07  21591270.77426  -1060694.01726      1413.99926        36.20026                                                                
G30  23815383.65325   -187543.25425      2749.95025        30.20025  23815367.76425   -147434.64525      2051.97625        31.80025
R05  20775012.35807 111054803.70707      1182.54307        43.10007
E29  23913366.32127    -37394.50927      -697.15527        41.90027  23913363.02326   2054466.29026      -523.45026        35.90026
R14  20722101.38816 110460916.25916     -1900.64916        36.70016
R04  20711927.93116 110911890.59416     -1001.99816        36.00016
C13  40416712.99215   -106626.67115     -1204.70015        35.40015                                                                
R15  20124805.08725 107541313.14125      2161.46325        35.30025
C26  23086439.79025   -150282.22625      2247.06325        33.80025  23086452.38223   -120852.87023      1675.95923        22.20023
E33  24395393.62025  -1071268.50925     -1695.65325        33.40025  24395416.10525   2066339.79025     -1267.28625        33.40025
C34  25617845.03525   -116098.35425     -2482.03825        32.00025                                                                
C09  38066130.56625   -112320.28925      -830.84225        30.70025                                                                
R20  21869218.85525 116944997.77525     -2041.40425        30.70025
E12  26174476.58725  -1477025.83825      1062.87125        34.10025  26174476.58705    -78503.65605       795.03905        35.30005
C06  38598740.04824   -766379.88124     -1098.23124        29.10024                                                                
R16  23463912.07224 125340462.65824      4173.39324        28.30024
E19  24391637.82124   -166869.57624       758.09324        28.50024                                                                
R19  23242523.43624 124332283.67924     -4100.75224        26.90024
E21  27330094.66924   -476080.61724      2446.63724        26.10024  27330105.46222   -362881.18122      1815.22722        17.30022
E27  26109819.74824   -136426.13524      1278.82524        27.20024                                                                
C16  40014351.04124   -399257.56624     -1142.33824        25.80024                                                                
E26  26342643.96724  -1500478.15124     -3313.06624        25.40024                                                                
R03  23665985.67924 126686330.14524     -2504.38924        24.20024
C14  26190588.63324   -355681.69424      2107.29224        24.30024                                                                
E10  28150978.28323   -563523.26023      1941.88623        19.50023                                                                
E30  27421239.97124   -113606.67424      -820.30924        28.30024                                                                
E07                                                                  26639589.29623    -93822.65223     -1460.06223        23.40023
> 2025 10 05 09 15 44.0000019  0 34                      
G16  22672703.11407    -48490.90907       -22.32907        43.40007                                                                
G03  21408463.02907      5611.87307     -2584.78107        46.20007  21408470.52405     -3488.26205     -1929.00005        35.20005
G07  21591017.15026  -1062108.01726      1413.82526        36.30026                                                                
G06  22482360.68625    -53279.97925      -295.81125        35.40025                                                                
G04  21464943.32926  -1374521.69326     -1482.65926        37.30026  21464941.83025    -24931.94325     -1103.44925        30.50025
G30  23814863.21325   -190294.90925      2752.37725        30.20025  23814850.92225   -149488.76925      2054.89525        30.90025
G01  24718223.03025     27288.09125     -3835.19025        30.10025  24718209.83923   2102493.01723     -2866.98023        22.40023
G11  24569799.38224   -138066.81024      1865.96824        28.40024                                                                
G26  24637503.91124  -1538180.99024     -2610.10624        27.20024                                                                
G09  20718624.09516    -55481.38416       379.16316        35.50016  20718610.30524   -223057.50024       289.14024        24.90024
C13  40416947.72906   -105421.77106     -1204.80706        38.60006                                                                
R05  20774799.20607 111053636.52707      1181.40207        42.90007
E29  23913504.22627    -36692.97927      -702.79927        41.60027  23913504.82526   2054990.64726      -524.72326        35.80026
R14  20722455.14326 110462774.22826     -1900.75926        36.60026
R04  20712123.99526 110912912.71226      -998.83426        36.00026
R15  20124394.67125 107539092.76225      2161.75325        35.10025
C26  23086012.58625   -152527.49625      2244.73425        33.70025  23086026.37723   -122524.69123      1668.99523        22.00023
E33  24395754.27125  -1069570.44825     -1698.99125        33.40025  24395744.37815   2067607.43715     -1267.58515        34.20015
C34  25618319.30725   -113616.56725     -2480.59225        31.90025                                                                
C09  38066294.25325   -111488.57925      -831.79325        30.80025                                                                
R20  21869597.49325 116946994.76425     -2044.32425        30.70025
E12  26174269.73025  -1478089.34225      1063.82025        33.40025  26174279.02425    -79298.53125       794.88225        34.10025
E30  27421409.05424   -112787.69224      -817.97124        28.30024                                                                
E19  24391493.02124   -167628.89424       760.44424        28.40024                                                                
R16  23463229.14424 125336787.00524      4167.48224        28.30024
E07  26639945.45024  -1598448.89324     -1958.79324        24.80024  26639841.42223    -92361.39723     -1461.37323        22.60023
R19  23243310.39124 124336466.57324     -4099.82924        26.80024
E21  27329612.60324   -478531.79924      2453.46424        26.10024  27329631.49022   -364707.22422      1823.37722        17.20022
E26  26343291.51924  -1497163.85024     -3314.30024        25.70024                                                                
E27  26109622.78424   -137712.19924      1288.79224        27.00024                                                                
C16  40014574.08724   -398117.15224     -1139.49624        25.70024                                                                
R03  23666512.71424 126689125.04124     -2493.53924        24.10024
C14  26190171.02224   -357790.45724      2110.28424        24.20024                                                                
E10  28150613.73623   -565465.46723      1942.64323        19.40023                                                                
> 2025 10 05 09 15 45.0000021  0 34                      
G16  22672711.50807    -48468.95707       -21.79907        43.50007                                                                
G03  21408954.38917      8195.96717     -2584.13517        44.90017  21408965.78106     -1559.42006     -1928.68006        37.60006
G07  21590771.92026  -1063524.78126      1418.14626        36.40026                                                                
G09  20718550.34626    -55860.60226       379.16326        35.60026  20718544.35024   -223342.67424       283.47524        26.20024
G04  21465231.13026  -1373041.87226     -1479.31526        36.90026  21465232.02925    -23828.90825     -1102.07925        29.90025
G30  23814400.63425   -193049.48225      2756.03225        30.10025  23814334.37925   -151545.29925      2057.73225        30.80025
G01  24718918.84925     31117.78425     -3827.16325        30.00025  24718936.53623   2105349.55423     -2851.93423        22.30023
G11  24569419.54524   -139931.91724      1864.52324        28.70024                                                                
G26  24637986.27724  -1535571.76624     -2608.78224        27.10024                                                                
G06  22482384.06925    -52986.82825      -291.95425        35.30025  22482352.89124  -1224277.50724      -217.41224        23.80024
C13  40417182.76707   -104217.76107     -1203.56507        42.90007                                                                
R05  20774580.35707 111052439.51707      1183.39907        42.80007
E29  23913630.73826    -35993.39126      -699.36826        41.40026  23913644.22926   2055514.06026      -522.94126        35.80026
R14  20722816.99226 110464675.67426     -1899.97026        36.50026
R04  20712338.94616 110914037.49716      -999.24816        35.90016
R15  20123988.15325 107536893.02525      2163.82725        35.00025
E33  24396157.49225  -1067878.70925     -1688.57825        33.40025  24396069.95205   2068874.90605     -1267.38005        34.00005
C26  23085593.77615   -154770.51615      2241.89515        33.60015  23085597.97323   -124202.49123      1680.78923        21.70023
E12  26174230.15825  -1745671.63725      1063.06025        32.80025  26174077.56325    -80098.26325       802.16125        32.40025
C34  25618813.96425   -111133.07625     -2484.34325        31.80025                                                                
C09  38066443.54925   -110656.11025      -832.84925        30.80025                                                                
R20  21869975.83125 116948990.22225     -2041.59525        30.60025
E07  26640340.57624  -1596486.67524     -1962.21724        28.20024  26640345.67224    -90895.91724     -1467.59224        24.60024
E30  27421594.02524   -111969.32724      -818.05724        28.30024                                                                
E19  24391344.62324   -168388.12824       759.19324        28.40024                                                                
R16  23462435.89424 125332522.06424      4182.66024        28.30024
E26  26344010.12124  -1493848.19224     -3316.33624        26.80024                                                                
R19  23244156.10624 124340963.28124     -4098.11424        26.80024
E21  27329196.19124   -480985.04224      2454.27324        26.10024  27329172.20822   -366548.01622      1848.16522        17.20022
C16  40014792.33624   -396979.55124     -1136.19424        25.70024                                                                
E27  26109425.82124   -139006.27524      1298.08224        26.80024                                                                
R03  23666917.43424 126691264.29824     -2501.02124        24.00024
C14  26189778.29424   -359901.83424      2112.68424        24.00024                                                                
E10  28150221.30723   -567408.19123      1942.98123        19.40023                                                                
> 2025 10 05 09 15 46.0000022  0 35                      
G16  22672686.02607    -48449.24907       -18.58507        43.70007                                                                
G03  21409426.26317     10776.60617     -2578.91317        44.10017  21409430.46006       367.68406     -1926.23606        37.30006
G07  21590466.43126  -1064940.52026      1415.22726        36.50026                                                                
G09  20718448.41716    -56242.91416       383.85816        35.90016  20718451.71424   -223628.90024       286.75224        26.70024
G04  21465483.85526  -1371567.00826     -1472.38726        36.50026  21465488.05225    -22723.31525     -1106.87225        29.60025
G06  22482431.43715    -52693.71115      -293.10015        35.30015  22482386.76824  -1224063.38024      -214.12724        24.40024
G30  23813881.39325   -195810.74125      2764.60125        30.10025  23813785.45925   -153605.81825      2062.51425        30.60025
G11  24569050.80024   -141802.92824      1873.96324        28.90024                                                                
G26  24638462.34724  -1532963.77324     -2607.37924        27.00024                                                                
G01  24719611.36925     34942.87025     -3822.78325        30.00025  24719635.05323   2108205.62523     -2855.83723        22.20023
C21  22315965.97817   -105572.95217       -13.51417        47.20017  22315971.07526    -87115.86126        -8.27126        36.70026
C13  40417388.72407   -103016.37507     -1200.07407        42.90007                                                                
R05  20774325.23407 111051210.38307      1187.24407        42.80007
E29  23913742.86016    -35295.59316      -696.65216        41.30016  23913753.35326   2056035.15426      -519.93526        35.60026
R04  20712479.24926 110914923.22526      -995.25926        35.90026
R14  20723142.56726 110466545.84426     -1901.14326        36.40026
R15  20123565.44625 107534768.21725      2163.19325        34.80025
E33  24396440.49625  -1066188.31425     -1689.72225        33.70025  24396368.24625   2070140.08825     -1264.03825        33.50025
C26  23085135.39325   -157019.67125      2252.22325        33.60025  23085146.48623   -125890.88423      1693.69023        21.40023
C09  38066582.65325   -109826.21725      -828.60425        31.40025                                                                
C34  25619262.45425   -108652.04225     -2479.80525        31.70025                                                                
E12  26174005.61325  -1746736.54825      1064.91125        32.40025  26173849.12125    -80900.84525       804.00725        32.30025
R20  21870380.25125 116951288.67125     -2039.07125        30.50025
R16  23461590.77924 125328142.46924      4182.54324        28.60024
E30  27421710.64524   -111150.56224      -818.96624        28.40024                                                                
E19  24391171.94324   -169148.38224       760.76324        28.40024                                                                
R19  23244860.61824 124344866.80424     -4098.16024        27.10024
E26  26344654.67524  -1490537.24424     -3308.59224        26.80024                                                                
E21  27328698.83524   -483437.81824      2452.54324        26.40024  27328673.35323   -368375.87323      1821.39023        17.90023
C16  40014972.81124   -395844.79424     -1133.33524        25.90024                                                                
E27  26109179.99124   -140305.94524      1302.46724        26.60024                                                                
R03  23667378.21524 126693865.41224     -2507.42224        24.00024
C14  26189353.78824   -362016.47824      2116.27724        23.80024                                                                
E10  28149836.07423   -569348.57823      1939.21823        19.30023                                                                
E07  26640700.02724  -1594528.17624     -1956.63924        29.30024  26640694.03124    -89432.03624     -1463.08124        25.10024
> 2025 10 05 09 15 47.0000024  0 36                      
G16  22672716.30507    -48430.13507       -18.81807        43.70007                                                                
G09  20718399.25106    -56625.42206       382.60706        41.00006  20718398.65125   -223914.71725       285.61225        34.40025
G03  21409937.40907     13356.23507     -2579.12207        43.70007  21409946.70206      2294.11106     -1926.08806        37.10006
G06  22482548.05615    -52401.56415      -291.66215        35.20015  22482581.03324  -1223874.18224      -176.73224        24.10024
G04  21465780.05026  -1370096.36426     -1468.53326        36.30026  21465788.74425    -21621.14425     -1100.46025        32.50025
G30  23813334.27225   -198569.78325      2757.93325        30.10025  23813287.50425   -155664.56725      2057.86425        30.50025
G01  24720318.28025     38765.22825     -3820.99225        29.90025  24720384.53423   2111065.75323     -2862.15623        22.00023
G11  24568707.23824   -143676.30124      1874.55424        28.90024                                                                
G26  24638935.42024  -1530366.79724     -2591.46624        26.80024                                                                
G07  21590231.09426  -1066360.46626      1422.05026        36.60026                                                                
R05  20774137.56407 111050082.21707      1187.35907        43.90007
C21  22315998.65607   -105560.35607       -12.59607        46.90007  22315996.25726    -87105.64326       -10.21826        37.40026
C13  40417641.44907   -101816.08507     -1199.74207        42.80007                                                                
