NMEA,$GPGGA,091515.000,3205.0236,N,03448.1585,E,1,29,0.4,40.2,M,17.1,M,,*6A,1759655715000
NMEA,$PSAMSA,091515.000,3205.0236,N,03448.1585,E,1,M,,*60,1759655715000
NMEA,$GPGLL,3205.0236,N,03448.1585,E,091515.000,A,A*51,1759655715000
NMEA,$GPVTG,0.0,T,,M,0.0,N,0.0,K,A*0D,1759655715000
NMEA,$GPGSV,5,1,16,01,08,174,31,03,46,126,47,04,48,043,42,06,37,281,30*77,1759655715000
NMEA,$GPGSV,5,2,16,07,51,225,41,09,56,331,31,11,13,316,27,16,26,077,44*73,1759655715000
NMEA,$GPGSV,5,3,16,30,19,225,32*47,1759655715000
NMEA,$GPGSV,5,4,16,01,08,174,22,03,46,126,35,04,48,043,29,06,37,281,25,8*68,1759655715000
NMEA,$GPGSV,5,5,16,09,56,331,23,30,19,225,31,8*6C,1759655715000
NMEA,$GLGSV,3,1,09,67,08,092,26,68,42,052,33,69,41,339,36,78,43,053,39*65,1759655715000
NMEA,$GLGSV,3,2,09,79,52,142,35,80,11,183,25,83,13,215,31,84,29,270,33*6F,1759655715000
NMEA,$GLGSV,3,3,09,85,13,319,23*59,1759655715000
NMEA,$GAGSV,4,1,13,107,22,064,22,112,26,309,37,119,40,290,29,121,16,159,26*62,1759655715000
NMEA,$GAGSV,4,2,13,126,24,184,31,127,30,104,28,129,60,008,43,130,14,053,29*61,1759655715000
NMEA,$GAGSV,4,3,13,133,50,242,34*6A,1759655715000
NMEA,$GAGSV,4,4,13,107,22,064,23,112,26,309,34,129,60,008,36,133,50,242,33,1*78,1759655715000
NMEA,$BDGSV,3,1,10,206,28,043,30,209,44,044,28,213,09,134,35,214,09,301,23*64,1759655715000
NMEA,$BDGSV,3,2,10,216,20,041,23,221,64,027,53,226,46,180,33,234,12,238,30*6A,1759655715000
NMEA,$BDGSV,3,3,10,221,64,027,35,226,46,180,23,5*7C,1759655715000
NMEA,$GPGSA,A,3,03,04,07,16,,,,,,,,,0.8,0.4,0.8*31,1759655715000
NMEA,$GNGSA,A,3,68,78,79,80,83,84,,,,,,,0.8,0.4,0.8*28,1759655715000
NMEA,$GAGSA,A,3,107,119,121,126,127,129,130,,,,,,0.8,0.4,0.8*13,1759655715000
NMEA,$BDGSA,A,3,209,213,214,221,226,234,,,,,,,0.8,0.4,0.8*29,1759655715000
NMEA,$PSSGR,GSA,A,3,01,06,09,30,,,,,,,,,0.8,0.4,0.8,1,8*4C,1759655715000
NMEA,$PSSGR,GSA,A,3,112,133,,,,,,,,,,,0.8,0.4,0.8,3,1*49,1759655715000
NMEA,$GPRMC,091515.000,A,3205.0236,N,03448.1585,E,0.0,,051025,,,A*4B,1759655715000
NMEA,$PSAMCLK,2387,3333300,29,24558,310,33333000*72,1759655715000
NMEA,$GPGGA,091516.000,3205.0236,N,03448.1585,E,1,28,0.4,40.2,M,17.1,M,,*68,1759655716000
NMEA,$PSAMSA,091516.000,3205.0236,N,03448.1585,E,1,M,,*63,1759655716000
NMEA,$GPGLL,3205.0236,N,03448.1585,E,091516.000,A,A*52,1759655716000
NMEA,$GPVTG,0.0,T,,M,0.0,N,0.0,K,A*0D,1759655716000
NMEA,$GPGSV,5,1,16,01,08,174,30,03,46,126,47,04,48,043,42,06,37,281,30*76,1759655716000
NMEA,$GPGSV,5,2,16,07,51,225,41,09,56,331,30,11,13,316,27,16,26,077,43*75,1759655716000
NMEA,$GPGSV,5,3,16,30,19,225,31*44,1759655716000
NMEA,$GPGSV,5,4,16,01,08,174,22,03,46,126,34,04,48,043,28,06,37,281,25,8*68,1759655716000
NMEA,$GPGSV,5,5,16,09,56,331,24,30,19,225,31,8*6B,1759655716000
NMEA,$GLGSV,3,1,09,67,08,092,25,68,42,052,34,69,41,339,35,78,43,053,39*62,1759655716000
NMEA,$GLGSV,3,2,09,79,52,142,35,80,11,183,25,83,13,215,31,84,29,270,31*6D,1759655716000
NMEA,$GLGSV,3,3,09,85,13,319,20*5A,1759655716000
NMEA,$GAGSV,5,1,15,107,22,064,22,110,09,324,20,112,26,309,37,119,40,290,29*67,1759655716000
NMEA,$GAGSV,5,2,15,121,16,159,26,126,24,184,31,127,30,104,28,129,60,008,43*60,1759655716000
NMEA,$GAGSV,5,3,15,130,14,053,29,133,50,242,34*67,1759655716000
NMEA,$GAGSV,5,4,15,107,22,064,22,112,26,309,34,129,60,008,36,130,14,053,19,1*77,1759655716000
NMEA,$GAGSV,5,5,15,133,50,242,34,1*76,1759655716000
NMEA,$BDGSV,3,1,11,206,28,043,27,209,44,044,28,213,09,134,35,214,09,301,24*64,1759655716000
NMEA,$BDGSV,3,2,11,216,20,041,24,221,64,027,53,226,46,180,33,234,12,238,30*6C,1759655716000
NMEA,$BDGSV,3,3,11,221,64,027,35,226,46,180,23,234,12,238,21,5*71,1759655716000
NMEA,$GPGSA,A,3,03,04,07,16,,,,,,,,,0.8,0.4,0.8*31,1759655716000
NMEA,$GNGSA,A,3,68,69,78,79,80,83,,,,,,,0.8,0.4,0.8*2B,1759655716000
NMEA,$GAGSA,A,3,119,126,127,129,130,,,,,,,,0.8,0.4,0.8*17,1759655716000
NMEA,$BDGSA,A,3,209,213,214,216,221,226,234,,,,,,0.8,0.4,0.8*1C,1759655716000
NMEA,$PSSGR,GSA,A,3,01,06,09,30,,,,,,,,,0.8,0.4,0.8,1,8*4C,1759655716000
NMEA,$PSSGR,GSA,A,3,112,133,,,,,,,,,,,0.8,0.4,0.8,3,1*49,1759655716000
NMEA,$GPRMC,091516.000,A,3205.0236,N,03448.1585,E,0.0,,051025,,,A*48,1759655716000
NMEA,$PSAMCLK,2387,3333400,28,25109,467,33334000*75,1759655716000
NMEA,$GPGGA,091517.000,3205.0253,N,03448.1594,E,1,28,0.4,37.8,M,17.1,M,,*60,1759655717000
NMEA,$PSAMSA,091517.000,3205.0253,N,03448.1594,E,0,M,,*60,1759655717000
NMEA,$GPGLL,3205.0253,N,03448.1594,E,091517.000,A,A*50,1759655717000
NMEA,$GPVTG,0.0,T,,M,0.2,N,0.4,K,A*0B,1759655717000
NMEA,$GPGSV,5,1,16,01,08,174,30,03,46,126,48,04,48,043,42,06,37,281,30*79,1759655717000
NMEA,$GPGSV,5,2,16,07,51,225,41,09,56,331,30,11,13,316,27,16,26,077,43*75,1759655717000
NMEA,$GPGSV,5,3,16,30,19,225,31*44,1759655717000
NMEA,$GPGSV,5,4,16,01,08,174,22,03,46,126,34,04,48,043,28,06,37,281,25,8*68,1759655717000
NMEA,$GPGSV,5,5,16,09,56,331,24,30,19,225,33,8*69,1759655717000
NMEA,$GLGSV,3,1,09,67,08,092,25,68,42,052,34,69,41,339,34,78,43,053,38*62,1759655717000
NMEA,$GLGSV,3,2,09,79,52,142,36,80,11,183,26,83,13,215,31,84,29,270,28*65,1759655717000
NMEA,$GLGSV,3,3,09,85,13,319,17*5E,1759655717000
NMEA,$GAGSV,5,1,15,107,22,064,23,110,09,324,20,112,26,309,37,119,40,290,29*66,1759655717000
NMEA,$GAGSV,5,2,15,121,16,159,25,126,24,184,31,127,30,104,28,129,60,008,43*63,1759655717000
NMEA,$GAGSV,5,3,15,130,14,053,29,133,50,242,34*67,1759655717000
NMEA,$GAGSV,5,4,15,107,22,064,22,112,26,309,34,129,60,008,36,130,14,053,20,1*7D,1759655717000
NMEA,$GAGSV,5,5,15,133,50,242,35,1*77,1759655717000
NMEA,$BDGSV,3,1,11,206,28,043,26,209,44,044,28,213,09,134,35,214,09,301,25*64,1759655717000
NMEA,$BDGSV,3,2,11,216,20,041,25,221,64,027,53,226,46,180,33,234,12,238,30*6D,1759655717000
NMEA,$BDGSV,3,3,11,221,64,027,36,226,46,180,24,234,12,238,23,5*77,1759655717000
NMEA,$GPGSA,A,3,03,04,07,16,,,,,,,,,0.8,0.4,0.8*31,1759655717000
NMEA,$GNGSA,A,3,68,69,78,79,83,,,,,,,,0.8,0.4,0.8*23,1759655717000
NMEA,$GAGSA,A,3,119,121,126,127,129,130,,,,,,,0.8,0.4,0.8*25,1759655717000
NMEA,$BDGSA,A,3,209,213,214,216,221,226,234,,,,,,0.8,0.4,0.8*1C,1759655717000
NMEA,$PSSGR,GSA,A,3,01,06,09,30,,,,,,,,,0.8,0.4,0.8,1,8*4C,1759655717000
NMEA,$PSSGR,GSA,A,3,112,133,,,,,,,,,,,0.8,0.4,0.8,3,1*49,1759655717000
NMEA,$GPRMC,091517.000,A,3205.0253,N,03448.1594,E,0.2,0.0,051025,,,A*66,1759655717000
NMEA,$PSAMCLK,2387,3333500,28,25547,619,33335000*70,1759655717000
NMEA,$GPGGA,091518.000,3205.0248,N,03448.1577,E,1,28,0.4,34.7,M,17.1,M,,*64,1759655718000
NMEA,$PSAMSA,091518.000,3205.0248,N,03448.1577,E,0,M,,*68,1759655718000
NMEA,$GPGLL,3205.0248,N,03448.1577,E,091518.000,A,A*58,1759655718000
NMEA,$GPVTG,0.0,T,,M,0.3,N,0.5,K,A*0B,1759655718000
NMEA,$GPGSV,5,1,16,01,08,174,30,03,46,126,48,04,48,043,42,06,37,281,33*7A,1759655718000
NMEA,$GPGSV,5,2,16,07,51,225,41,09,56,331,31,11,13,316,27,16,26,077,43*74,1759655718000
NMEA,$GPGSV,5,3,16,30,19,225,31*44,1759655718000
NMEA,$GPGSV,5,4,16,01,08,174,22,03,46,126,34,04,48,043,28,06,37,281,26,8*6B,1759655718000
NMEA,$GPGSV,5,5,16,09,56,331,24,30,19,225,32,8*68,1759655718000
NMEA,$GLGSV,3,1,09,67,08,092,25,68,42,052,34,69,41,339,33,78,43,053,37*6A,1759655718000
NMEA,$GLGSV,3,2,09,79,52,142,36,80,11,183,28,83,13,215,31,84,29,270,25*66,1759655718000
NMEA,$GLGSV,3,3,09,85,13,319,14*5D,1759655718000
NMEA,$GAGSV,5,1,15,107,22,064,23,110,09,324,20,112,26,309,37,119,40,290,29*66,1759655718000
NMEA,$GAGSV,5,2,15,121,16,159,25,126,24,184,30,127,30,104,28,129,60,008,43*62,1759655718000
NMEA,$GAGSV,5,3,15,130,14,053,29,133,50,242,34*67,1759655718000
NMEA,$GAGSV,5,4,15,107,22,064,22,112,26,309,34,129,60,008,36,130,14,053,20,1*7D,1759655718000
NMEA,$GAGSV,5,5,15,133,50,242,35,1*77,1759655718000
NMEA,$BDGSV,3,1,11,206,28,043,26,209,44,044,29,213,09,134,35,214,09,301,25*65,1759655718000
NMEA,$BDGSV,3,2,11,216,20,041,26,221,64,027,52,226,46,180,34,234,12,238,30*68,1759655718000
NMEA,$BDGSV,3,3,11,221,64,027,37,226,46,180,24,234,12,238,23,5*76,1759655718000
NMEA,$GPGSA,A,3,03,04,07,16,,,,,,,,,0.8,0.4,0.8*31,1759655718000
NMEA,$GNGSA,A,3,68,69,78,79,83,,,,,,,,0.8,0.4,0.8*23,1759655718000
NMEA,$GAGSA,A,3,119,121,126,127,129,130,,,,,,,0.8,0.4,0.8*25,1759655718000
NMEA,$BDGSA,A,3,209,213,214,216,221,226,234,,,,,,0.8,0.4,0.8*1C,1759655718000
NMEA,$PSSGR,GSA,A,3,01,06,09,30,,,,,,,,,0.8,0.4,0.8,1,8*4C,1759655718000
NMEA,$PSSGR,GSA,A,3,112,133,,,,,,,,,,,0.8,0.4,0.8,3,1*49,1759655718000
NMEA,$GPRMC,091518.000,A,3205.0248,N,03448.1577,E,0.3,0.0,051025,,,A*6F,1759655718000
NMEA,$PSAMCLK,2387,3333600,28,25524,779,33336000*72,1759655718000
NMEA,$GPGGA,091519.000,3205.0233,N,03448.1573,E,1,26,0.4,36.4,M,17.1,M,,*62,1759655719000
NMEA,$PSAMSA,091519.000,3205.0233,N,03448.1573,E,0,M,,*61,1759655719000
NMEA,$GPGLL,3205.0233,N,03448.1573,E,091519.000,A,A*51,1759655719000
NMEA,$GPVTG,0.0,T,,M,0.3,N,0.5,K,A*0B,1759655719000
NMEA,$GPGSV,5,1,16,01,08,174,30,03,46,126,47,04,48,043,42,06,37,281,36*70,1759655719000
NMEA,$GPGSV,5,2,16,11,13,316,27,16,26,077,43,30,19,225,31*42,1759655719000
NMEA,$GPGSV,5,3,16*78,1759655719000
NMEA,$GPGSV,5,4,16,01,08,174,22,03,46,126,34,04,48,043,28,06,37,281,26,8*6B,1759655719000
NMEA,$GPGSV,5,5,16,09,56,331,24,30,19,225,32,8*68,1759655719000
NMEA,$GLGSV,3,1,09,67,08,092,25,68,42,052,35,69,41,339,32,78,43,053,37*6A,1759655719000
NMEA,$GLGSV,3,2,09,79,52,142,36,80,11,183,28,83,13,215,30,84,29,270,22*60,1759655719000
NMEA,$GLGSV,3,3,09,85,13,319,13*5A,1759655719000
NMEA,$GAGSV,5,1,17,107,22,064,23,110,09,324,20,112,26,309,37,119,40,290,29*64,1759655719000
NMEA,$GAGSV,5,2,17,121,16,159,26,126,24,184,30,127,30,104,28,129,60,008,43*63,1759655719000
NMEA,$GAGSV,5,3,17,130,14,053,29,133,50,242,34*65,1759655719000
NMEA,$GAGSV,5,4,17,107,22,064,21,112,26,309,36,121,16,159,19,126,24,184,22,1*72,1759655719000
NMEA,$GAGSV,5,5,17,129,60,008,37,130,14,053,20,133,50,242,35,1*76,1759655719000
NMEA,$BDGSV,3,1,11,206,28,043,28,209,44,044,30,213,09,134,35,214,09,301,25*63,1759655719000
NMEA,$BDGSV,3,2,11,216,20,041,26,221,64,027,51,226,46,180,34,234,12,238,30*6B,1759655719000
NMEA,$BDGSV,3,3,11,221,64,027,38,226,46,180,24,234,12,238,23,5*79,1759655719000
NMEA,$GPGSA,A,3,03,04,16,,,,,,,,,,1.0,0.4,0.8*3F,1759655719000
NMEA,$GNGSA,A,3,68,69,78,79,80,,,,,,,,1.0,0.4,0.8*29,1759655719000
NMEA,$GAGSA,A,3,110,119,121,127,129,130,,,,,,,1.0,0.4,0.8*29,1759655719000
NMEA,$BDGSA,A,3,209,214,216,221,234,,,,,,,,1.0,0.4,0.8*13,1759655719000
NMEA,$PSSGR,GSA,A,3,01,06,09,30,,,,,,,,,1.0,0.4,0.8,1,8*45,1759655719000
NMEA,$PSSGR,GSA,A,3,112,126,133,,,,,,,,,,1.0,0.4,0.8,3,1*75,1759655719000
NMEA,$GPRMC,091519.000,A,3205.0233,N,03448.1573,E,0.3,0.0,051025,,,A*66,1759655719000
NMEA,$PSAMCLK,2387,3333700,26,25668,935,33337000*71,1759655719000
NMEA,$GPGGA,091520.000,3205.0226,N,03448.1572,E,1,24,0.4,37.6,M,17.1,M,,*6C,1759655720000
NMEA,$PSAMSA,091520.000,3205.0226,N,03448.1572,E,0,M,,*6E,1759655720000
NMEA,$GPGLL,3205.0226,N,03448.1572,E,091520.000,A,A*5E,1759655720000
NMEA,$GPVTG,57.7,T,,M,0.5,N,0.9,K,A*34,1759655720000
NMEA,$GPGSV,5,1,16,01,08,174,30,03,46,126,47,04,48,043,42,06,37,281,36*70,1759655720000
NMEA,$GPGSV,5,2,16,07,51,225,38,09,56,331,29,11,13,316,27,16,26,077,43*73,1759655720000
NMEA,$GPGSV,5,3,16,30,19,225,31*44,1759655720000
NMEA,$GPGSV,5,4,16,01,08,174,22,03,46,126,34,04,48,043,28,06,37,281,26,8*6B,1759655720000
NMEA,$GPGSV,5,5,16,09,56,331,24,30,19,225,32,8*68,1759655720000
NMEA,$GLGSV,2,1,08,67,08,092,25,68,42,053,35,69,41,339,43,78,43,053,37*6D,1759655720000
NMEA,$GLGSV,2,2,08,79,52,141,36,80,11,183,28,83,13,215,29,84,28,270,27*6F,1759655720000
NMEA,$GAGSV,5,1,16,107,22,064,23,110,09,324,20,112,26,309,37,119,40,290,29*65,1759655720000
NMEA,$GAGSV,5,2,16,121,16,159,26,126,24,184,29,127,30,104,28,129,60,008,43*6A,1759655720000
NMEA,$GAGSV,5,3,16,130,14,053,29,133,50,242,33*63,1759655720000
NMEA,$GAGSV,5,4,16,107,22,064,21,112,26,309,37,121,16,159,19,129,60,008,37,1*7C,1759655720000
NMEA,$GAGSV,5,5,16,130,14,053,20,133,50,242,34,1*76,1759655720000
NMEA,$BDGSV,3,1,11,206,28,043,29,209,44,044,30,213,09,134,35,214,09,302,25*61,1759655720000
NMEA,$BDGSV,3,2,11,216,20,041,26,221,64,027,50,226,46,180,34,234,12,238,31*6B,1759655720000
NMEA,$BDGSV,3,3,11,221,64,027,38,226,46,180,23,234,12,238,23,5*7E,1759655720000
NMEA,$GPGSA,A,3,03,04,16,,,,,,,,,,1.0,0.4,0.8*3F,1759655720000
NMEA,$GNGSA,A,3,68,69,78,79,80,,,,,,,,1.0,0.4,0.8*29,1759655720000
NMEA,$GAGSA,A,3,110,119,126,127,129,130,,,,,,,1.0,0.4,0.8*2E,1759655720000
NMEA,$BDGSA,A,3,209,214,221,226,234,,,,,,,,1.0,0.4,0.8*10,1759655720000
NMEA,$PSSGR,GSA,A,3,01,09,30,,,,,,,,,,1.0,0.4,0.8,1,8*43,1759655720000
NMEA,$PSSGR,GSA,A,3,112,133,,,,,,,,,,,1.0,0.4,0.8,3,1*40,1759655720000
NMEA,$GPRMC,091520.000,A,3205.0226,N,03448.1572,E,0.5,57.7,051025,,,A*5A,1759655720000
NMEA,$PSAMCLK,2387,3333800,24,26658,1099,33338000*4D,1759655720000
NMEA,$GPGGA,091521.000,3205.0219,N,03448.1578,E,1,23,0.4,36.5,M,17.1,M,,*6E,1759655721000
NMEA,$PSAMSA,091521.000,3205.0219,N,03448.1578,E,0,M,,*69,1759655721000
NMEA,$GPGLL,3205.0219,N,03448.1578,E,091521.000,A,A*59,1759655721000
NMEA,$GPVTG,41.1,T,,M,0.7,N,1.3,K,A*3C,1759655721000
NMEA,$GPGSV,5,1,15,01,08,174,30,03,46,126,47,04,48,043,42,06,37,281,36*73,1759655721000
NMEA,$GPGSV,5,2,15,07,51,225,37,09,56,331,33,11,13,316,27,16,26,077,43*74,1759655721000
NMEA,$GPGSV,5,3,15,30,19,225,30*46,1759655721000
NMEA,$GPGSV,5,4,15,01,08,174,22,03,46,126,35,04,48,043,28,06,37,281,25,8*6A,1759655721000
NMEA,$GPGSV,5,5,15,09,56,331,26,30,19,225,32,8*69,1759655721000
NMEA,$GLGSV,2,1,08,67,08,092,25,68,42,053,36,69,41,339,44,78,43,053,37*69,1759655721000
NMEA,$GLGSV,2,2,08,79,52,141,36,80,11,183,28,83,13,215,28,84,28,270,30*68,1759655721000
NMEA,$GAGSV,5,1,17,107,22,064,23,110,09,324,20,112,26,309,37,119,40,290,29*64,1759655721000
NMEA,$GAGSV,5,2,17,121,16,159,26,126,24,184,29,127,30,104,28,129,60,008,43*6B,1759655721000
NMEA,$GAGSV,5,3,17,130,14,053,28,133,50,242,33*63,1759655721000
NMEA,$GAGSV,5,4,17,107,22,064,21,112,26,309,37,121,16,159,19,129,60,008,36,1*7C,1759655721000
NMEA,$GAGSV,5,5,17,130,14,053,20,133,50,242,34,1*77,1759655721000
NMEA,$BDGSV,3,1,11,206,28,043,29,209,44,044,30,213,09,134,35,214,09,302,25*61,1759655721000
NMEA,$BDGSV,3,2,11,216,20,041,26,221,64,027,50,226,46,180,34,234,12,238,31*6B,1759655721000
NMEA,$BDGSV,3,3,11,221,64,027,39,226,46,180,23,234,12,238,22,5*7E,1759655721000
NMEA,$GPGSA,A,3,03,04,07,16,,,,,,,,,1.0,0.4,1.0*31,1759655721000
NMEA,$GNGSA,A,3,68,69,78,79,,,,,,,,,1.0,0.4,1.0*28,1759655721000
NMEA,$GAGSA,A,3,119,121,127,129,130,,,,,,,,1.0,0.4,1.0*10,1759655721000
NMEA,$BDGSA,A,3,209,213,221,226,234,,,,,,,,1.0,0.4,1.0*1E,1759655721000
NMEA,$PSSGR,GSA,A,3,06,09,30,,,,,,,,,,1.0,0.4,1.0,1,8*4D,1759655721000
NMEA,$PSSGR,GSA,A,3,112,133,,,,,,,,,,,1.0,0.4,1.0,3,1*49,1759655721000
NMEA,$GPRMC,091521.000,A,3205.0219,N,03448.1578,E,0.7,41.1,051025,,,A*5E,1759655721000
NMEA,$PSAMCLK,2387,3333900,23,27690,1273,33339000*49,1759655721000
NMEA,$GPGGA,091522.000,3205.0217,N,03448.1580,E,1,26,0.4,38.3,M,17.1,M,,*69,1759655722000
NMEA,$PSAMSA,091522.000,3205.0217,N,03448.1580,E,0,M,,*63,1759655722000
NMEA,$GPGLL,3205.0217,N,03448.1580,E,091522.000,A,A*53,1759655722000
NMEA,$GPVTG,60.1,T,,M,1.0,N,1.9,K,A*33,1759655722000
NMEA,$GPGSV,4,1,14,01,08,174,30,03,46,126,47,06,37,281,36,07,51,225,37*78,1759655722000
NMEA,$GPGSV,4,2,14,09,56,331,34,11,13,316,27,16,26,077,43,30,19,225,30*7C,1759655722000
NMEA,$GPGSV,4,3,14,01,08,174,22,03,46,126,35,04,48,043,27,06,37,281,25,8*62,1759655722000
NMEA,$GPGSV,4,4,14,09,56,331,26,30,19,225,32,8*68,1759655722000
NMEA,$GLGSV,2,1,08,67,08,092,25,68,42,053,36,69,41,339,44,78,43,053,37*69,1759655722000
NMEA,$GLGSV,2,2,08,79,52,141,36,80,11,183,28,83,13,215,28,84,28,270,30*68,1759655722000
NMEA,$GAGSV,5,1,17,107,22,064,24,110,09,324,20,112,26,309,37,119,40,290,29*63,1759655722000
NMEA,$GAGSV,5,2,17,121,16,159,26,126,24,184,29,127,30,104,28,129,60,008,42*6A,1759655722000
NMEA,$GAGSV,5,3,17,130,14,053,28,133,50,242,33*63,1759655722000
NMEA,$GAGSV,5,4,17,107,22,064,21,112,26,309,37,121,16,159,19,129,60,008,36,1*7C,1759655722000
NMEA,$GAGSV,5,5,17,130,14,053,20,133,50,242,34,1*77,1759655722000
NMEA,$BDGSV,3,1,11,206,28,043,29,209,44,044,30,213,09,134,35,214,09,302,25*61,1759655722000
NMEA,$BDGSV,3,2,11,216,20,041,26,221,64,027,50,226,46,180,34,234,12,238,32*68,1759655722000
NMEA,$BDGSV,3,3,11,221,64,027,39,226,46,180,23,234,12,238,22,5*7E,1759655722000
NMEA,$GPGSA,A,3,07,11,16,,,,,,,,,,1.0,0.4,0.8*3F,1759655722000
NMEA,$GNGSA,A,3,68,69,78,79,84,,,,,,,,1.0,0.4,0.8*2D,1759655722000
NMEA,$GAGSA,A,3,119,121,126,127,129,130,133,,,,,,1.0,0.4,0.8*1D,1759655722000
NMEA,$BDGSA,A,3,209,213,221,226,234,,,,,,,,1.0,0.4,0.8*17,1759655722000
NMEA,$PSSGR,GSA,A,3,01,03,04,09,30,,,,,,,,1.0,0.4,0.8,1,8*44,1759655722000
NMEA,$PSSGR,GSA,A,3,112,,,,,,,,,,,,1.0,0.4,0.8,3,1*71,1759655722000
NMEA,$GPRMC,091522.000,A,3205.0217,N,03448.1580,E,1.0,60.1,051025,,,A*51,1759655722000
NMEA,$PSAMCLK,2387,3334000,26,28129,1458,33340000*49,1759655722000
NMEA,$GPGGA,091523.000,3205.0215,N,03448.1583,E,1,26,0.4,35.8,M,17.1,M,,*6F,1759655723000
NMEA,$PSAMSA,091523.000,3205.0215,N,03448.1583,E,0,M,,*63,1759655723000
NMEA,$GPGLL,3205.0215,N,03448.1583,E,091523.000,A,A*53,1759655723000
NMEA,$GPVTG,63.6,T,,M,1.1,N,2.0,K,A*3C,1759655723000
NMEA,$GPGSV,5,1,15,01,08,174,30,03,46,126,47,04,48,043,40,06,37,281,36*71,1759655723000
NMEA,$GPGSV,5,2,15,07,51,225,36,09,56,331,34,11,13,316,27,16,26,077,43*72,1759655723000
NMEA,$GPGSV,5,3,15,30,19,225,30*46,1759655723000
NMEA,$GPGSV,5,4,15,01,08,174,22,03,46,126,35,04,48,043,27,06,37,281,25,8*65,1759655723000
NMEA,$GPGSV,5,5,15,09,56,331,25,30,19,225,33,8*6B,1759655723000
NMEA,$GLGSV,2,1,08,67,08,092,24,68,42,053,36,69,41,339,44,78,43,053,37*68,1759655723000
NMEA,$GLGSV,2,2,08,79,52,141,36,80,11,183,28,83,13,215,27,84,28,270,30*67,1759655723000
NMEA,$GAGSV,5,1,17,107,22,064,24,110,09,324,20,112,26,309,37,119,40,290,29*63,1759655723000
NMEA,$GAGSV,5,2,17,121,16,159,26,126,24,184,29,127,30,104,28,129,60,008,42*6A,1759655723000
NMEA,$GAGSV,5,3,17,130,14,053,28,133,50,242,34*64,1759655723000
NMEA,$GAGSV,5,4,17,107,22,064,22,112,26,309,37,121,16,159,18,129,60,008,36,1*7E,1759655723000
NMEA,$GAGSV,5,5,17,130,14,053,20,133,50,242,33,1*70,1759655723000
NMEA,$BDGSV,4,1,12,206,28,043,29,209,44,044,30,213,09,134,35,214,09,302,25*65,1759655723000
NMEA,$BDGSV,4,2,12,216,20,041,26,221,64,027,49,224,04,203,22,226,46,180,34*6B,1759655723000
NMEA,$BDGSV,4,3,12,234,12,238,32*62,1759655723000
NMEA,$BDGSV,4,4,12,221,64,027,38,226,46,180,23,234,12,238,22,5*7C,1759655723000
NMEA,$GPGSA,A,3,06,07,11,16,,,,,,,,,1.0,0.4,0.8*39,1759655723000
NMEA,$GNGSA,A,3,68,69,78,79,83,84,,,,,,,1.0,0.4,0.8*26,1759655723000
NMEA,$GAGSA,A,3,119,126,127,129,130,,,,,,,,1.0,0.4,0.8*1E,1759655723000
NMEA,$BDGSA,A,3,209,213,221,234,,,,,,,,,1.0,0.4,0.8*21,1759655723000
NMEA,$PSSGR,GSA,A,3,01,03,04,09,30,,,,,,,,1.0,0.4,0.8,1,8*44,1759655723000
NMEA,$PSSGR,GSA,A,3,112,133,,,,,,,,,,,1.0,0.4,0.8,3,1*40,1759655723000
NMEA,$GPRMC,091523.000,A,3205.0215,N,03448.1583,E,1.1,63.6,051025,,,A*54,1759655723000
NMEA,$PSAMCLK,2387,3334100,26,28576,1627,33341000*4D,1759655723000
NMEA,$GPGGA,091524.000,3205.0210,N,03448.1592,E,1,16,0.6,33.1,M,17.1,M,,*63,1759655724000
NMEA,$PSAMSA,091524.000,3205.0210,N,03448.1592,E,0,M,,*61,1759655724000
NMEA,$GPGLL,3205.0210,N,03448.1592,E,091524.000,A,A*51,1759655724000
NMEA,$GPVTG,69.9,T,,M,0.7,N,1.2,K,A*3F,1759655724000
NMEA,$GPGSV,5,1,15,01,08,174,30,03,46,126,47,04,48,043,39,06,37,281,36*7F,1759655724000
NMEA,$GPGSV,5,2,15,07,51,225,36,09,56,331,35,11,13,316,28,16,26,077,43*7C,1759655724000
NMEA,$GPGSV,5,3,15,30,19,225,30*46,1759655724000
NMEA,$GPGSV,5,4,15,01,08,174,22,03,46,126,35,04,48,043,27,06,37,281,24,8*64,1759655724000
NMEA,$GPGSV,5,5,15,09,56,331,25,30,19,225,33,8*6B,1759655724000
NMEA,$GLGSV,2,1,08,67,08,092,24,68,42,053,36,69,41,339,43,78,43,053,37*6F,1759655724000
NMEA,$GLGSV,2,2,08,79,52,141,36,80,11,183,28,83,13,215,27,84,28,270,31*66,1759655724000
NMEA,$GAGSV,5,1,16,107,22,064,24,110,09,324,20,112,26,309,36,119,40,290,29*63,1759655724000
NMEA,$GAGSV,5,2,16,121,16,159,26,126,00,000,16,127,30,104,28,129,60,008,42*6C,1759655724000
NMEA,$GAGSV,5,3,16,130,14,053,28,133,50,242,34*65,1759655724000
NMEA,$GAGSV,5,4,16,107,22,064,23,112,26,309,36,121,16,159,18,126,24,184,27,1*75,1759655724000
NMEA,$GAGSV,5,5,16,129,60,008,36,133,50,242,33,1*73,1759655724000
NMEA,$BDGSV,4,1,12,206,28,043,29,209,44,044,30,213,09,134,35,214,09,302,25*65,1759655724000
NMEA,$BDGSV,4,2,12,216,20,041,26,221,64,027,49,224,04,203,20,226,46,180,34*69,1759655724000
NMEA,$BDGSV,4,3,12,234,12,238,32*62,1759655724000
NMEA,$BDGSV,4,4,12,221,64,027,37,226,46,180,23,234,12,238,22,5*73,1759655724000
NMEA,$GPGSA,A,3,07,09,16,,,,,,,,,,1.4,0.6,1.2*3B,1759655724000
NMEA,$GNGSA,A,3,69,78,,,,,,,,,,,1.4,0.6,1.2*2C,1759655724000
NMEA,$GAGSA,A,3,119,129,,,,,,,,,,,1.4,0.6,1.2*20,1759655724000
NMEA,$BDGSA,A,3,209,213,221,234,,,,,,,,,1.4,0.6,1.2*2C,1759655724000
NMEA,$PSSGR,GSA,A,3,03,04,30,,,,,,,,,,1.4,0.6,1.2,1,8*41,1759655724000
NMEA,$PSSGR,GSA,A,3,112,133,,,,,,,,,,,1.4,0.6,1.2,3,1*4D,1759655724000
NMEA,$GPRMC,091524.000,A,3205.0210,N,03448.1592,E,0.7,69.9,051025,,,A*54,1759655724000
NMEA,$PSAMCLK,2387,3334200,16,29019,1808,33342000*40,1759655724000
NMEA,$GPGGA,091525.000,3205.0211,N,03448.1598,E,1,19,0.6,31.0,M,17.1,M,,*65,1759655725000
NMEA,$PSAMSA,091525.000,3205.0211,N,03448.1598,E,0,M,,*6B,1759655725000
NMEA,$GPGLL,3205.0211,N,03448.1598,E,091525.000,A,A*5B,1759655725000
NMEA,$GPVTG,66.7,T,,M,0.3,N,0.6,K,A*3F,1759655725000
NMEA,$GPGSV,5,1,15,01,08,174,30,03,46,126,47,04,48,043,38,06,37,281,36*7E,1759655725000
NMEA,$GPGSV,5,2,15,07,51,225,36,09,56,331,35,11,13,316,28,16,26,077,43*7C,1759655725000
NMEA,$GPGSV,5,3,15,26,09,043,26,30,19,225,30*78,1759655725000
NMEA,$GPGSV,5,4,15,01,08,174,22,03,46,126,35,04,48,043,26,09,56,331,25,8*66,1759655725000
NMEA,$GPGSV,5,5,15,30,19,225,32,8*56,1759655725000
NMEA,$GLGSV,2,1,08,67,08,092,24,68,42,053,36,69,41,339,43,78,43,053,37*6F,1759655725000
NMEA,$GLGSV,2,2,08,79,52,141,35,80,11,183,28,83,13,215,27,84,28,270,31*65,1759655725000
NMEA,$GAGSV,5,1,17,110,09,324,20,112,26,309,35,119,40,290,29,121,16,159,26*6F,1759655725000
NMEA,$GAGSV,5,2,17,126,24,184,26,127,30,104,27,129,60,008,42,130,14,053,28*6D,1759655725000
NMEA,$GAGSV,5,3,17,133,50,242,33*68,1759655725000
NMEA,$GAGSV,5,4,17,107,22,064,23,112,26,309,35,121,16,159,17,129,60,008,36,1*72,1759655725000
NMEA,$GAGSV,5,5,17,133,50,242,33,1*73,1759655725000
NMEA,$BDGSV,4,1,11,206,28,043,29,209,44,044,31,213,09,134,35,214,09,302,24*66,1759655725000
NMEA,$BDGSV,4,2,11,216,20,041,26,221,64,027,48,224,04,203,17,226,46,180,34*6F,1759655725000
NMEA,$BDGSV,4,3,11,234,12,238,32*61,1759655725000
NMEA,$BDGSV,4,4,11,221,64,027,37,226,46,180,22,5*7E,1759655725000
NMEA,$GPGSA,A,3,06,07,09,16,,,,,,,,,1.2,0.6,1.0*39,1759655725000
NMEA,$GNGSA,A,3,69,79,,,,,,,,,,,1.2,0.6,1.0*29,1759655725000
NMEA,$GAGSA,A,3,119,129,130,,,,,,,,,,1.2,0.6,1.0*16,1759655725000
NMEA,$BDGSA,A,3,209,213,221,226,234,,,,,,,,1.2,0.6,1.0*1E,1759655725000
NMEA,$PSSGR,GSA,A,3,03,04,30,,,,,,,,,,1.2,0.6,1.0,1,8*45,1759655725000
NMEA,$PSSGR,GSA,A,3,112,133,,,,,,,,,,,1.2,0.6,1.0,3,1*49,1759655725000
NMEA,$GPRMC,091525.000,A,3205.0211,N,03448.1598,E,0.3,66.7,051025,,,A*5B,1759655725000
NMEA,$PSAMCLK,2387,3334300,19,28510,1990,33343000*42,1759655725000
NMEA,$GPGGA,091526.000,3205.0210,N,03448.1598,E,1,22,0.4,29.5,M,17.1,M,,*61,1759655726000
NMEA,$PSAMSA,091526.000,3205.0210,N,03448.1598,E,0,M,,*69,1759655726000
NMEA,$GPGLL,3205.0210,N,03448.1598,E,091526.000,A,A*59,1759655726000
NMEA,$GPVTG,82.9,T,,M,0.8,N,1.5,K,A*32,1759655726000
NMEA,$GPGSV,5,1,16,01,08,174,30,03,46,126,46,04,48,043,38,06,37,281,35*7F,1759655726000
NMEA,$GPGSV,5,2,16,07,51,225,36,09,56,331,36,11,13,316,28,16,26,077,43*7C,1759655726000
NMEA,$GPGSV,5,3,16,26,09,043,27,30,19,225,30*7A,1759655726000
NMEA,$GPGSV,5,4,16,01,08,174,22,03,46,126,35,04,48,043,31,09,56,331,25,8*63,1759655726000
NMEA,$GPGSV,5,5,16,30,19,225,31,8*56,1759655726000
NMEA,$GLGSV,2,1,08,67,08,092,24,68,42,053,36,69,41,339,43,78,43,053,37*6F,1759655726000
NMEA,$GLGSV,2,2,08,79,52,141,35,80,11,183,28,83,13,215,27,84,28,270,31*65,1759655726000
NMEA,$GAGSV,5,1,17,107,22,064,25,110,09,324,20,112,26,309,34,119,40,290,28*60,1759655726000
NMEA,$GAGSV,5,2,17,121,16,159,26,126,24,184,26,127,30,104,27,129,60,008,42*6A,1759655726000
NMEA,$GAGSV,5,3,17,130,14,053,28,133,50,242,33*63,1759655726000
NMEA,$GAGSV,5,4,17,107,22,064,23,112,26,309,35,121,16,159,17,129,60,008,36,1*72,1759655726000
NMEA,$GAGSV,5,5,17,133,50,242,34,1*74,1759655726000
NMEA,$BDGSV,4,1,12,206,28,043,28,209,44,044,31,213,09,134,39,214,09,302,24*68,1759655726000
NMEA,$BDGSV,4,2,12,216,20,041,26,221,64,027,48,224,04,203,14,226,46,180,34*6F,1759655726000
NMEA,$BDGSV,4,3,12,234,12,238,32*62,1759655726000
NMEA,$BDGSV,4,4,12,221,64,027,37,226,46,180,22,5*7D,1759655726000
NMEA,$GPGSA,A,3,06,07,16,,,,,,,,,,1.0,0.4,1.0*30,1759655726000
NMEA,$GNGSA,A,3,68,69,78,79,,,,,,,,,1.0,0.4,1.0*28,1759655726000
NMEA,$GAGSA,A,3,119,121,130,,,,,,,,,,1.0,0.4,1.0*1E,1759655726000
NMEA,$BDGSA,A,3,209,213,221,226,234,,,,,,,,1.0,0.4,1.0*1E,1759655726000
NMEA,$PSSGR,GSA,A,3,03,04,09,30,,,,,,,,,1.0,0.4,1.0,1,8*4C,1759655726000
NMEA,$PSSGR,GSA,A,3,112,129,133,,,,,,,,,,1.0,0.4,1.0,3,1*73,1759655726000
NMEA,$GPRMC,091526.000,A,3205.0210,N,03448.1598,E,0.8,82.9,051025,,,A*56,1759655726000
NMEA,$PSAMCLK,2387,3334400,22,28524,2169,33344000*40,1759655726000
NMEA,$GPGGA,091527.000,3205.0213,N,03448.1601,E,1,24,0.4,28.1,M,17.1,M,,*63,1759655727000
NMEA,$PSAMSA,091527.000,3205.0213,N,03448.1601,E,0,M,,*68,1759655727000
NMEA,$GPGLL,3205.0213,N,03448.1601,E,091527.000,A,A*58,1759655727000
NMEA,$GPVTG,82.0,T,,M,1.2,N,2.3,K,A*35,1759655727000
NMEA,$GPGSV,5,1,16,01,08,174,30,03,46,126,46,04,48,043,37,06,37,281,35*70,1759655727000
NMEA,$GPGSV,5,2,16,07,51,225,36,09,56,331,36,11,13,316,29,16,26,077,44*7A,1759655727000
NMEA,$GPGSV,5,3,16,26,09,043,27,30,19,225,30*7A,1759655727000
NMEA,$GPGSV,5,4,16,01,08,174,22,03,46,126,38,04,48,043,30,06,37,281,24,8*6C,1759655727000
NMEA,$GPGSV,5,5,16,09,56,331,26,30,19,225,31,8*69,1759655727000
NMEA,$GLGSV,2,1,08,67,08,092,24,68,42,053,36,69,41,339,43,78,43,053,37*6F,1759655727000
NMEA,$GLGSV,2,2,08,79,52,141,35,80,11,183,28,83,13,215,27,84,28,270,31*65,1759655727000
NMEA,$GAGSV,5,1,17,107,22,064,28,110,09,324,19,112,26,309,33,119,40,290,28*60,1759655727000
NMEA,$GAGSV,5,2,17,121,16,159,26,126,24,184,27,127,30,104,27,129,60,008,42*6B,1759655727000
NMEA,$GAGSV,5,3,17,130,14,053,28,133,50,242,33*63,1759655727000
NMEA,$GAGSV,5,4,17,107,22,064,25,112,26,309,33,121,16,159,17,129,60,008,36,1*72,1759655727000
NMEA,$GAGSV,5,5,17,133,50,242,34,1*74,1759655727000
NMEA,$BDGSV,4,1,12,206,28,043,25,209,44,044,31,213,09,134,43,214,09,302,24*68,1759655727000
NMEA,$BDGSV,4,2,12,216,20,041,26,221,64,027,48,224,04,203,13,226,46,180,34*68,1759655727000
NMEA,$BDGSV,4,3,12,234,12,238,32*62,1759655727000
NMEA,$BDGSV,4,4,12,221,64,027,37,226,46,180,22,5*7D,1759655727000
NMEA,$GPGSA,A,3,07,11,16,,,,,,,,,,1.0,0.4,0.8*3F,1759655727000
NMEA,$GNGSA,A,3,68,69,78,79,84,,,,,,,,1.0,0.4,0.8*2D,1759655727000
NMEA,$GAGSA,A,3,119,126,129,130,,,,,,,,,1.0,0.4,0.8*2A,1759655727000
NMEA,$BDGSA,A,3,209,213,221,226,234,,,,,,,,1.0,0.4,0.8*17,1759655727000
NMEA,$PSSGR,GSA,A,3,01,03,04,06,09,30,,,,,,,1.0,0.4,0.8,1,8*42,1759655727000
NMEA,$GPRMC,091527.000,A,3205.0213,N,03448.1601,E,1.2,82.0,051025,,,A*55,1759655727000
NMEA,$PSAMCLK,2387,3334500,24,28569,2341,33345000*47,1759655727000
NMEA,$GPGGA,091528.000,3205.0215,N,03448.1600,E,1,25,0.4,25.7,M,17.1,M,,*61,1759655728000
NMEA,$PSAMSA,091528.000,3205.0215,N,03448.1600,E,0,M,,*60,1759655728000
NMEA,$GPGLL,3205.0215,N,03448.1600,E,091528.000,A,A*50,1759655728000
NMEA,$GPVTG,87.1,T,,M,1.2,N,2.2,K,A*30,1759655728000
NMEA,$GPGSV,5,1,16,01,08,174,30,03,46,126,45,04,48,043,37,06,37,281,35*73,1759655728000
NMEA,$GPGSV,5,2,16,07,51,225,37,09,56,331,36,11,13,316,29,16,26,077,44*7B,1759655728000
NMEA,$GPGSV,5,3,16,26,09,043,27,30,19,225,30*7A,1759655728000
NMEA,$GPGSV,5,4,16,01,08,174,22,03,46,126,38,04,48,043,30,06,37,281,24,8*6C,1759655728000
NMEA,$GPGSV,5,5,16,09,56,331,27,30,19,225,31,8*68,1759655728000
NMEA,$GLGSV,2,1,08,67,08,092,24,68,42,053,36,69,41,339,43,78,43,053,36*6E,1759655728000
NMEA,$GLGSV,2,2,08,79,52,141,35,80,11,183,29,83,13,215,27,84,28,270,31*64,1759655728000
NMEA,$GAGSV,5,1,17,107,22,064,29,110,09,324,19,112,26,309,33,119,40,290,28*61,1759655728000
NMEA,$GAGSV,5,2,17,121,16,159,26,126,24,184,27,127,30,104,27,129,60,008,41*68,1759655728000
NMEA,$GAGSV,5,3,17,130,14,053,28,133,50,242,34*64,1759655728000
NMEA,$GAGSV,5,4,17,107,22,064,25,112,26,309,32,121,16,159,18,129,60,008,36,1*7C,1759655728000
NMEA,$GAGSV,5,5,17,133,50,242,34,1*74,1759655728000
NMEA,$BDGSV,4,1,11,206,28,043,22,209,44,044,31,213,09,134,43,214,09,302,24*6C,1759655728000
NMEA,$BDGSV,4,2,11,216,20,041,26,221,64,027,47,226,46,180,34,234,12,238,32*69,1759655728000
NMEA,$BDGSV,4,3,11*6F,1759655728000
NMEA,$BDGSV,4,4,11,221,64,027,37,226,46,180,22,5*7E,1759655728000
NMEA,$GPGSA,A,3,07,11,16,,,,,,,,,,1.0,0.4,0.8*3F,1759655728000
NMEA,$GNGSA,A,3,68,69,78,79,84,,,,,,,,1.0,0.4,0.8*2D,1759655728000
NMEA,$GAGSA,A,3,110,119,121,129,,,,,,,,,1.0,0.4,0.8*2F,1759655728000
NMEA,$BDGSA,A,3,209,213,221,226,234,,,,,,,,1.0,0.4,0.8*17,1759655728000
NMEA,$PSSGR,GSA,A,3,01,03,04,06,09,30,,,,,,,1.0,0.4,0.8,1,8*42,1759655728000
NMEA,$PSSGR,GSA,A,3,112,133,,,,,,,,,,,1.0,0.4,0.8,3,1*40,1759655728000
NMEA,$GPRMC,091528.000,A,3205.0215,N,03448.1600,E,1.2,87.1,051025,,,A*59,1759655728000
NMEA,$PSAMCLK,2387,3334600,25,28298,2512,33346000*4F,1759655728000
NMEA,$GPGGA,091529.000,3205.0214,N,03448.1599,E,1,23,0.4,23.5,M,17.1,M,,*60,1759655729000
NMEA,$PSAMSA,091529.000,3205.0214,N,03448.1599,E,0,M,,*63,1759655729000
NMEA,$GPGLL,3205.0214,N,03448.1599,E,091529.000,A,A*53,1759655729000
NMEA,$GPVTG,87.1,T,,M,0.6,N,1.2,K,A*36,1759655729000
NMEA,$GPGSV,5,1,16,01,08,174,30,03,46,126,44,04,48,043,36,06,37,281,35*73,1759655729000
NMEA,$GPGSV,5,2,16,07,51,225,37,09,56,331,41,11,13,316,29,16,26,077,44*7B,1759655729000
NMEA,$GPGSV,5,3,16,26,09,043,27,30,19,225,30*7A,1759655729000
NMEA,$GPGSV,5,4,16,01,08,174,22,03,46,126,37,04,48,043,33,06,37,281,24,8*60,1759655729000
NMEA,$GPGSV,5,5,16,09,56,331,34,30,19,225,31,8*6A,1759655729000
NMEA,$GLGSV,2,1,08,67,08,092,24,68,42,053,36,69,41,339,44,78,43,053,36*69,1759655729000
NMEA,$GLGSV,2,2,08,79,52,141,35,80,11,183,29,83,13,215,27,84,28,270,30*65,1759655729000
NMEA,$GAGSV,5,1,16,107,22,064,29,110,09,324,19,112,26,309,32,119,40,290,28*61,1759655729000
NMEA,$GAGSV,5,2,16,121,16,159,27,126,24,184,27,127,30,104,27,129,60,008,41*68,1759655729000
NMEA,$GAGSV,5,3,16,130,14,053,29,133,50,242,34*64,1759655729000
NMEA,$GAGSV,5,4,16,107,22,064,26,112,26,309,32,121,16,159,18,129,60,008,35,1*7D,1759655729000
NMEA,$GAGSV,5,5,16,133,50,242,33,1*72,1759655729000
NMEA,$BDGSV,4,1,13,206,28,043,19,209,44,044,32,213,09,134,43,214,09,302,24*65,1759655729000
NMEA,$BDGSV,4,2,13,216,20,041,26,221,64,027,47,222,29,095,28,226,46,180,34*6A,1759655729000
NMEA,$BDGSV,4,3,13,234,12,238,32*63,1759655729000
NMEA,$BDGSV,4,4,13,221,64,027,37,222,29,095,29,226,46,180,24,5*74,1759655729000
NMEA,$GPGSA,A,3,07,11,16,,,,,,,,,,1.0,0.4,0.8*3F,1759655729000
NMEA,$GNGSA,A,3,69,78,79,84,,,,,,,,,1.0,0.4,0.8*23,1759655729000
NMEA,$GAGSA,A,3,119,121,129,130,,,,,,,,,1.0,0.4,0.8*2D,1759655729000
NMEA,$BDGSA,A,3,209,213,221,226,234,,,,,,,,1.0,0.4,0.8*17,1759655729000
NMEA,$PSSGR,GSA,A,3,01,03,04,09,30,,,,,,,,1.0,0.4,0.8,1,8*44,1759655729000
NMEA,$PSSGR,GSA,A,3,112,133,,,,,,,,,,,1.0,0.4,0.8,3,1*40,1759655729000
NMEA,$GPRMC,091529.000,A,3205.0214,N,03448.1599,E,0.6,87.1,051025,,,A*5F,1759655729000
NMEA,$PSAMCLK,2387,3334700,23,28030,2692,33347000*42,1759655729000
NMEA,$GPGGA,091530.000,3205.0212,N,03448.1600,E,1,24,0.4,21.8,M,17.1,M,,*65,1759655730000
NMEA,$PSAMSA,091530.000,3205.0212,N,03448.1600,E,0,M,,*6E,1759655730000
NMEA,$GPGLL,3205.0212,N,03448.1600,E,091530.000,A,A*5E,1759655730000
NMEA,$GPVTG,87.1,T,,M,1.0,N,1.9,K,A*3A,1759655730000
NMEA,$GPGSV,5,1,15,01,08,174,30,03,46,126,44,04,48,043,36,06,37,281,35*70,1759655730000
NMEA,$GPGSV,5,2,15,07,51,225,37,09,56,331,44,11,13,316,29,16,26,077,44*7D,1759655730000
NMEA,$GPGSV,5,3,15,30,19,225,30*46,1759655730000
NMEA,$GPGSV,5,4,15,03,46,126,40,04,48,043,32,06,37,281,27,09,56,331,34,8*66,1759655730000
NMEA,$GPGSV,5,5,15,30,19,225,30,8*54,1759655730000
NMEA,$GLGSV,2,1,08,67,08,092,24,68,42,053,36,69,41,339,50,78,43,053,36*6C,1759655730000
NMEA,$GLGSV,2,2,08,79,52,141,35,80,11,183,29,83,13,215,27,84,28,270,30*65,1759655730000
NMEA,$GAGSV,5,1,16,107,22,064,29,110,09,324,19,112,26,309,32,119,40,290,28*61,1759655730000
NMEA,$GAGSV,5,2,16,121,16,159,27,126,24,184,27,127,30,104,27,129,60,008,41*68,1759655730000
NMEA,$GAGSV,5,3,16,130,14,053,36,133,50,242,34*6A,1759655730000
NMEA,$GAGSV,5,4,16,107,22,064,26,121,16,159,19,126,24,184,20,129,60,008,34,1*7C,1759655730000
NMEA,$GAGSV,5,5,16,130,14,053,21,133,50,242,33,1*70,1759655730000
NMEA,$BDGSV,4,1,13,206,28,043,16,209,44,044,32,213,09,134,43,214,09,302,24*6A,1759655730000
NMEA,$BDGSV,4,2,13,216,20,041,26,221,64,027,47,222,29,095,28,226,46,180,34*6A,1759655730000
NMEA,$BDGSV,4,3,13,234,12,238,32*63,1759655730000
NMEA,$BDGSV,4,4,13,221,64,027,37,222,29,095,29,226,46,180,24,5*74,1759655730000
NMEA,$GPGSA,A,3,01,07,09,11,16,,,,,,,,1.0,0.4,0.8*37,1759655730000
NMEA,$GNGSA,A,3,68,69,78,79,83,84,,,,,,,1.0,0.4,0.8*26,1759655730000
NMEA,$GAGSA,A,3,119,129,130,133,,,,,,,,,1.0,0.4,0.8*2E,1759655730000
NMEA,$BDGSA,A,3,209,213,221,226,234,,,,,,,,1.0,0.4,0.8*17,1759655730000
NMEA,$PSSGR,GSA,A,3,03,04,06,30,,,,,,,,,1.0,0.4,0.8,1,8*4A,1759655730000
NMEA,$GPRMC,091530.000,A,3205.0212,N,03448.1600,E,1.0,87.1,051025,,,A*55,1759655730000
NMEA,$PSAMCLK,2387,3334800,24,27802,2864,33348000*44,1759655730000
NMEA,$GPGGA,091531.000,3205.0215,N,03448.1596,E,1,16,0.6,20.6,M,17.1,M,,*63,1759655731000
NMEA,$PSAMSA,091531.000,3205.0215,N,03448.1596,E,0,M,,*64,1759655731000
NMEA,$GPGLL,3205.0215,N,03448.1596,E,091531.000,A,A*54,1759655731000
NMEA,$GPVTG,87.1,T,,M,0.3,N,0.5,K,A*35,1759655731000
NMEA,$GPGSV,5,1,16,01,08,174,30,03,46,126,43,04,48,043,36,06,37,281,35*74,1759655731000
NMEA,$GPGSV,5,2,16,07,51,225,37,09,56,331,44,11,13,316,29,16,26,077,44*7E,1759655731000
NMEA,$GPGSV,5,3,16,30,19,225,30*45,1759655731000
NMEA,$GPGSV,5,4,16,03,46,126,39,04,48,043,32,06,37,281,26,09,56,331,33,8*6D,1759655731000
NMEA,$GPGSV,5,5,16,30,19,225,30,8*57,1759655731000
NMEA,$GLGSV,2,1,08,67,08,092,24,68,42,053,36,69,41,339,50,78,43,053,36*6C,1759655731000
NMEA,$GLGSV,2,2,08,79,52,141,42,80,11,183,29,83,13,215,27,84,28,270,30*65,1759655731000
NMEA,$GAGSV,5,1,18,107,22,064,29,110,09,324,19,112,26,309,32,119,40,290,28*6F,1759655731000
NMEA,$GAGSV,5,2,18,121,16,159,27,126,24,184,27,127,30,104,26,129,60,008,42*64,1759655731000
NMEA,$GAGSV,5,3,18,130,14,053,37,133,50,242,35*64,1759655731000
NMEA,$GAGSV,5,4,18,107,22,064,27,112,26,309,30,121,16,159,19,126,24,184,20,1*7F,1759655731000
NMEA,$GAGSV,5,5,18,127,30,104,32,129,60,008,34,130,14,053,23,133,50,242,32,1*7D,1759655731000
NMEA,$BDGSV,4,1,15,206,28,043,31,209,44,044,32,213,09,134,43,214,09,302,23*6E,1759655731000
NMEA,$BDGSV,4,2,15,216,20,041,26,221,64,027,46,222,29,095,28,226,46,180,33*6A,1759655731000
NMEA,$BDGSV,4,3,15,234,12,238,32,236,13,040,27*61,1759655731000
NMEA,$BDGSV,4,4,15,221,64,027,37,222,29,095,30,226,46,180,23,236,13,040,28,5*76,1759655731000
NMEA,$GPGSA,A,3,09,16,,,,,,,,,,,1.2,0.6,1.0*38,1759655731000
NMEA,$GNGSA,A,3,69,78,79,,,,,,,,,,1.2,0.6,1.0*26,1759655731000
NMEA,$GAGSA,A,3,129,130,,,,,,,,,,,1.2,0.6,1.0*2F,1759655731000
NMEA,$BDGSA,A,3,209,213,221,226,234,,,,,,,,1.2,0.6,1.0*1E,1759655731000
NMEA,$PSSGR,GSA,A,3,03,04,30,,,,,,,,,,1.2,0.6,1.0,1,8*45,1759655731000
NMEA,$GPRMC,091531.000,A,3205.0215,N,03448.1596,E,0.3,87.1,051025,,,A*5D,1759655731000
NMEA,$PSAMCLK,2387,3334900,16,27512,3030,33349000*41,1759655731000
NMEA,$GPGGA,091532.000,3205.0211,N,03448.1595,E,1,16,0.6,20.2,M,17.1,M,,*63,1759655732000
NMEA,$PSAMSA,091532.000,3205.0211,N,03448.1595,E,0,M,,*60,1759655732000
NMEA,$GPGLL,3205.0211,N,03448.1595,E,091532.000,A,A*50,1759655732000
NMEA,$GPVTG,87.1,T,,M,1.1,N,2.0,K,A*31,1759655732000
NMEA,$GPGSV,5,1,16,01,08,174,30,03,46,126,43,04,48,043,36,06,37,281,35*74,1759655732000
NMEA,$GPGSV,5,2,16,07,51,225,38,09,56,331,44,11,13,316,29,16,26,077,44*71,1759655732000
NMEA,$GPGSV,5,3,16,30,19,225,30*45,1759655732000
NMEA,$GPGSV,5,4,16,03,46,126,39,04,48,043,32,06,37,281,25,09,56,331,33,8*6E,1759655732000
NMEA,$GPGSV,5,5,16,30,19,225,30,8*57,1759655732000
NMEA,$GLGSV,2,1,08,67,08,092,24,68,42,053,36,69,41,339,50,78,43,053,36*6C,1759655732000
NMEA,$GLGSV,2,2,08,79,52,141,44,80,11,183,29,83,13,215,27,84,28,270,30*63,1759655732000
NMEA,$GAGSV,5,1,17,107,22,064,29,110,09,324,19,112,26,309,31,119,40,290,28*63,1759655732000
NMEA,$GAGSV,5,2,17,121,16,159,28,126,24,184,27,127,30,104,26,129,60,008,43*65,1759655732000
NMEA,$GAGSV,5,3,17,130,14,053,37,133,50,242,35*6B,1759655732000
NMEA,$GAGSV,5,4,17,107,22,064,27,121,16,159,19,126,24,184,20,127,30,104,32,1*7C,1759655732000
NMEA,$GAGSV,5,5,17,129,60,008,34,130,14,053,23,133,50,242,32,1*71,1759655732000
NMEA,$BDGSV,5,1,15,206,28,043,30,209,44,044,32,213,09,134,42,214,09,302,23*6F,1759655732000
NMEA,$BDGSV,5,2,15,216,20,041,26,221,64,027,46,222,29,095,28,226,46,180,33*6B,1759655732000
NMEA,$BDGSV,5,3,15,234,12,238,32,236,13,040,27*60,1759655732000
NMEA,$BDGSV,5,4,15,221,64,027,37,222,29,095,30,226,46,180,23,234,12,238,19,5*7B,1759655732000
NMEA,$BDGSV,5,5,15,236,13,040,27,5*71,1759655732000
NMEA,$GPGSA,A,3,16,,,,,,,,,,,,1.2,0.6,1.0*31,1759655732000
NMEA,$GNGSA,A,3,69,78,79,,,,,,,,,,1.2,0.6,1.0*26,1759655732000
NMEA,$GAGSA,A,3,119,129,130,133,,,,,,,,,1.2,0.6,1.0*27,1759655732000
NMEA,$BDGSA,A,3,209,213,226,234,,,,,,,,,1.2,0.6,1.0*2F,1759655732000
NMEA,$PSSGR,GSA,A,3,03,04,09,,,,,,,,,,1.2,0.6,1.0,1,8*4F,1759655732000
NMEA,$PSSGR,GSA,A,3,221,,,,,,,,,,,,1.2,0.6,1.0,4,5*78,1759655732000
NMEA,$GPRMC,091532.000,A,3205.0211,N,03448.1595,E,1.1,87.1,051025,,,A*5A,1759655732000
NMEA,$PSAMCLK,2387,3335000,16,27549,3207,33350000*49,1759655732000
NMEA,$GPGGA,091533.000,3205.0207,N,03448.1598,E,1,22,0.4,18.7,M,17.1,M,,*63,1759655733000
NMEA,$PSAMSA,091533.000,3205.0207,N,03448.1598,E,0,M,,*6B,1759655733000
NMEA,$GPGLL,3205.0207,N,03448.1598,E,091533.000,A,A*5B,1759655733000
NMEA,$GPVTG,87.1,T,,M,1.3,N,2.4,K,A*37,1759655733000
NMEA,$GPGSV,5,1,16,01,08,174,30,03,46,126,43,04,48,043,36,06,37,281,35*74,1759655733000
NMEA,$GPGSV,5,2,16,07,51,225,38,09,56,331,44,11,13,316,29,16,26,077,45*70,1759655733000
NMEA,$GPGSV,5,3,16,30,19,225,30*45,1759655733000
NMEA,$GPGSV,5,4,16,03,46,126,38,04,48,043,31,06,37,281,24,09,56,331,34,8*6A,1759655733000
NMEA,$GPGSV,5,5,16,30,19,225,29,8*5F,1759655733000
NMEA,$GLGSV,2,1,08,67,08,092,24,68,42,053,36,69,41,339,50,78,43,053,36*6C,1759655733000
NMEA,$GLGSV,2,2,08,79,52,141,43,80,11,183,30,83,13,215,28,84,28,270,30*63,1759655733000
NMEA,$GAGSV,5,1,18,107,22,064,29,110,09,324,19,112,26,309,31,119,40,290,28*6C,1759655733000
NMEA,$GAGSV,5,2,18,121,16,159,28,126,24,184,27,127,30,104,26,129,60,008,43*6A,1759655733000
NMEA,$GAGSV,5,3,18,130,14,053,37,133,50,242,35*64,1759655733000
NMEA,$GAGSV,5,4,18,107,22,064,27,121,16,159,19,126,24,184,20,127,30,104,33,1*72,1759655733000
NMEA,$GAGSV,5,5,18,129,60,008,34,130,14,053,23,133,50,242,31,1*7D,1759655733000
NMEA,$BDGSV,4,1,14,206,28,043,27,209,44,044,32,213,09,134,42,214,09,302,23*69,1759655733000
NMEA,$BDGSV,4,2,14,216,20,041,26,221,64,027,45,222,29,095,25,226,46,180,33*65,1759655733000
NMEA,$BDGSV,4,3,14,234,12,238,32,236,13,040,26*61,1759655733000
NMEA,$BDGSV,4,4,14,221,64,027,39,222,29,095,30,226,46,180,22,236,13,040,30,5*71,1759655733000
NMEA,$GPGSA,A,3,06,07,16,,,,,,,,,,1.0,0.4,0.8*39,1759655733000
NMEA,$GNGSA,A,3,68,69,78,79,,,,,,,,,1.0,0.4,0.8*21,1759655733000
NMEA,$GAGSA,A,3,119,121,126,129,130,133,,,,,,,1.0,0.4,0.8*29,1759655733000
NMEA,$BDGSA,A,3,209,213,214,226,234,,,,,,,,1.0,0.4,0.8*11,1759655733000
NMEA,$PSSGR,GSA,A,3,03,04,09,,,,,,,,,,1.0,0.4,0.8,1,8*46,1759655733000
NMEA,$PSSGR,GSA,A,3,221,,,,,,,,,,,,1.0,0.4,0.8,4,5*71,1759655733000
NMEA,$GPRMC,091533.000,A,3205.0207,N,03448.1598,E,1.3,87.1,051025,,,A*53,1759655733000
NMEA,$PSAMCLK,2387,3335100,22,27870,3383,33351000*44,1759655733000
NMEA,$GPGGA,091534.000,3205.0211,N,03448.1608,E,1,22,0.4,16.1,M,17.1,M,,*61,1759655734000
NMEA,$PSAMSA,091534.000,3205.0211,N,03448.1608,E,0,M,,*61,1759655734000
NMEA,$GPGLL,3205.0211,N,03448.1608,E,091534.000,A,A*51,1759655734000
NMEA,$GPVTG,87.1,T,,M,1.7,N,3.2,K,A*34,1759655734000
NMEA,$GPGSV,5,1,16,01,08,174,29,03,46,126,42,04,48,043,36,06,37,281,35*7D,1759655734000
NMEA,$GPGSV,5,2,16,07,51,225,38,09,56,331,45,11,13,316,29,16,26,077,45*71,1759655734000
NMEA,$GPGSV,5,3,16,30,19,225,30*45,1759655734000
NMEA,$GPGSV,5,4,16,03,46,126,38,04,48,043,32,06,37,281,23,09,56,331,36,8*6C,1759655734000
NMEA,$GPGSV,5,5,16,26,09,043,14,30,19,225,29,8*60,1759655734000
NMEA,$GLGSV,2,1,08,67,08,092,24,68,42,053,36,69,41,339,50,78,43,053,36*6C,1759655734000
NMEA,$GLGSV,2,2,08,79,52,141,43,80,11,183,30,83,13,215,28,84,28,270,30*63,1759655734000
NMEA,$GAGSV,5,1,17,107,22,064,29,110,09,324,19,112,26,309,31,119,40,290,28*63,1759655734000
NMEA,$GAGSV,5,2,17,121,16,159,28,126,24,184,27,127,30,104,27,129,60,008,43*64,1759655734000
NMEA,$GAGSV,5,3,17,130,14,053,37,133,50,242,35*6B,1759655734000
NMEA,$GAGSV,5,4,17,107,22,064,27,121,16,159,19,126,24,184,20,127,30,104,33,1*7D,1759655734000
NMEA,$GAGSV,5,5,17,129,60,008,34,133,50,242,34,1*77,1759655734000
NMEA,$BDGSV,4,1,15,206,28,043,24,209,44,044,33,213,09,134,41,214,09,302,23*69,1759655734000
NMEA,$BDGSV,4,2,15,216,20,041,27,221,64,027,44,222,29,095,28,226,46,180,33*69,1759655734000
NMEA,$BDGSV,4,3,15,234,12,238,32,236,13,040,26*60,1759655734000
NMEA,$BDGSV,4,4,15,221,64,027,40,222,29,095,30,226,46,180,22,236,13,040,30,5*7E,1759655734000
NMEA,$GPGSA,A,3,06,07,16,,,,,,,,,,1.0,0.4,0.8*39,1759655734000
NMEA,$GNGSA,A,3,68,69,78,79,,,,,,,,,1.0,0.4,0.8*21,1759655734000
NMEA,$GAGSA,A,3,121,126,129,130,,,,,,,,,1.0,0.4,0.8*21,1759655734000
NMEA,$BDGSA,A,3,209,213,214,226,,,,,,,,,1.0,0.4,0.8*24,1759655734000
NMEA,$PSSGR,GSA,A,3,03,04,09,30,,,,,,,,,1.0,0.4,0.8,1,8*45,1759655734000
NMEA,$PSSGR,GSA,A,3,221,236,,,,,,,,,,,1.0,0.4,0.8,4,5*46,1759655734000
NMEA,$GPRMC,091534.000,A,3205.0211,N,03448.1608,E,1.7,87.1,051025,,,A*5D,1759655734000
NMEA,$PSAMCLK,2387,3335200,22,27468,3562,33352000*48,1759655734000
NMEA,$GPGGA,091535.000,3205.0206,N,03448.1608,E,1,22,0.4,14.9,M,17.1,M,,*6C,1759655735000
NMEA,$PSAMSA,091535.000,3205.0206,N,03448.1608,E,0,M,,*66,1759655735000
NMEA,$GPGLL,3205.0206,N,03448.1608,E,091535.000,A,A*56,1759655735000
NMEA,$GPVTG,105.0,T,,M,1.2,N,2.2,K,A*0A,1759655735000
NMEA,$GPGSV,5,1,16,01,08,174,29,03,46,126,42,04,48,043,36,06,37,281,35*7D,1759655735000
NMEA,$GPGSV,5,2,16,07,51,225,38,09,56,331,46,11,13,316,29,16,26,077,45*72,1759655735000
NMEA,$GPGSV,5,3,16,30,19,225,30*45,1759655735000
NMEA,$GPGSV,5,4,16,03,46,126,38,04,48,043,31,06,37,281,23,09,56,331,38,8*61,1759655735000
NMEA,$GPGSV,5,5,16,30,19,225,29,8*5F,1759655735000
NMEA,$GLGSV,2,1,08,67,08,092,24,68,42,053,36,69,41,339,49,78,43,053,36*64,1759655735000
NMEA,$GLGSV,2,2,08,79,52,141,43,80,11,183,30,83,13,215,28,84,28,270,30*63,1759655735000
NMEA,$GAGSV,5,1,18,107,22,064,29,110,09,324,19,112,26,309,31,119,40,290,28*6C,1759655735000
NMEA,$GAGSV,5,2,18,121,16,159,29,126,24,184,27,127,30,104,25,129,60,008,43*68,1759655735000
NMEA,$GAGSV,5,3,18,130,14,053,37,133,50,242,41*67,1759655735000
NMEA,$GAGSV,5,4,18,107,22,064,26,121,16,159,19,126,24,184,20,127,30,104,33,1*73,1759655735000
NMEA,$GAGSV,5,5,18,129,60,008,34,133,50,242,34,1*78,1759655735000
NMEA,$BDGSV,5,1,15,206,28,043,21,209,44,044,33,213,09,134,40,214,09,302,23*6C,1759655735000
NMEA,$BDGSV,5,2,15,216,20,041,27,221,64,027,43,222,29,095,28,226,46,180,33*6F,1759655735000
NMEA,$BDGSV,5,3,15,234,12,238,32,236,13,040,26*61,1759655735000
NMEA,$BDGSV,5,4,15,221,64,027,40,222,29,095,30,226,46,180,22,234,12,238,22,5*72,1759655735000
NMEA,$BDGSV,5,5,15,236,13,040,30,5*77,1759655735000
NMEA,$GPGSA,A,3,07,16,,,,,,,,,,,1.0,0.4,0.8*3F,1759655735000
NMEA,$GNGSA,A,3,68,69,78,79,,,,,,,,,1.0,0.4,0.8*21,1759655735000
NMEA,$GAGSA,A,3,119,121,129,130,133,,,,,,,,1.0,0.4,0.8*1C,1759655735000
NMEA,$BDGSA,A,3,209,213,214,226,234,,,,,,,,1.0,0.4,0.8*11,1759655735000
NMEA,$PSSGR,GSA,A,3,03,04,09,30,,,,,,,,,1.0,0.4,0.8,1,8*45,1759655735000
NMEA,$PSSGR,GSA,A,3,221,236,,,,,,,,,,,1.0,0.4,0.8,4,5*46,1759655735000
NMEA,$GPRMC,091535.000,A,3205.0206,N,03448.1608,E,1.2,105.0,051025,,,A*65,1759655735000
NMEA,$PSAMCLK,2387,3335300,22,27417,3733,33353000*46,1759655735000
NMEA,$GPGGA,091536.000,3205.0204,N,03448.1602,E,1,25,0.4,13.9,M,17.1,M,,*67,1759655736000
NMEA,$PSAMSA,091536.000,3205.0204,N,03448.1602,E,0,M,,*6D,1759655736000
NMEA,$GPGLL,3205.0204,N,03448.1602,E,091536.000,A,A*5D,1759655736000
NMEA,$GPVTG,107.2,T,,M,0.7,N,1.2,K,A*0D,1759655736000
NMEA,$GPGSV,5,1,16,01,08,174,29,03,46,126,42,04,48,043,36,06,37,281,35*7D,1759655736000
NMEA,$GPGSV,5,2,16,07,51,225,38,09,56,331,47,11,13,316,29,16,26,077,45*73,1759655736000
NMEA,$GPGSV,5,3,16,30,19,225,30*45,1759655736000
NMEA,$GPGSV,5,4,16,03,46,126,37,04,48,043,36,06,37,281,23,09,56,331,40,8*66,1759655736000
NMEA,$GPGSV,5,5,16,11,13,316,18,30,19,225,29,8*60,1759655736000
NMEA,$GLGSV,2,1,08,67,08,092,24,68,42,053,36,69,41,339,49,78,43,053,36*64,1759655736000
NMEA,$GLGSV,2,2,08,79,52,141,43,80,11,183,30,83,13,215,28,84,28,270,30*63,1759655736000
NMEA,$GAGSV,5,1,18,107,22,064,28,110,09,324,19,112,26,309,31,119,40,290,28*6D,1759655736000
NMEA,$GAGSV,5,2,18,121,16,159,29,126,24,184,27,127,30,104,22,129,60,008,43*6F,1759655736000
NMEA,$GAGSV,5,3,18,130,14,053,36,133,50,242,47*60,1759655736000
NMEA,$GAGSV,5,4,18,107,22,064,25,121,16,159,19,126,24,184,21,127,30,104,32,1*70,1759655736000
NMEA,$GAGSV,5,5,18,129,60,008,33,133,50,242,33,1*78,1759655736000
NMEA,$BDGSV,5,1,15,206,28,043,18,209,44,044,33,213,09,134,39,214,09,302,22*69,1759655736000
NMEA,$BDGSV,5,2,15,216,20,041,27,221,64,027,43,222,29,095,29,226,46,180,33*6E,1759655736000
NMEA,$BDGSV,5,3,15,234,12,238,32,236,13,040,26*61,1759655736000
NMEA,$BDGSV,5,4,15,221,64,027,40,222,29,095,30,226,46,180,21,234,12,238,22,5*71,1759655736000
NMEA,$BDGSV,5,5,15,236,13,040,29,5*7F,1759655736000
NMEA,$GPGSA,A,3,07,11,16,,,,,,,,,,0.8,0.4,0.8*36,1759655736000
NMEA,$GNGSA,A,3,68,69,78,79,84,,,,,,,,0.8,0.4,0.8*24,1759655736000
NMEA,$GAGSA,A,3,112,119,121,126,129,130,133,,,,,,0.8,0.4,0.8*12,1759655736000
NMEA,$BDGSA,A,3,209,213,214,226,234,,,,,,,,0.8,0.4,0.8*18,1759655736000
NMEA,$PSSGR,GSA,A,3,03,04,09,,,,,,,,,,0.8,0.4,0.8,1,8*4F,1759655736000
NMEA,$PSSGR,GSA,A,3,221,236,,,,,,,,,,,0.8,0.4,0.8,4,5*4F,1759655736000
NMEA,$GPRMC,091536.000,A,3205.0204,N,03448.1602,E,0.7,107.2,051025,,,A*6A,1759655736000
NMEA,$PSAMCLK,2387,3335400,25,27544,3907,33354000*4F,1759655736000
NMEA,$GPGGA,091537.000,3205.0204,N,03448.1596,E,1,21,0.4,12.0,M,17.1,M,,*64,1759655737000
NMEA,$PSAMSA,091537.000,3205.0204,N,03448.1596,E,0,M,,*62,1759655737000
NMEA,$GPGLL,3205.0204,N,03448.1596,E,091537.000,A,A*52,1759655737000
NMEA,$GPVTG,107.2,T,,M,1.0,N,1.9,K,A*00,1759655737000
NMEA,$GPGSV,5,1,15,01,08,174,29,03,46,126,42,04,48,043,36,06,37,281,35*7E,1759655737000
NMEA,$GPGSV,5,2,15,07,51,225,38,09,56,331,47,11,13,316,29,16,26,077,45*70,1759655737000
NMEA,$GPGSV,5,3,15,30,19,225,30*46,1759655737000
NMEA,$GPGSV,5,4,15,01,08,174,22,03,46,126,37,04,48,043,36,06,37,281,23,8*61,1759655737000
NMEA,$GPGSV,5,5,15,09,56,331,39,30,19,225,29,8*6D,1759655737000
NMEA,$GLGSV,2,1,08,67,08,092,24,68,42,053,36,69,41,339,49,78,43,053,36*64,1759655737000
NMEA,$GLGSV,2,2,08,79,52,141,42,80,11,183,30,83,13,215,29,84,28,270,30*63,1759655737000
NMEA,$GAGSV,5,1,18,107,22,064,28,110,09,324,19,112,26,309,31,119,40,290,28*6D,1759655737000
NMEA,$GAGSV,5,2,18,121,16,159,29,126,24,184,27,129,60,008,43,130,14,053,36*69,1759655737000
NMEA,$GAGSV,5,3,18,133,50,242,47*64,1759655737000
NMEA,$GAGSV,5,4,18,107,22,064,25,121,16,159,19,126,24,184,21,127,30,104,32,1*70,1759655737000
NMEA,$GAGSV,5,5,18,129,60,008,32,133,50,242,33,1*79,1759655737000
NMEA,$BDGSV,4,1,15,205,50,133,38,206,28,043,15,209,44,044,33,213,09,134,38*63,1759655737000
NMEA,$BDGSV,4,2,15,214,09,302,22,216,20,041,27,221,64,027,42,222,29,095,29*6C,1759655737000
NMEA,$BDGSV,4,3,15,226,46,180,33,234,12,238,34,236,13,040,26*6B,1759655737000
NMEA,$BDGSV,4,4,15,221,64,027,40,222,29,095,30,226,46,180,21,236,13,040,29,5*75,1759655737000
NMEA,$GPGSA,A,3,16,,,,,,,,,,,,1.0,0.4,0.8*38,1759655737000
NMEA,$GNGSA,A,3,68,69,78,79,83,84,,,,,,,1.0,0.4,0.8*26,1759655737000
NMEA,$GAGSA,A,3,112,121,129,130,133,,,,,,,,1.0,0.4,0.8*17,1759655737000
NMEA,$BDGSA,A,3,209,213,234,,,,,,,,,,1.0,0.4,0.8*10,1759655737000
NMEA,$PSSGR,GSA,A,3,03,04,06,09,,,,,,,,,1.0,0.4,0.8,1,8*40,1759655737000
NMEA,$PSSGR,GSA,A,3,221,236,,,,,,,,,,,1.0,0.4,0.8,4,5*46,1759655737000
NMEA,$GPRMC,091537.000,A,3205.0204,N,03448.1596,E,1.0,107.2,051025,,,A*63,1759655737000
NMEA,$PSAMCLK,2387,3335500,21,27316,4067,33355000*42,1759655737000
NMEA,$GPGGA,091538.000,3205.0207,N,03448.1592,E,1,24,0.4,10.2,M,17.1,M,,*69,1759655738000
NMEA,$PSAMSA,091538.000,3205.0207,N,03448.1592,E,0,M,,*6A,1759655738000
NMEA,$GPGLL,3205.0207,N,03448.1592,E,091538.000,A,A*5A,1759655738000
NMEA,$GPVTG,107.2,T,,M,1.7,N,3.1,K,A*0D,1759655738000
NMEA,$GPGSV,5,1,16,01,08,174,29,03,46,126,42,04,48,043,36,06,37,281,35*7D,1759655738000
NMEA,$GPGSV,5,2,16,07,51,225,38,09,56,331,47,11,13,316,29,16,26,077,45*73,1759655738000
NMEA,$GPGSV,5,3,16,30,19,225,30*45,1759655738000
NMEA,$GPGSV,5,4,16,01,08,174,24,03,46,126,37,04,48,043,36,06,37,281,24,8*63,1759655738000
NMEA,$GPGSV,5,5,16,09,56,331,39,30,19,225,28,8*6F,1759655738000
NMEA,$GLGSV,2,1,08,67,08,092,24,68,42,053,36,69,41,339,49,78,43,053,36*64,1759655738000
NMEA,$GLGSV,2,2,08,79,52,141,42,80,11,183,30,83,13,215,29,84,28,270,30*63,1759655738000
NMEA,$GAGSV,5,1,18,107,22,064,29,110,09,324,19,112,26,309,30,119,40,290,28*6D,1759655738000
NMEA,$GAGSV,5,2,18,121,16,159,29,126,24,184,28,127,30,104,16,129,60,008,43*67,1759655738000
NMEA,$GAGSV,5,3,18,130,14,053,35,133,50,242,47*63,1759655738000
NMEA,$GAGSV,5,4,18,107,22,064,25,121,16,159,18,126,24,184,21,127,30,104,31,1*72,1759655738000
NMEA,$GAGSV,5,5,18,129,60,008,32,133,50,242,33,1*79,1759655738000
NMEA,$BDGSV,4,1,16,205,50,133,37,206,28,043,13,209,44,044,33,213,09,134,38*69,1759655738000
NMEA,$BDGSV,4,2,16,214,09,302,22,216,20,041,27,221,64,027,42,222,29,095,29*6F,1759655738000
NMEA,$BDGSV,4,3,16,226,46,180,32,234,12,238,44,236,13,040,27*6F,1759655738000
NMEA,$BDGSV,4,4,16,221,64,027,40,222,29,095,30,226,46,180,21,236,13,040,29,5*76,1759655738000
NMEA,$GPGSA,A,3,07,16,,,,,,,,,,,1.0,0.4,1.0*36,1759655738000
NMEA,$GNGSA,A,3,68,69,78,79,83,84,,,,,,,1.0,0.4,1.0*2F,1759655738000
NMEA,$GAGSA,A,3,119,126,129,130,133,,,,,,,,1.0,0.4,1.0*12,1759655738000
NMEA,$BDGSA,A,3,209,213,226,234,,,,,,,,,1.0,0.4,1.0*2F,1759655738000
NMEA,$PSSGR,GSA,A,3,01,03,04,06,09,30,,,,,,,1.0,0.4,1.0,1,8*4B,1759655738000
NMEA,$PSSGR,GSA,A,3,221,,,,,,,,,,,,1.0,0.4,1.0,4,5*78,1759655738000
NMEA,$GPRMC,091538.000,A,3205.0207,N,03448.1592,E,1.7,107.2,051025,,,A*6C,1759655738000
NMEA,$PSAMCLK,2387,3335600,24,27269,4239,33356000*47,1759655738000
NMEA,$GPGGA,091539.000,3205.0209,N,03448.1587,E,1,23,0.4,9.9,M,17.1,M,,*56,1759655739000
NMEA,$PSAMSA,091539.000,3205.0209,N,03448.1587,E,0,M,,*61,1759655739000
NMEA,$GPGLL,3205.0209,N,03448.1587,E,091539.000,A,A*51,1759655739000
NMEA,$GPVTG,107.2,T,,M,1.2,N,2.2,K,A*0A,1759655739000
NMEA,$GPGSV,5,1,16,01,08,174,29,03,46,126,42,04,48,043,37,06,37,281,35*7C,1759655739000
NMEA,$GPGSV,5,2,16,07,51,225,38,09,56,331,47,11,13,316,28,16,26,077,46*71,1759655739000
NMEA,$GPGSV,5,3,16,30,19,225,30*45,1759655739000
NMEA,$GPGSV,5,4,16,01,08,174,24,03,46,126,36,04,48,043,36,06,37,281,24,8*62,1759655739000
NMEA,$GPGSV,5,5,16,09,56,331,39,30,19,225,28,8*6F,1759655739000
NMEA,$GLGSV,2,1,08,67,08,092,24,68,42,053,36,69,41,339,49,78,43,053,36*64,1759655739000
NMEA,$GLGSV,2,2,08,79,52,141,42,80,11,183,30,83,13,215,29,84,28,270,30*63,1759655739000
NMEA,$GAGSV,5,1,19,107,22,064,29,110,09,324,19,112,26,309,30,119,40,290,28*6C,1759655739000
NMEA,$GAGSV,5,2,19,121,16,159,29,126,24,184,28,127,30,104,14,129,60,008,43*64,1759655739000
NMEA,$GAGSV,5,3,19,130,14,053,34,133,50,242,47*63,1759655739000
NMEA,$GAGSV,5,4,19,107,22,064,25,119,40,290,16,121,16,159,18,126,24,184,21,1*72,1759655739000
NMEA,$GAGSV,5,5,19,127,30,104,30,129,60,008,32,133,50,242,33,1*79,1759655739000
NMEA,$BDGSV,4,1,16,205,50,133,37,206,28,043,12,209,44,044,34,213,09,134,37*60,1759655739000
NMEA,$BDGSV,4,2,16,214,09,302,22,216,20,041,28,221,64,027,42,222,29,095,29*60,1759655739000
NMEA,$BDGSV,4,3,16,226,46,180,31,234,12,238,44,236,13,040,28*63,1759655739000
NMEA,$BDGSV,4,4,16,221,64,027,39,222,29,095,30,226,46,180,21,236,13,040,28,5*79,1759655739000
NMEA,$GPGSA,A,3,07,16,,,,,,,,,,,1.0,0.4,0.8*3F,1759655739000
NMEA,$GNGSA,A,3,68,69,78,79,84,,,,,,,,1.0,0.4,0.8*2D,1759655739000
NMEA,$GAGSA,A,3,121,126,129,130,133,,,,,,,,1.0,0.4,0.8*10,1759655739000
NMEA,$BDGSA,A,3,209,213,226,234,,,,,,,,,1.0,0.4,0.8*26,1759655739000
NMEA,$PSSGR,GSA,A,3,01,03,04,06,09,,,,,,,,1.0,0.4,0.8,1,8*41,1759655739000
NMEA,$PSSGR,GSA,A,3,221,236,,,,,,,,,,,1.0,0.4,0.8,4,5*46,1759655739000
NMEA,$GPRMC,091539.000,A,3205.0209,N,03448.1587,E,1.2,107.2,051025,,,A*62,1759655739000
NMEA,$PSAMCLK,2387,3335700,23,27235,4408,33357000*4D,1759655739000
NMEA,$GPGGA,091540.000,3205.0213,N,03448.1582,E,1,22,0.4,8.9,M,17.1,M,,*56,1759655740000
NMEA,$PSAMSA,091540.000,3205.0213,N,03448.1582,E,0,M,,*61,1759655740000
NMEA,$GPGLL,3205.0213,N,03448.1582,E,091540.000,A,A*51,1759655740000
NMEA,$GPVTG,107.2,T,,M,1.3,N,2.4,K,A*0D,1759655740000
NMEA,$GPGSV,5,1,16,01,08,174,30,03,46,126,42,04,48,043,37,06,37,281,35*74,1759655740000
NMEA,$GPGSV,5,2,16,07,51,225,38,09,56,331,47,11,13,316,28,16,26,077,46*71,1759655740000
NMEA,$GPGSV,5,3,16,30,19,225,30*45,1759655740000
NMEA,$GPGSV,5,4,16,01,08,174,24,03,46,126,35,04,48,043,36,06,37,281,24,8*61,1759655740000
NMEA,$GPGSV,5,5,16,09,56,331,39,30,19,225,28,8*6F,1759655740000
NMEA,$GLGSV,2,1,08,67,08,092,24,68,42,053,36,69,41,339,49,78,43,053,36*64,1759655740000
NMEA,$GLGSV,2,2,08,79,52,141,42,80,11,183,30,83,13,215,29,84,28,270,30*63,1759655740000
NMEA,$GAGSV,5,1,18,107,22,064,29,110,09,324,19,112,26,309,30,119,40,290,27*62,1759655740000
NMEA,$GAGSV,5,2,18,121,16,159,28,127,30,104,32,129,60,008,42,130,14,053,33*64,1759655740000
NMEA,$GAGSV,5,3,18,133,50,242,47*64,1759655740000
NMEA,$GAGSV,5,4,18,107,22,064,25,119,40,290,18,126,24,184,21,127,30,104,32,1*7F,1759655740000
NMEA,$GAGSV,5,5,18,129,60,008,32,133,50,242,33,1*79,1759655740000
NMEA,$BDGSV,4,1,15,205,50,133,36,209,44,044,38,213,09,134,36,214,09,302,21*69,1759655740000
NMEA,$BDGSV,4,2,15,216,20,041,28,221,64,027,41,222,29,095,30,226,46,180,31*68,1759655740000
NMEA,$BDGSV,4,3,15,234,12,238,44,236,13,040,30*66,1759655740000
NMEA,$BDGSV,4,4,15,221,64,027,39,222,29,095,29,226,46,180,21,236,13,040,28,5*72,1759655740000
NMEA,$GPGSA,A,3,07,16,,,,,,,,,,,1.0,0.4,0.8*3F,1759655740000
NMEA,$GNGSA,A,3,68,69,78,79,,,,,,,,,1.0,0.4,0.8*21,1759655740000
NMEA,$GAGSA,A,3,119,121,129,130,133,,,,,,,,1.0,0.4,0.8*1C,1759655740000
NMEA,$BDGSA,A,3,209,213,226,234,,,,,,,,,1.0,0.4,0.8*26,1759655740000
NMEA,$PSSGR,GSA,A,3,03,04,06,09,30,,,,,,,,1.0,0.4,0.8,1,8*43,1759655740000
NMEA,$PSSGR,GSA,A,3,221,236,,,,,,,,,,,1.0,0.4,0.8,4,5*46,1759655740000
NMEA,$GPRMC,091540.000,A,3205.0213,N,03448.1582,E,1.3,107.2,051025,,,A*63,1759655740000
NMEA,$PSAMCLK,2387,3335800,22,26784,4581,33358000*42,1759655740000
NMEA,$GPGGA,091541.000,3205.0216,N,03448.1578,E,1,24,0.4,8.4,M,17.1,M,,*5C,1759655741000
NMEA,$PSAMSA,091541.000,3205.0216,N,03448.1578,E,0,M,,*60,1759655741000
NMEA,$GPGLL,3205.0216,N,03448.1578,E,091541.000,A,A*50,1759655741000
NMEA,$GPVTG,107.2,T,,M,1.0,N,1.8,K,A*01,1759655741000
NMEA,$GPGSV,5,1,16,01,08,174,30,03,46,127,41,04,48,044,37,06,37,281,35*71,1759655741000
NMEA,$GPGSV,5,2,16,07,51,225,38,09,56,331,47,11,13,316,28,16,26,077,47*70,1759655741000
NMEA,$GPGSV,5,3,16,30,19,225,30*45,1759655741000
NMEA,$GPGSV,5,4,16,01,08,174,25,03,46,127,34,04,48,044,36,06,37,281,25,8*66,1759655741000
NMEA,$GPGSV,5,5,16,09,56,331,38,30,19,225,27,8*61,1759655741000
NMEA,$GLGSV,2,1,08,67,08,092,24,68,42,053,37,69,41,339,49,78,43,053,36*65,1759655741000
NMEA,$GLGSV,2,2,08,79,52,141,41,80,11,183,30,83,13,215,29,84,28,270,29*68,1759655741000
NMEA,$GAGSV,5,1,20,107,22,064,29,110,09,324,19,112,26,309,30,119,40,290,27*69,1759655741000
NMEA,$GAGSV,5,2,20,121,16,159,28,126,24,184,25,127,30,104,33,129,60,008,42*66,1759655741000
NMEA,$GAGSV,5,3,20,130,14,053,33,133,50,242,46*6F,1759655741000
NMEA,$GAGSV,5,4,20,107,22,064,25,110,09,324,19,119,40,290,18,126,24,184,22,1*70,1759655741000
NMEA,$GAGSV,5,5,20,127,30,104,31,129,60,008,32,130,14,053,16,133,50,242,33,1*74,1759655741000
NMEA,$BDGSV,4,1,15,205,50,133,35,209,44,044,42,213,09,134,36,214,09,302,21*67,1759655741000
NMEA,$BDGSV,4,2,15,216,20,041,28,221,64,027,41,222,29,095,31,226,46,180,31*69,1759655741000
NMEA,$BDGSV,4,3,15,234,12,238,43,236,13,040,37*66,1759655741000
NMEA,$BDGSV,4,4,15,221,64,027,39,222,29,095,29,226,46,180,21,236,13,040,27,5*7D,1759655741000
NMEA,$GPGSA,A,3,07,16,,,,,,,,,,,1.0,0.4,0.8*3F,1759655741000
NMEA,$GNGSA,A,3,68,69,78,79,84,,,,,,,,1.0,0.4,0.8*2D,1759655741000
NMEA,$GAGSA,A,3,119,121,129,130,133,,,,,,,,1.0,0.4,0.8*1C,1759655741000
NMEA,$BDGSA,A,3,209,213,226,234,236,,,,,,,,1.0,0.4,0.8*11,1759655741000
NMEA,$PSSGR,GSA,A,3,03,04,06,09,30,,,,,,,,1.0,0.4,0.8,1,8*43,1759655741000
NMEA,$PSSGR,GSA,A,3,126,,,,,,,,,,,,1.0,0.4,0.8,3,1*76,1759655741000
NMEA,$PSSGR,GSA,A,3,221,,,,,,,,,,,,1.0,0.4,0.8,4,5*71,1759655741000
NMEA,$GPRMC,091541.000,A,3205.0216,N,03448.1578,E,1.0,107.2,051025,,,A*61,1759655741000
NMEA,$PSAMCLK,2387,3335900,24,26818,4746,33359000*47,1759655741000
NMEA,$GPGGA,091542.000,3205.0221,N,03448.1574,E,1,23,0.4,8.2,M,17.1,M,,*56,1759655742000
NMEA,$PSAMSA,091542.000,3205.0221,N,03448.1574,E,0,M,,*6B,1759655742000
NMEA,$GPGLL,3205.0221,N,03448.1574,E,091542.000,A,A*5B,1759655742000
NMEA,$GPVTG,0.9,T,,M,1.5,N,2.8,K,A*0A,1759655742000
NMEA,$GPGSV,5,1,16,01,08,174,30,03,46,127,41,04,48,044,37,06,37,281,35*71,1759655742000
NMEA,$GPGSV,5,2,16,07,51,225,38,09,56,331,46,11,13,316,28,16,26,077,47*71,1759655742000
NMEA,$GPGSV,5,3,16,30,19,225,29*4D,1759655742000
NMEA,$GPGSV,5,4,16,01,08,174,25,03,46,127,33,04,48,044,36,06,37,281,28,8*6C,1759655742000
NMEA,$GPGSV,5,5,16,09,56,331,38,30,19,225,27,8*61,1759655742000
NMEA,$GLGSV,2,1,08,67,08,092,25,68,42,053,37,69,41,339,48,78,43,053,36*65,1759655742000
NMEA,$GLGSV,2,2,08,79,52,141,41,80,11,183,30,83,13,215,29,84,28,270,29*68,1759655742000
NMEA,$GAGSV,5,1,19,107,22,064,29,110,09,324,19,112,26,309,30,119,40,290,27*63,1759655742000
NMEA,$GAGSV,5,2,19,121,16,159,28,126,24,184,26,127,30,104,33,129,60,008,42*6F,1759655742000
NMEA,$GAGSV,5,3,19,130,14,053,32,133,50,242,46*64,1759655742000
NMEA,$GAGSV,5,4,19,107,22,064,25,119,40,290,18,126,24,184,22,127,30,104,30,1*7F,1759655742000
NMEA,$GAGSV,5,5,19,129,60,008,31,130,14,053,16,133,50,242,32,1*7C,1759655742000
NMEA,$BDGSV,4,1,15,205,50,133,35,209,44,044,42,213,09,134,35,214,09,302,21*64,1759655742000
NMEA,$BDGSV,4,2,15,216,20,041,28,221,64,027,41,222,29,095,37,226,46,180,30*6E,1759655742000
NMEA,$BDGSV,4,3,15,234,12,238,43,236,13,040,37*66,1759655742000
NMEA,$BDGSV,4,4,15,221,64,027,38,222,29,095,28,226,46,180,21,236,13,040,27,5*7D,1759655742000
NMEA,$GPGSA,A,3,07,16,,,,,,,,,,,1.0,0.4,0.8*3F,1759655742000
NMEA,$GNGSA,A,3,68,69,78,79,,,,,,,,,1.0,0.4,0.8*21,1759655742000
NMEA,$GAGSA,A,3,112,119,129,130,133,,,,,,,,1.0,0.4,0.8*1C,1759655742000
NMEA,$BDGSA,A,3,209,214,226,234,236,,,,,,,,1.0,0.4,0.8*16,1759655742000
NMEA,$PSSGR,GSA,A,3,01,03,04,06,09,,,,,,,,1.0,0.4,0.8,1,8*41,1759655742000
NMEA,$PSSGR,GSA,A,3,126,,,,,,,,,,,,1.0,0.4,0.8,3,1*76,1759655742000
NMEA,$PSSGR,GSA,A,3,221,,,,,,,,,,,,1.0,0.4,0.8,4,5*71,1759655742000
NMEA,$GPRMC,091542.000,A,3205.0221,N,03448.1574,E,1.5,0.9,051025,,,A*62,1759655742000
NMEA,$PSAMCLK,2387,3336000,23,26962,4916,33360000*47,1759655742000
NMEA,$GPGGA,091543.000,3205.0225,N,03448.1565,E,1,22,0.4,8.6,M,17.1,M,,*56,1759655743000
NMEA,$PSAMSA,091543.000,3205.0225,N,03448.1565,E,0,M,,*6E,1759655743000
NMEA,$GPGLL,3205.0225,N,03448.1565,E,091543.000,A,A*5E,1759655743000
NMEA,$GPVTG,349.5,T,,M,1.2,N,2.2,K,A*05,1759655743000
