NMEA,$GPGGA,083153.000,3205.0179,N,03448.1556,E,1,17,0.6,32.7,M,17.1,M,,*66,1759653113000
NMEA,$PSAMSA,083153.000,3205.0179,N,03448.1556,E,0,M,,*62,1759653113000
NMEA,$GPGLL,3205.0179,N,03448.1556,E,083153.000,A,A*52,1759653113000
NMEA,$GPVTG,311.6,T,,M,0.2,N,0.4,K,A*0E,1759653113000
NMEA,$GPGSV,4,1,15,01,27,178,36,03,61,097,28,04,58,015,44,06,31,305,37*7C,1759653113000
NMEA,$GPGSV,4,2,15,07,32,212,35,09,48,300,34,16,21,099,27,26,16,060,32*7E,1759653113000
NMEA,$GPGSV,4,3,15,31,10,040,29*46,1759653113000
NMEA,$GPGSV,4,4,15,01,27,178,21,04,58,015,41,06,31,305,33,8*5A,1759653113000
NMEA,$GLGSV,2,1,08,67,19,071,31,68,45,020,37,69,31,314,34,77,13,031,20*64,1759653113000
NMEA,$GLGSV,2,2,08,78,46,088,45,79,29,155,38,83,32,229,44,84,33,297,28*67,1759653113000
NMEA,$GAGSV,4,1,13,107,32,051,33,119,32,271,25,126,41,186,31,127,19,119,44*6F,1759653113000
NMEA,$GAGSV,4,2,13,129,64,335,33,130,14,068,21,133,58,271,41*66,1759653113000
NMEA,$GAGSV,4,3,13,107,32,051,27,126,41,186,29,127,19,119,39,129,64,335,32,1*71,1759653113000
NMEA,$GAGSV,4,4,13,133,58,271,31,1*7D,1759653113000
NMEA,$BDGSV,5,1,14,206,33,044,29,209,48,050,34,213,13,124,28,216,25,041,29*60,1759653113000
NMEA,$BDGSV,5,2,14,221,58,350,47,222,38,075,43,226,27,182,28,234,22,254,33*6B,1759653113000
NMEA,$BDGSV,5,3,14,236,25,051,37*6B,1759653113000
NMEA,$BDGSV,5,4,14,221,58,350,39,222,38,075,38,226,27,182,22,234,22,254,26,5*7F,1759653113000
NMEA,$BDGSV,5,5,14,236,25,051,29,5*7B,1759653113000
NMEA,$GIGSV,1,1,02,02,19,197,28,09,76,110,25,1*7F,1759653113000
NMEA,$GPGSA,A,3,01,03,09,26,,,,,,,,,1.6,0.6,1.4*39,1759653113000
NMEA,$GNGSA,A,3,68,78,83,,,,,,,,,,1.6,0.6,1.4*22,1759653113000
NMEA,$GAGSA,A,3,107,119,127,133,,,,,,,,,1.6,0.6,1.4*2D,1759653113000
NMEA,$BDGSA,A,3,209,,,,,,,,,,,,1.6,0.6,1.4*1C,1759653113000
NMEA,$PSSGR,GSA,A,3,04,06,,,,,,,,,,,1.6,0.6,1.4,1,8*43,1759653113000
NMEA,$PSSGR,GSA,A,3,126,129,,,,,,,,,,,1.6,0.6,1.4,3,1*45,1759653113000
NMEA,$PSSGR,GSA,A,3,222,,,,,,,,,,,,1.6,0.6,1.4,4,5*7B,1759653113000
NMEA,$GPRMC,083153.000,A,3205.0179,N,03448.1556,E,0.2,311.6,051025,,,A*61,1759653113000
NMEA,$GPGGA,083154.000,3205.0179,N,03448.1559,E,1,24,0.4,32.6,M,17.1,M,,*6D,1759653114000
NMEA,$PSAMSA,083154.000,3205.0179,N,03448.1559,E,0,M,,*6A,1759653114000
NMEA,$GPGLL,3205.0179,N,03448.1559,E,083154.000,A,A*5A,1759653114000
NMEA,$GPVTG,311.6,T,,M,0.1,N,0.2,K,A*0B,1759653114000
NMEA,$GPGSV,4,1,14,01,27,178,36,03,61,097,27,04,58,015,44,06,31,305,36*73,1759653114000
NMEA,$GPGSV,4,2,14,07,32,212,34,09,48,300,34,16,21,099,28,26,16,060,32*71,1759653114000
NMEA,$GPGSV,4,3,14,31,10,040,29*47,1759653114000
NMEA,$GPGSV,4,4,14,01,27,178,21,03,61,097,25,04,58,015,40,06,31,305,33,8*67,1759653114000
NMEA,$GLGSV,2,1,08,67,19,071,31,68,45,020,36,69,31,314,34,77,13,031,19*6F,1759653114000
NMEA,$GLGSV,2,2,08,78,46,088,45,79,29,155,37,83,32,229,44,84,33,297,28*68,1759653114000
NMEA,$GAGSV,4,1,13,107,32,051,33,119,32,271,27,126,41,186,31,127,19,119,44*6D,1759653114000
NMEA,$GAGSV,4,2,13,129,64,335,32,130,14,068,22,133,58,271,41*64,1759653114000
NMEA,$GAGSV,4,3,13,107,32,051,27,119,32,271,26,126,41,186,29,127,19,119,39,1*75,1759653114000
NMEA,$GAGSV,4,4,13,129,64,335,31,133,58,271,31,1*72,1759653114000
NMEA,$BDGSV,5,1,14,206,33,044,29,209,48,050,34,213,13,124,28,216,25,041,30*68,1759653114000
NMEA,$BDGSV,5,2,14,221,58,350,47,222,38,075,42,226,27,182,26,234,22,254,34*63,1759653114000
NMEA,$BDGSV,5,3,14,236,25,051,36*6A,1759653114000
NMEA,$BDGSV,5,4,14,221,58,350,38,222,38,075,38,226,27,182,22,234,22,254,27,5*7F,1759653114000
NMEA,$BDGSV,5,5,14,236,25,051,30,5*73,1759653114000
NMEA,$GIGSV,1,1,02,02,19,197,29,09,76,110,25,1*7E,1759653114000
NMEA,$GPGSA,A,3,01,09,16,26,31,,,,,,,,1.2,0.4,1.0*3D,1759653114000
NMEA,$GNGSA,A,3,68,69,78,79,83,,,,,,,,1.2,0.4,1.0*21,1759653114000
NMEA,$GAGSA,A,3,107,130,133,,,,,,,,,,1.2,0.4,1.0*10,1759653114000
NMEA,$BDGSA,A,3,206,209,222,,,,,,,,,,1.2,0.4,1.0*18,1759653114000
NMEA,$PSSGR,GSA,A,3,03,04,06,,,,,,,,,,1.2,0.4,1.0,1,8*42,1759653114000
NMEA,$PSSGR,GSA,A,3,119,126,127,129,,,,,,,,,1.2,0.4,1.0,3,1*4A,1759653114000
NMEA,$PSSGR,GSA,A,3,236,,,,,,,,,,,,1.2,0.4,1.0,4,5*7C,1759653114000
NMEA,$GPRMC,083154.000,A,3205.0179,N,03448.1559,E,0.1,311.6,051025,,,A*6A,1759653114000
NMEA,$GPGGA,083155.000,3205.0180,N,03448.1560,E,1,15,0.8,32.9,M,17.1,M,,*61,1759653115000
NMEA,$PSAMSA,083155.000,3205.0180,N,03448.1560,E,0,M,,*67,1759653115000
NMEA,$GPGLL,3205.0180,N,03448.1560,E,083155.000,A,A*57,1759653115000
NMEA,$GPVTG,311.6,T,,M,0.4,N,0.7,K,A*0B,1759653115000
NMEA,$GPGSV,4,1,15,01,27,178,36,03,61,097,26,04,58,015,44,06,31,305,36*73,1759653115000
NMEA,$GPGSV,4,2,15,07,32,212,34,09,48,300,35,16,21,099,32,26,16,060,34*7C,1759653115000
NMEA,$GPGSV,4,3,15,31,10,040,29*46,1759653115000
NMEA,$GPGSV,4,4,15,01,27,178,21,03,61,097,24,04,58,015,40,06,31,305,33,8*67,1759653115000
NMEA,$GLGSV,2,1,08,67,19,071,30,68,45,020,40,69,31,314,32,77,13,031,19*69,1759653115000
NMEA,$GLGSV,2,2,08,78,46,088,45,79,29,155,37,83,32,229,44,84,33,297,28*68,1759653115000
NMEA,$GAGSV,4,1,13,107,32,051,34,119,32,271,27,126,41,186,31,127,19,119,43*6D,1759653115000
NMEA,$GAGSV,4,2,13,129,64,335,31,130,14,068,22,133,58,271,42*64,1759653115000
NMEA,$GAGSV,4,3,13,107,32,051,27,119,32,271,25,126,41,186,31,127,19,119,40,1*71,1759653115000
NMEA,$GAGSV,4,4,13,129,64,335,30,133,58,271,30,1*72,1759653115000
NMEA,$BDGSV,5,1,14,206,33,044,28,209,48,050,34,213,13,124,26,216,25,041,30*67,1759653115000
NMEA,$BDGSV,5,2,14,221,58,350,47,222,38,075,42,226,27,182,26,234,22,254,34*63,1759653115000
NMEA,$BDGSV,5,3,14,236,25,051,35*69,1759653115000
NMEA,$BDGSV,5,4,14,221,58,350,38,222,38,075,37,226,27,182,22,234,22,254,27,5*70,1759653115000
NMEA,$BDGSV,5,5,14,236,25,051,30,5*73,1759653115000
NMEA,$GIGSV,1,1,02,02,19,197,29,09,76,110,25,1*7E,1759653115000
NMEA,$GPGSA,A,3,01,09,26,,,,,,,,,,1.6,0.8,1.4*34,1759653115000
NMEA,$GNGSA,A,3,68,78,83,,,,,,,,,,1.6,0.8,1.4*2C,1759653115000
NMEA,$GAGSA,A,3,,,,,,,,,,,,,1.6,0.8,1.4*29,1759653115000
NMEA,$BDGSA,A,3,209,221,222,,,,,,,,,,1.6,0.8,1.4*11,1759653115000
NMEA,$PSSGR,GSA,A,3,03,04,06,,,,,,,,,,1.6,0.8,1.4,1,8*4E,1759653115000
NMEA,$PSSGR,GSA,A,3,119,127,129,,,,,,,,,,1.6,0.8,1.4,3,1*73,1759653115000
NMEA,$GPRMC,083155.000,A,3205.0180,N,03448.1560,E,0.4,311.6,051025,,,A*62,1759653115000
NMEA,$GPGGA,083156.000,3205.0180,N,03448.1561,E,1,14,0.8,33.1,M,17.1,M,,*6B,1759653116000
NMEA,$PSAMSA,083156.000,3205.0180,N,03448.1561,E,0,M,,*65,1759653116000
NMEA,$GPGLL,3205.0180,N,03448.1561,E,083156.000,A,A*55,1759653116000
NMEA,$GPVTG,311.6,T,,M,0.3,N,0.6,K,A*0D,1759653116000
NMEA,$GPGSV,5,1,15,01,27,178,35,03,61,097,25,04,58,015,43,06,31,305,35*76,1759653116000
NMEA,$GPGSV,5,2,15,07,33,212,34,09,48,300,35,16,21,099,32,26,16,060,37*7F,1759653116000
NMEA,$GPGSV,5,3,15,31,10,040,29*47,1759653116000
NMEA,$GPGSV,5,4,15,01,27,178,21,03,61,097,24,04,58,015,44,06,31,305,33,8*62,1759653116000
NMEA,$GPGSV,5,5,15,26,16,060,24,8*5A,1759653116000
NMEA,$GLGSV,2,1,08,67,18,071,30,68,45,020,44,69,31,314,34,77,13,030,19*6B,1759653116000
NMEA,$GLGSV,2,2,08,78,46,087,45,79,29,155,37,83,32,229,44,84,33,297,28*67,1759653116000
NMEA,$GAGSV,4,1,13,107,32,051,34,119,32,271,28,126,41,186,31,127,19,119,43*62,1759653116000
NMEA,$GAGSV,4,2,13,129,64,335,31,130,14,068,22,133,58,271,42*64,1759653116000
NMEA,$GAGSV,4,3,13,107,32,051,27,119,32,271,25,126,41,186,30,127,19,119,40,1*70,1759653116000
NMEA,$GAGSV,4,4,13,129,64,335,30,133,58,271,32,1*70,1759653116000
NMEA,$BDGSV,5,1,14,206,33,044,28,209,48,050,34,213,13,124,26,216,25,041,30*67,1759653116000
NMEA,$BDGSV,5,2,14,221,58,350,47,222,38,075,42,226,27,182,32,234,22,254,35*67,1759653116000
NMEA,$BDGSV,5,3,14,236,25,051,34*68,1759653116000
NMEA,$BDGSV,5,4,14,221,58,350,38,222,38,075,36,226,27,182,21,234,22,254,27,5*72,1759653116000
NMEA,$BDGSV,5,5,14,236,25,051,30,5*73,1759653116000
NMEA,$GIGSV,1,1,02,02,19,197,29,09,76,110,25,1*7E,1759653116000
NMEA,$GPGSA,A,3,09,,,,,,,,,,,,2.0,0.8,1.8*38,1759653116000
NMEA,$GNGSA,A,3,68,78,83,,,,,,,,,,2.0,0.8,1.8*25,1759653116000
NMEA,$GAGSA,A,3,107,,,,,,,,,,,,2.0,0.8,1.8*16,1759653116000
NMEA,$BDGSA,A,3,221,222,226,,,,,,,,,,2.0,0.8,1.8*15,1759653116000
NMEA,$PSSGR,GSA,A,3,03,04,06,,,,,,,,,,2.0,0.8,1.8,1,8*47,1759653116000
NMEA,$PSSGR,GSA,A,3,119,127,129,,,,,,,,,,2.0,0.8,1.8,3,1*7A,1759653116000
NMEA,$GPRMC,083156.000,A,3205.0180,N,03448.1561,E,0.3,311.6,051025,,,A*67,1759653116000
NMEA,$GPGGA,083157.000,3205.0179,N,03448.1564,E,1,14,0.8,33.1,M,17.1,M,,*69,1759653117000
NMEA,$PSAMSA,083157.000,3205.0179,N,03448.1564,E,0,M,,*67,1759653117000
NMEA,$GPGLL,3205.0179,N,03448.1564,E,083157.000,A,A*57,1759653117000
NMEA,$GPVTG,78.3,T,,M,1.6,N,3.0,K,A*35,1759653117000
NMEA,$GPGSV,5,1,15,01,27,178,35,03,61,097,26,04,58,015,43,06,31,305,36*76,1759653117000
NMEA,$GPGSV,5,2,15,07,33,212,34,09,48,300,35,16,21,099,31,26,16,060,36*7D,1759653117000
NMEA,$GPGSV,5,3,15,31,10,040,29*47,1759653117000
NMEA,$GPGSV,5,4,15,01,27,178,21,03,61,097,25,04,58,015,44,06,31,305,33,8*63,1759653117000
NMEA,$GPGSV,5,5,15,09,48,300,25,26,16,060,24,8*6B,1759653117000
NMEA,$GLGSV,2,1,08,67,18,071,29,68,45,020,44,69,31,314,39,77,13,030,19*6E,1759653117000
NMEA,$GLGSV,2,2,08,78,46,087,45,79,29,155,37,83,32,229,44,84,33,297,28*67,1759653117000
NMEA,$GAGSV,4,1,13,107,32,051,34,119,32,271,29,126,41,186,31,127,19,119,42*62,1759653117000
NMEA,$GAGSV,4,2,13,129,64,335,30,130,14,068,22,133,58,271,42*65,1759653117000
NMEA,$GAGSV,4,3,13,107,32,051,26,119,32,271,25,126,41,186,30,127,19,119,40,1*71,1759653117000
NMEA,$GAGSV,4,4,13,129,64,335,30,133,58,271,33,1*71,1759653117000
NMEA,$BDGSV,5,1,14,206,33,044,28,209,48,050,34,213,13,124,26,216,25,041,30*67,1759653117000
NMEA,$BDGSV,5,2,14,221,58,350,47,222,38,075,43,226,27,182,32,234,22,254,35*66,1759653117000
NMEA,$BDGSV,5,3,14,236,25,051,34*68,1759653117000
NMEA,$BDGSV,5,4,14,221,58,350,38,222,38,075,36,226,27,182,21,234,22,254,27,5*72,1759653117000
NMEA,$BDGSV,5,5,14,236,25,051,30,5*73,1759653117000
NMEA,$GIGSV,1,1,02,02,19,197,29,09,76,110,25,1*7E,1759653117000
NMEA,$GPGSA,A,3,07,,,,,,,,,,,,2.0,0.8,1.8*36,1759653117000
NMEA,$GNGSA,A,3,68,78,83,,,,,,,,,,2.0,0.8,1.8*25,1759653117000
NMEA,$GAGSA,A,3,,,,,,,,,,,,,2.0,0.8,1.8*20,1759653117000
NMEA,$BDGSA,A,3,206,221,222,,,,,,,,,,2.0,0.8,1.8*17,1759653117000
NMEA,$PSSGR,GSA,A,3,03,04,06,09,,,,,,,,,2.0,0.8,1.8,1,8*4E,1759653117000
NMEA,$PSSGR,GSA,A,3,119,127,129,,,,,,,,,,2.0,0.8,1.8,3,1*7A,1759653117000
NMEA,$GPRMC,083157.000,A,3205.0179,N,03448.1564,E,1.6,78.3,051025,,,A*58,1759653117000
NMEA,$GPGGA,083158.000,3205.0177,N,03448.1569,E,1,19,0.6,33.3,M,17.1,M,,*64,1759653118000
NMEA,$PSAMSA,083158.000,3205.0177,N,03448.1569,E,0,M,,*6B,1759653118000
NMEA,$GPGLL,3205.0177,N,03448.1569,E,083158.000,A,A*5B,1759653118000
NMEA,$GPVTG,91.0,T,,M,1.9,N,3.5,K,A*3B,1759653118000
NMEA,$GPGSV,5,1,15,01,27,178,35,03,61,097,33,04,58,015,43,06,31,305,36*72,1759653118000
NMEA,$GPGSV,5,2,15,07,33,212,34,09,48,300,35,16,21,099,31,26,16,060,36*7D,1759653118000
NMEA,$GPGSV,5,3,15,31,10,040,29*47,1759653118000
NMEA,$GPGSV,5,4,15,01,27,178,21,03,61,097,25,04,58,015,43,06,31,305,32,8*65,1759653118000
NMEA,$GPGSV,5,5,15,09,48,300,25,26,16,060,24,8*6B,1759653118000
NMEA,$GLGSV,2,1,08,67,18,071,29,68,45,020,43,69,31,314,43,77,13,030,19*64,1759653118000
NMEA,$GLGSV,2,2,08,78,46,087,44,79,29,155,36,83,32,229,43,84,33,297,27*6F,1759653118000
NMEA,$GAGSV,4,1,13,107,32,051,34,119,32,271,29,126,41,186,31,127,19,119,42*62,1759653118000
NMEA,$GAGSV,4,2,13,129,64,335,33,130,14,068,22,133,58,271,42*66,1759653118000
NMEA,$GAGSV,4,3,13,107,32,051,26,119,32,271,25,126,41,186,30,127,19,119,40,1*71,1759653118000
NMEA,$GAGSV,4,4,13,129,64,335,30,133,58,271,32,1*70,1759653118000
NMEA,$BDGSV,5,1,14,206,33,044,28,209,48,050,34,213,13,124,26,216,25,041,30*67,1759653118000
NMEA,$BDGSV,5,2,14,221,58,350,47,222,38,075,44,226,27,182,32,234,22,254,35*61,1759653118000
NMEA,$BDGSV,5,3,14,236,25,051,34*68,1759653118000
NMEA,$BDGSV,5,4,14,221,58,350,38,222,38,075,35,226,27,182,21,234,22,254,27,5*71,1759653118000
NMEA,$BDGSV,5,5,14,236,25,051,29,5*7B,1759653118000
NMEA,$GIGSV,1,1,02,02,19,197,29,09,76,110,25,1*7E,1759653118000
NMEA,$GPGSA,A,3,07,09,,,,,,,,,,,1.4,0.6,1.2*3C,1759653118000
NMEA,$GNGSA,A,3,68,78,83,84,,,,,,,,,1.4,0.6,1.2*2A,1759653118000
NMEA,$GAGSA,A,3,107,,,,,,,,,,,,1.4,0.6,1.2*15,1759653118000
NMEA,$BDGSA,A,3,209,221,222,236,,,,,,,,,1.4,0.6,1.2*2C,1759653118000
NMEA,$PSSGR,GSA,A,3,03,04,06,26,,,,,,,,,1.4,0.6,1.2,1,8*40,1759653118000
NMEA,$PSSGR,GSA,A,3,119,126,127,129,,,,,,,,,1.4,0.6,1.2,3,1*4C,1759653118000
NMEA,$GPRMC,083158.000,A,3205.0177,N,03448.1569,E,1.9,91.0,051025,,,A*5F,1759653118000
NMEA,$GPGGA,083159.000,3205.0174,N,03448.1578,E,1,25,0.4,33.7,M,17.1,M,,*6F,1759653119000
NMEA,$PSAMSA,083159.000,3205.0174,N,03448.1578,E,0,M,,*69,1759653119000
NMEA,$GPGLL,3205.0174,N,03448.1578,E,083159.000,A,A*59,1759653119000
NMEA,$GPVTG,93.2,T,,M,2.0,N,3.8,K,A*3C,1759653119000
NMEA,$GPGSV,5,1,14,01,27,178,35,03,61,097,33,04,58,015,44,06,31,305,41*74,1759653119000
NMEA,$GPGSV,5,2,14,07,33,212,34,09,48,300,35,16,21,099,31,26,16,060,36*7C,1759653119000
NMEA,$GPGSV,5,3,14,31,10,040,29*46,1759653119000
NMEA,$GPGSV,5,4,14,01,27,178,21,03,61,097,28,04,58,015,43,06,31,305,32,8*69,1759653119000
NMEA,$GPGSV,5,5,14,09,48,300,24,8*58,1759653119000
NMEA,$GLGSV,2,1,08,67,18,071,29,68,45,020,43,69,31,314,43,77,13,030,19*64,1759653119000
NMEA,$GLGSV,2,2,08,78,46,087,44,79,29,155,36,83,32,229,42,84,33,297,27*6E,1759653119000
NMEA,$GAGSV,4,1,14,107,32,051,34,112,17,320,17,119,32,271,29,126,41,186,31*65,1759653119000
NMEA,$GAGSV,4,2,14,127,19,119,42,129,64,335,34,130,14,068,22,133,58,271,43*64,1759653119000
NMEA,$GAGSV,4,3,14,107,32,051,26,119,32,271,25,126,41,186,29,127,19,119,39,1*70,1759653119000
NMEA,$GAGSV,4,4,14,129,64,335,32,133,58,271,32,1*75,1759653119000
NMEA,$BDGSV,5,1,14,206,33,044,28,209,48,050,34,213,13,124,27,216,25,041,30*66,1759653119000
NMEA,$BDGSV,5,2,14,221,58,350,47,222,38,075,45,226,27,182,32,234,22,254,35*60,1759653119000
NMEA,$BDGSV,5,3,14,236,25,051,34*68,1759653119000
NMEA,$BDGSV,5,4,14,221,58,350,39,222,38,075,35,226,27,182,20,234,22,254,27,5*71,1759653119000
NMEA,$BDGSV,5,5,14,236,25,051,29,5*7B,1759653119000
NMEA,$GIGSV,1,1,02,02,19,197,29,09,76,110,25,1*7E,1759653119000
NMEA,$GPGSA,A,3,01,07,09,26,,,,,,,,,1.2,0.4,1.0*3F,1759653119000
NMEA,$GNGSA,A,3,67,68,77,78,79,83,84,,,,,,1.2,0.4,1.0*23,1759653119000
NMEA,$GAGSA,A,3,107,127,,,,,,,,,,,1.2,0.4,1.0*27,1759653119000
NMEA,$BDGSA,A,3,206,209,221,222,226,,,,,,,,1.2,0.4,1.0*1F,1759653119000
NMEA,$PSSGR,GSA,A,3,03,04,06,,,,,,,,,,1.2,0.4,1.0,1,8*42,1759653119000
NMEA,$PSSGR,GSA,A,3,119,126,129,,,,,,,,,,1.2,0.4,1.0,3,1*7E,1759653119000
NMEA,$PSSGR,GSA,A,3,236,,,,,,,,,,,,1.2,0.4,1.0,4,5*7C,1759653119000
NMEA,$GPRMC,083159.000,A,3205.0174,N,03448.1578,E,2.0,93.2,051025,,,A*57,1759653119000
NMEA,$GPGGA,083200.000,3205.0173,N,03448.1582,E,1,24,0.4,34.0,M,17.1,M,,*63,1759653120000
NMEA,$PSAMSA,083200.000,3205.0173,N,03448.1582,E,0,M,,*64,1759653120000
NMEA,$GPGLL,3205.0173,N,03448.1582,E,083200.000,A,A*54,1759653120000
NMEA,$GPVTG,103.1,T,,M,1.8,N,3.4,K,A*00,1759653120000
NMEA,$GPGSV,5,1,15,01,27,178,35,03,61,097,33,04,58,015,44,06,31,305,42*76,1759653120000
NMEA,$GPGSV,5,2,15,07,33,212,34,09,48,300,35,16,21,099,30,26,16,060,35*7F,1759653120000
NMEA,$GPGSV,5,3,15,31,10,040,29*47,1759653120000
NMEA,$GPGSV,5,4,15,01,27,178,21,03,61,097,28,04,58,015,43,06,31,305,32,8*68,1759653120000
NMEA,$GPGSV,5,5,15,09,48,300,24,8*59,1759653120000
NMEA,$GLGSV,2,1,08,67,18,071,31,68,45,020,43,69,31,314,43,77,13,030,19*6D,1759653120000
NMEA,$GLGSV,2,2,08,78,46,087,44,79,29,155,36,83,32,229,41,84,33,297,27*6D,1759653120000
NMEA,$GAGSV,4,1,15,107,32,051,34,112,17,320,17,119,32,271,29,126,41,186,32*67,1759653120000
NMEA,$GAGSV,4,2,15,127,19,119,42,129,64,335,34,130,14,068,22,133,58,271,43*65,1759653120000
NMEA,$GAGSV,4,3,15,107,32,051,26,119,32,271,25,126,41,186,29,127,19,119,39,1*71,1759653120000
NMEA,$GAGSV,4,4,15,129,64,335,32,130,14,068,19,133,58,271,32,1*75,1759653120000
NMEA,$BDGSV,5,1,14,206,33,044,28,209,48,050,34,213,13,124,27,216,25,041,30*66,1759653120000
NMEA,$BDGSV,5,2,14,221,58,350,48,222,38,075,45,226,27,182,32,234,22,254,34*6E,1759653120000
NMEA,$BDGSV,5,3,14,236,25,051,34*68,1759653120000
NMEA,$BDGSV,5,4,14,221,58,350,39,222,38,075,35,226,27,182,20,234,22,254,28,5*7E,1759653120000
NMEA,$BDGSV,5,5,14,236,25,051,29,5*7B,1759653120000
NMEA,$GIGSV,1,1,02,02,19,197,28,09,76,110,25,1*7F,1759653120000
NMEA,$GPGSA,A,3,01,07,26,,,,,,,,,,1.2,0.4,1.0*36,1759653120000
NMEA,$GNGSA,A,3,67,68,78,79,83,84,,,,,,,1.2,0.4,1.0*23,1759653120000
NMEA,$GAGSA,A,3,107,119,130,133,,,,,,,,,1.2,0.4,1.0*29,1759653120000
NMEA,$BDGSA,A,3,209,221,222,226,,,,,,,,,1.2,0.4,1.0*2B,1759653120000
NMEA,$PSSGR,GSA,A,3,03,04,06,09,,,,,,,,,1.2,0.4,1.0,1,8*4B,1759653120000
NMEA,$PSSGR,GSA,A,3,126,127,129,,,,,,,,,,1.2,0.4,1.0,3,1*73,1759653120000
NMEA,$GPRMC,083200.000,A,3205.0173,N,03448.1582,E,1.8,103.1,051025,,,A*6A,1759653120000
NMEA,$GPGGA,083201.000,3205.0172,N,03448.1589,E,1,24,0.4,33.9,M,17.1,M,,*66,1759653121000
NMEA,$PSAMSA,083201.000,3205.0172,N,03448.1589,E,0,M,,*6F,1759653121000
NMEA,$GPGLL,3205.0172,N,03448.1589,E,083201.000,A,A*5F,1759653121000
NMEA,$GPVTG,103.1,T,,M,2.2,N,4.0,K,A*0A,1759653121000
NMEA,$GPGSV,5,1,15,01,27,178,35,03,61,097,33,04,58,015,44,06,31,305,41*75,1759653121000
NMEA,$GPGSV,5,2,15,07,33,212,35,09,48,300,35,16,21,099,30,26,16,060,35*7E,1759653121000
NMEA,$GPGSV,5,3,15*7B,1759653121000
NMEA,$GPGSV,5,4,15,01,27,178,21,03,61,097,28,04,58,015,42,06,31,305,32,8*69,1759653121000
NMEA,$GPGSV,5,5,15,09,48,300,24,8*59,1759653121000
NMEA,$GLGSV,2,1,08,67,18,071,31,68,45,020,42,69,31,314,43,77,13,030,19*6C,1759653121000
NMEA,$GLGSV,2,2,08,78,46,087,44,79,29,155,36,83,32,229,41,84,33,297,27*6D,1759653121000
NMEA,$GAGSV,4,1,15,107,32,051,34,112,17,320,17,119,32,271,30,126,41,186,32*6F,1759653121000
NMEA,$GAGSV,4,2,15,127,19,119,43,129,64,335,35,130,14,068,22,133,58,271,43*65,1759653121000
NMEA,$GAGSV,4,3,15,107,32,051,28,119,32,271,25,126,41,186,29,127,19,119,39,1*7F,1759653121000
NMEA,$GAGSV,4,4,15,129,64,335,33,130,14,068,19,133,58,271,33,1*75,1759653121000
NMEA,$BDGSV,5,1,14,206,33,044,28,209,48,050,34,213,13,124,28,216,25,041,30*69,1759653121000
NMEA,$BDGSV,5,2,14,221,58,350,48,222,38,075,45,226,27,182,32,234,22,254,34*6E,1759653121000
NMEA,$BDGSV,5,3,14,236,25,051,35*69,1759653121000
NMEA,$BDGSV,5,4,14,221,58,350,39,222,38,075,35,226,27,182,20,234,22,254,28,5*7E,1759653121000
NMEA,$BDGSV,5,5,14,236,25,051,29,5*7B,1759653121000
NMEA,$GIGSV,1,1,02,02,19,197,28,09,76,110,25,1*7F,1759653121000
NMEA,$GPGSA,A,3,01,07,26,,,,,,,,,,1.2,0.4,1.0*36,1759653121000
NMEA,$GNGSA,A,3,68,78,79,83,,,,,,,,,1.2,0.4,1.0*2E,1759653121000
NMEA,$GAGSA,A,3,107,119,126,127,130,133,,,,,,,1.2,0.4,1.0*28,1759653121000
NMEA,$BDGSA,A,3,206,209,221,222,226,234,,,,,,,1.2,0.4,1.0*2A,1759653121000
NMEA,$PSSGR,GSA,A,3,03,04,06,09,,,,,,,,,1.2,0.4,1.0,1,8*4B,1759653121000
NMEA,$PSSGR,GSA,A,3,129,,,,,,,,,,,,1.2,0.4,1.0,3,1*72,1759653121000
NMEA,$GPRMC,083201.000,A,3205.0172,N,03448.1589,E,2.2,103.1,051025,,,A*68,1759653121000
NMEA,$GPGGA,083202.000,3205.0170,N,03448.1594,E,1,21,0.6,33.9,M,17.1,M,,*6C,1759653122000
NMEA,$PSAMSA,083202.000,3205.0170,N,03448.1594,E,0,M,,*62,1759653122000
NMEA,$GPGLL,3205.0170,N,03448.1594,E,083202.000,A,A*52,1759653122000
NMEA,$GPVTG,108.7,T,,M,1.7,N,3.1,K,A*07,1759653122000
NMEA,$GPGSV,5,1,15,01,27,178,35,03,61,097,33,04,58,015,44,06,31,305,41*75,1759653122000
NMEA,$GPGSV,5,2,15,07,33,212,35,09,48,300,35,16,21,099,30,26,16,060,34*7F,1759653122000
NMEA,$GPGSV,5,3,15,31,10,040,28*46,1759653122000
NMEA,$GPGSV,5,4,15,01,27,178,21,03,61,097,27,04,58,015,42,06,31,305,32,8*66,1759653122000
NMEA,$GPGSV,5,5,15,09,48,300,25,8*58,1759653122000
NMEA,$GLGSV,2,1,08,67,18,071,31,68,45,020,42,69,31,314,43,77,13,030,19*6C,1759653122000
NMEA,$GLGSV,2,2,08,78,46,087,45,79,29,155,36,83,32,229,40,84,33,297,27*6D,1759653122000
NMEA,$GAGSV,4,1,15,107,32,051,34,112,17,320,17,119,32,271,30,126,41,186,32*6F,1759653122000
NMEA,$GAGSV,4,2,15,127,19,119,43,129,64,335,37,130,14,068,22,133,58,271,43*67,1759653122000
NMEA,$GAGSV,4,3,15,107,32,051,28,119,32,271,25,126,41,186,28,127,19,119,38,1*7F,1759653122000
NMEA,$GAGSV,4,4,15,129,64,335,34,130,14,068,19,133,58,271,33,1*72,1759653122000
NMEA,$BDGSV,5,1,14,206,33,044,29,209,48,050,34,213,13,124,28,216,25,041,30*68,1759653122000
NMEA,$BDGSV,5,2,14,221,58,350,48,222,38,075,45,226,27,182,32,234,22,254,34*6E,1759653122000
NMEA,$BDGSV,5,3,14,236,25,051,35*69,1759653122000
NMEA,$BDGSV,5,4,14,221,58,350,38,222,38,075,35,226,27,182,20,234,22,254,28,5*7F,1759653122000
NMEA,$BDGSV,5,5,14,236,25,051,29,5*7B,1759653122000
NMEA,$GIGSV,1,1,02,02,19,197,28,09,76,110,25,1*7F,1759653122000
NMEA,$GPGSA,A,3,07,26,,,,,,,,,,,1.2,0.6,1.2*37,1759653122000
NMEA,$GNGSA,A,3,67,68,78,79,83,,,,,,,,1.2,0.6,1.2*2F,1759653122000
NMEA,$GAGSA,A,3,126,127,130,,,,,,,,,,1.2,0.6,1.2*16,1759653122000
NMEA,$BDGSA,A,3,206,209,216,221,222,,,,,,,,1.2,0.6,1.2*1C,1759653122000
NMEA,$PSSGR,GSA,A,3,03,04,06,09,,,,,,,,,1.2,0.6,1.2,1,8*4B,1759653122000
NMEA,$PSSGR,GSA,A,3,119,129,,,,,,,,,,,1.2,0.6,1.2,3,1*4B,1759653122000
NMEA,$GPRMC,083202.000,A,3205.0170,N,03448.1594,E,1.7,108.7,051025,,,A*6E,1759653122000
NMEA,$GPGGA,083203.000,3205.0165,N,03448.1596,E,1,23,0.6,34.5,M,17.1,M,,*62,1759653123000
NMEA,$PSAMSA,083203.000,3205.0165,N,03448.1596,E,0,M,,*65,1759653123000
NMEA,$GPGLL,3205.0165,N,03448.1596,E,083203.000,A,A*55,1759653123000
NMEA,$GPVTG,114.5,T,,M,1.8,N,3.3,K,A*05,1759653123000
NMEA,$GPGSV,5,1,15,01,27,178,35,03,61,097,33,04,58,015,44,06,31,305,41*75,1759653123000
NMEA,$GPGSV,5,2,15,07,33,212,35,09,48,300,35,26,16,059,34*42,1759653123000
NMEA,$GPGSV,5,3,15*7B,1759653123000
NMEA,$GPGSV,5,4,15,01,27,178,20,03,61,097,27,04,58,015,41,06,31,305,33,8*65,1759653123000
NMEA,$GPGSV,5,5,15,09,48,300,26,8*5B,1759653123000
NMEA,$GLGSV,2,1,08,67,18,071,31,68,45,020,42,69,31,314,43,77,13,030,19*6C,1759653123000
NMEA,$GLGSV,2,2,08,78,46,087,45,79,29,155,36,83,32,229,39,84,33,297,27*63,1759653123000
NMEA,$GAGSV,4,1,15,107,32,051,34,112,17,320,17,119,32,271,29,126,41,186,32*67,1759653123000
NMEA,$GAGSV,4,2,15,127,19,119,43,129,64,335,43,130,14,068,22,133,58,271,43*64,1759653123000
NMEA,$GAGSV,4,3,15,107,32,051,27,119,32,271,25,126,41,186,28,127,19,119,38,1*70,1759653123000
NMEA,$GAGSV,4,4,15,129,64,335,36,130,14,068,25,133,58,271,32,1*7E,1759653123000
NMEA,$BDGSV,5,1,15,205,49,138,43,206,33,044,29,209,48,050,34,213,13,124,28*6A,1759653123000
NMEA,$BDGSV,5,2,15,216,25,041,30,221,58,350,48,222,38,075,45,226,27,182,32*6A,1759653123000
NMEA,$BDGSV,5,3,15,234,22,254,35,236,25,051,35*68,1759653123000
NMEA,$BDGSV,5,4,15,221,58,350,38,222,38,075,35,226,27,182,20,234,22,254,27,5*71,1759653123000
NMEA,$BDGSV,5,5,15,236,25,051,28,5*7B,1759653123000
NMEA,$GIGSV,1,1,02,02,19,197,28,09,76,110,25,1*7F,1759653123000
NMEA,$GPGSA,A,3,07,26,,,,,,,,,,,1.2,0.6,1.0*35,1759653123000
NMEA,$GNGSA,A,3,67,68,78,79,83,84,,,,,,,1.2,0.6,1.0*21,1759653123000
NMEA,$GAGSA,A,3,107,126,127,129,133,,,,,,,,1.2,0.6,1.0*1B,1759653123000
NMEA,$BDGSA,A,3,206,209,221,222,,,,,,,,,1.2,0.6,1.0*2B,1759653123000
NMEA,$PSSGR,GSA,A,3,03,04,06,09,,,,,,,,,1.2,0.6,1.0,1,8*49,1759653123000
NMEA,$PSSGR,GSA,A,3,119,130,,,,,,,,,,,1.2,0.6,1.0,3,1*41,1759653123000
NMEA,$GPRMC,083203.000,A,3205.0165,N,03448.1596,E,1.8,114.5,051025,,,A*69,1759653123000
NMEA,$GPGGA,083204.000,3205.0162,N,03448.1599,E,1,23,0.6,35.1,M,17.1,M,,*68,1759653124000
NMEA,$PSAMSA,083204.000,3205.0162,N,03448.1599,E,0,M,,*6A,1759653124000
NMEA,$GPGLL,3205.0162,N,03448.1599,E,083204.000,A,A*5A,1759653124000
NMEA,$GPVTG,120.0,T,,M,1.7,N,3.1,K,A*0A,1759653124000
NMEA,$GPGSV,5,1,15,01,27,178,35,03,61,097,33,04,58,015,44,06,31,305,41*75,1759653124000
NMEA,$GPGSV,5,2,15,07,33,212,35,09,48,300,35,16,21,099,28,26,16,059,34*7C,1759653124000
NMEA,$GPGSV,5,3,15,31,10,040,27*49,1759653124000
NMEA,$GPGSV,5,4,15,01,27,178,20,03,61,097,27,04,58,015,40,06,31,305,33,8*64,1759653124000
NMEA,$GPGSV,5,5,15,09,48,300,26,8*5B,1759653124000
NMEA,$GLGSV,2,1,08,67,18,071,31,68,45,020,42,69,31,314,42,77,13,030,19*6D,1759653124000
NMEA,$GLGSV,2,2,08,78,46,087,45,79,29,155,37,83,32,229,39,84,33,297,27*62,1759653124000
NMEA,$GAGSV,4,1,15,107,32,051,34,112,17,320,17,119,32,271,29,126,41,186,32*67,1759653124000
NMEA,$GAGSV,4,2,15,127,19,119,43,129,64,335,43,130,14,068,22,133,58,271,42*65,1759653124000
NMEA,$GAGSV,4,3,15,107,32,051,27,119,32,271,25,126,41,186,27,127,19,119,38,1*7F,1759653124000
NMEA,$GAGSV,4,4,15,129,64,335,36,130,14,068,24,133,58,271,32,1*7F,1759653124000
NMEA,$BDGSV,5,1,15,205,49,138,43,206,33,044,29,209,48,050,34,213,13,124,26*64,1759653124000
NMEA,$BDGSV,5,2,15,216,25,041,30,221,58,350,48,222,38,075,45,226,27,182,30*68,1759653124000
NMEA,$BDGSV,5,3,15,234,22,254,35,236,25,051,35*68,1759653124000
NMEA,$BDGSV,5,4,15,221,58,350,38,222,38,075,34,226,27,182,20,234,22,254,27,5*70,1759653124000
NMEA,$BDGSV,5,5,15,236,25,051,28,5*7B,1759653124000
NMEA,$GIGSV,1,1,02,02,19,197,28,09,76,110,24,1*7E,1759653124000
NMEA,$GPGSA,A,3,07,26,,,,,,,,,,,1.2,0.6,1.2*37,1759653124000
NMEA,$GNGSA,A,3,68,78,79,83,,,,,,,,,1.2,0.6,1.2*2E,1759653124000
NMEA,$GAGSA,A,3,107,126,127,129,133,,,,,,,,1.2,0.6,1.2*19,1759653124000
NMEA,$BDGSA,A,3,206,209,216,221,222,236,,,,,,,1.2,0.6,1.2*2B,1759653124000
NMEA,$PSSGR,GSA,A,3,03,04,06,09,,,,,,,,,1.2,0.6,1.2,1,8*4B,1759653124000
NMEA,$PSSGR,GSA,A,3,119,130,,,,,,,,,,,1.2,0.6,1.2,3,1*43,1759653124000
NMEA,$GPRMC,083204.000,A,3205.0162,N,03448.1599,E,1.7,120.0,051025,,,A*6B,1759653124000
NMEA,$GPGGA,083205.000,3205.0160,N,03448.1603,E,1,20,0.6,35.3,M,17.1,M,,*6A,1759653125000
NMEA,$PSAMSA,083205.000,3205.0160,N,03448.1603,E,0,M,,*69,1759653125000
NMEA,$GPGLL,3205.0160,N,03448.1603,E,083205.000,A,A*59,1759653125000
NMEA,$GPVTG,117.3,T,,M,1.6,N,3.0,K,A*0D,1759653125000
NMEA,$GPGSV,5,1,15,01,27,178,35,03,61,097,33,04,58,015,43,06,31,305,41*72,1759653125000
NMEA,$GPGSV,5,2,15,07,33,212,35,09,48,300,35,16,21,099,29,26,16,059,33*7A,1759653125000
NMEA,$GPGSV,5,3,15,31,10,040,27*49,1759653125000
NMEA,$GPGSV,5,4,15,01,27,178,20,03,61,097,27,04,58,015,40,06,31,305,33,8*64,1759653125000
NMEA,$GPGSV,5,5,15,09,48,300,28,8*55,1759653125000
NMEA,$GLGSV,2,1,08,67,18,071,32,68,45,020,42,69,31,314,42,77,13,030,20*64,1759653125000
NMEA,$GLGSV,2,2,08,78,46,087,45,79,29,155,40,83,32,229,39,84,33,297,27*62,1759653125000
NMEA,$GAGSV,4,1,15,107,32,051,34,112,17,320,17,119,32,271,29,126,41,186,32*67,1759653125000
NMEA,$GAGSV,4,2,15,127,19,119,43,129,64,335,43,130,14,068,22,133,58,271,41*66,1759653125000
NMEA,$GAGSV,4,3,15,107,32,051,26,119,32,271,25,126,41,186,27,127,19,119,38,1*7E,1759653125000
NMEA,$GAGSV,4,4,15,129,64,335,35,130,14,068,30,133,58,271,32,1*79,1759653125000
NMEA,$BDGSV,5,1,16,205,49,138,43,206,33,044,29,209,48,050,33,213,13,124,23*65,1759653125000
NMEA,$BDGSV,5,2,16,216,25,041,31,221,58,350,48,222,38,075,44,226,27,182,31*6A,1759653125000
NMEA,$BDGSV,5,3,16,234,22,254,26,236,25,051,35*69,1759653125000
NMEA,$BDGSV,5,4,16,221,58,350,38,222,38,075,34,226,27,182,20,234,22,254,27,5*73,1759653125000
NMEA,$BDGSV,5,5,16,236,25,051,27,5*77,1759653125000
NMEA,$GIGSV,1,1,02,02,19,197,28,09,76,110,25,1*7F,1759653125000
NMEA,$GPGSA,A,3,07,26,,,,,,,,,,,1.4,0.6,1.2*31,1759653125000
NMEA,$GNGSA,A,3,68,78,79,83,84,,,,,,,,1.4,0.6,1.2*24,1759653125000
NMEA,$GAGSA,A,3,107,126,127,129,,,,,,,,,1.4,0.6,1.2*2E,1759653125000
NMEA,$BDGSA,A,3,209,221,222,236,,,,,,,,,1.4,0.6,1.2*2C,1759653125000
NMEA,$PSSGR,GSA,A,3,03,04,06,09,,,,,,,,,1.4,0.6,1.2,1,8*4D,1759653125000
NMEA,$PSSGR,GSA,A,3,119,,,,,,,,,,,,1.4,0.6,1.2,3,1*77,1759653125000
NMEA,$GPRMC,083205.000,A,3205.0160,N,03448.1603,E,1.6,117.3,051025,,,A*6E,1759653125000
NMEA,$GPGGA,083206.000,3205.0158,N,03448.1608,E,1,23,0.6,35.3,M,17.1,M,,*6A,1759653126000
NMEA,$PSAMSA,083206.000,3205.0158,N,03448.1608,E,0,M,,*6A,1759653126000
NMEA,$GPGLL,3205.0158,N,03448.1608,E,083206.000,A,A*5A,1759653126000
NMEA,$GPVTG,117.4,T,,M,1.7,N,3.2,K,A*09,1759653126000
NMEA,$GPGSV,5,1,15,01,27,178,35,03,61,097,32,04,58,015,43,06,31,305,41*73,1759653126000
NMEA,$GPGSV,5,2,15,07,33,212,35,09,48,300,36,16,21,099,29,26,16,059,33*79,1759653126000
NMEA,$GPGSV,5,3,15,31,10,040,27*49,1759653126000
NMEA,$GPGSV,5,4,15,01,27,178,20,03,61,097,26,04,58,015,39,06,31,305,32,8*6A,1759653126000
NMEA,$GPGSV,5,5,15,09,48,300,37,26,16,059,20,8*66,1759653126000
NMEA,$GLGSV,2,1,08,67,18,071,32,68,45,020,41,69,31,314,41,77,13,030,20*64,1759653126000
NMEA,$GLGSV,2,2,08,78,46,087,45,79,29,155,41,83,32,229,38,84,33,297,27*62,1759653126000
NMEA,$GAGSV,4,1,15,107,32,051,34,112,17,320,17,119,32,271,29,126,41,186,32*67,1759653126000
NMEA,$GAGSV,4,2,15,127,19,119,43,129,64,335,43,130,14,068,22,133,58,271,41*66,1759653126000
NMEA,$GAGSV,4,3,15,107,32,051,26,119,32,271,25,126,41,186,26,127,19,119,37,1*70,1759653126000
NMEA,$GAGSV,4,4,15,129,64,335,35,130,14,068,29,133,58,271,32,1*71,1759653126000
NMEA,$BDGSV,5,1,15,205,49,138,43,206,33,044,29,209,48,050,33,213,13,124,24*61,1759653126000
NMEA,$BDGSV,5,2,15,216,25,041,31,221,58,350,48,222,38,075,44,226,27,182,31*69,1759653126000
NMEA,$BDGSV,5,3,15,234,22,254,34,236,25,051,35*69,1759653126000
NMEA,$BDGSV,5,4,15,221,58,350,38,222,38,075,34,226,27,182,20,234,22,254,27,5*70,1759653126000
NMEA,$BDGSV,5,5,15,236,25,051,27,5*74,1759653126000
NMEA,$GIGSV,1,1,02,02,19,197,27,09,76,110,25,1*70,1759653126000
NMEA,$GPGSA,A,3,07,26,,,,,,,,,,,1.2,0.6,1.2*37,1759653126000
NMEA,$GNGSA,A,3,67,68,78,79,83,84,,,,,,,1.2,0.6,1.2*23,1759653126000
NMEA,$GAGSA,A,3,107,126,127,129,133,,,,,,,,1.2,0.6,1.2*19,1759653126000
NMEA,$BDGSA,A,3,206,209,221,222,236,,,,,,,,1.2,0.6,1.2*1E,1759653126000
NMEA,$PSSGR,GSA,A,3,03,04,06,09,,,,,,,,,1.2,0.6,1.2,1,8*4B,1759653126000
NMEA,$PSSGR,GSA,A,3,119,,,,,,,,,,,,1.2,0.6,1.2,3,1*71,1759653126000
NMEA,$GPRMC,083206.000,A,3205.0158,N,03448.1608,E,1.7,117.4,051025,,,A*6B,1759653126000
NMEA,$GPGGA,083207.000,3205.0158,N,03448.1617,E,1,16,0.8,34.9,M,17.1,M,,*66,1759653127000
NMEA,$PSAMSA,083207.000,3205.0158,N,03448.1617,E,0,M,,*65,1759653127000
NMEA,$GPGLL,3205.0158,N,03448.1617,E,083207.000,A,A*55,1759653127000
NMEA,$GPVTG,94.2,T,,M,1.4,N,2.6,K,A*33,1759653127000
NMEA,$GPGSV,5,1,15,01,27,178,35,03,61,097,32,04,57,015,43,06,32,304,41*7E,1759653127000
NMEA,$GPGSV,5,2,15,07,33,212,35,09,48,300,36,16,21,099,29,26,16,059,33*79,1759653127000
NMEA,$GPGSV,5,3,15,31,10,040,27*49,1759653127000
NMEA,$GPGSV,5,4,15,01,27,178,25,03,61,097,26,04,57,015,38,06,32,304,32,8*63,1759653127000
NMEA,$GPGSV,5,5,15,09,48,300,36,26,16,059,28,8*6F,1759653127000
NMEA,$GLGSV,2,1,08,67,18,071,32,68,45,020,41,69,31,314,41,77,13,030,20*64,1759653127000
NMEA,$GLGSV,2,2,08,78,46,087,45,79,29,155,41,83,32,229,38,84,33,297,27*62,1759653127000
NMEA,$GAGSV,4,1,15,107,32,051,34,112,17,320,17,119,32,271,29,126,41,186,32*67,1759653127000
NMEA,$GAGSV,4,2,15,127,19,119,43,129,64,335,42,130,14,068,22,133,58,271,41*67,1759653127000
NMEA,$GAGSV,4,3,15,107,32,051,26,119,32,271,24,126,41,186,26,127,19,119,35,1*73,1759653127000
NMEA,$GAGSV,4,4,15,129,64,335,37,130,14,068,28,133,58,271,32,1*72,1759653127000
NMEA,$BDGSV,5,1,15,205,49,138,43,206,33,044,29,209,48,050,33,213,13,124,25*60,1759653127000
NMEA,$BDGSV,5,2,15,216,25,041,35,221,58,350,48,222,38,075,44,226,27,182,31*6D,1759653127000
NMEA,$BDGSV,5,3,15,234,22,253,35,236,25,051,35*6F,1759653127000
NMEA,$BDGSV,5,4,15,221,58,350,38,222,38,075,34,226,27,182,20,234,22,253,33,5*72,1759653127000
NMEA,$BDGSV,5,5,15,236,25,051,32,5*70,1759653127000
NMEA,$GIGSV,1,1,02,02,19,197,27,09,76,110,25,1*70,1759653127000
NMEA,$GPGSA,A,3,,,,,,,,,,,,,1.6,0.8,1.2*3E,1759653127000
NMEA,$GNGSA,A,3,67,78,79,,,,,,,,,,1.6,0.8,1.2*20,1759653127000
NMEA,$GAGSA,A,3,107,127,133,,,,,,,,,,1.6,0.8,1.2*1C,1759653127000
NMEA,$BDGSA,A,3,209,221,222,,,,,,,,,,1.6,0.8,1.2*17,1759653127000
NMEA,$PSSGR,GSA,A,3,03,04,06,09,26,,,,,,,,1.6,0.8,1.2,1,8*45,1759653127000
NMEA,$PSSGR,GSA,A,3,119,129,,,,,,,,,,,1.6,0.8,1.2,3,1*41,1759653127000
NMEA,$GPRMC,083207.000,A,3205.0158,N,03448.1617,E,1.4,94.2,051025,,,A*5B,1759653127000
NMEA,$GPGGA,083208.000,3205.0161,N,03448.1618,E,1,14,0.8,35.1,M,17.1,M,,*67,1759653128000
NMEA,$PSAMSA,083208.000,3205.0161,N,03448.1618,E,0,M,,*6F,1759653128000
NMEA,$GPGLL,3205.0161,N,03448.1618,E,083208.000,A,A*5F,1759653128000
NMEA,$GPVTG,63.2,T,,M,1.3,N,2.4,K,A*3E,1759653128000
NMEA,$GPGSV,5,1,15,01,27,178,35,03,61,097,32,04,57,015,43,06,32,304,40*7F,1759653128000
NMEA,$GPGSV,5,2,15,07,33,212,35,09,48,300,36,16,21,099,29,26,16,059,34*7E,1759653128000
NMEA,$GPGSV,5,3,15,31,10,040,27*49,1759653128000
NMEA,$GPGSV,5,4,15,01,27,178,25,03,61,097,26,04,57,015,38,06,32,304,32,8*63,1759653128000
NMEA,$GPGSV,5,5,15,09,48,300,35,26,16,059,28,8*6C,1759653128000
NMEA,$GLGSV,2,1,08,67,18,071,33,68,45,020,40,69,31,314,41,77,13,030,20*64,1759653128000
NMEA,$GLGSV,2,2,08,78,46,087,45,79,29,155,41,83,32,229,38,84,33,297,27*62,1759653128000
NMEA,$GAGSV,4,1,15,107,32,051,33,112,17,320,17,119,32,271,31,126,41,186,32*69,1759653128000
NMEA,$GAGSV,4,2,15,127,19,119,41,129,64,335,42,130,14,068,22,133,58,271,41*65,1759653128000
NMEA,$GAGSV,4,3,15,107,32,051,26,119,32,271,24,126,41,186,26,127,19,119,35,1*73,1759653128000
NMEA,$GAGSV,4,4,15,129,64,335,37,130,14,068,27,133,58,271,31,1*7E,1759653128000
NMEA,$BDGSV,5,1,15,205,49,138,43,206,33,044,30,209,48,050,33,213,13,124,26*6B,1759653128000
NMEA,$BDGSV,5,2,15,216,25,041,38,221,58,350,48,222,38,075,44,226,27,182,32*63,1759653128000
NMEA,$BDGSV,5,3,15,234,22,253,36,236,25,051,35*6C,1759653128000
NMEA,$BDGSV,5,4,15,221,58,350,38,222,38,075,35,226,27,182,20,234,22,253,32,5*72,1759653128000
NMEA,$BDGSV,5,5,15,236,25,051,31,5*73,1759653128000
NMEA,$GIGSV,1,1,02,02,19,197,27,09,76,110,24,1*71,1759653128000
NMEA,$GPGSA,A,3,,,,,,,,,,,,,1.6,0.8,1.4*38,1759653128000
NMEA,$GNGSA,A,3,78,79,,,,,,,,,,,1.6,0.8,1.4*27,1759653128000
NMEA,$GAGSA,A,3,107,119,129,133,,,,,,,,,1.6,0.8,1.4*2D,1759653128000
NMEA,$BDGSA,A,3,209,221,222,,,,,,,,,,1.6,0.8,1.4*11,1759653128000
NMEA,$PSSGR,GSA,A,3,03,04,06,09,26,,,,,,,,1.6,0.8,1.4,1,8*43,1759653128000
NMEA,$GPRMC,083208.000,A,3205.0161,N,03448.1618,E,1.3,63.2,051025,,,A*5E,1759653128000
NMEA,$GPGGA,083209.000,3205.0164,N,03448.1620,E,1,18,0.6,34.9,M,17.1,M,,*63,1759653129000
NMEA,$PSAMSA,083209.000,3205.0164,N,03448.1620,E,0,M,,*60,1759653129000
NMEA,$GPGLL,3205.0164,N,03448.1620,E,083209.000,A,A*50,1759653129000
NMEA,$GPVTG,47.5,T,,M,1.0,N,1.9,K,A*32,1759653129000
NMEA,$GPGSV,5,1,15,01,27,178,35,03,61,097,32,04,57,015,42,06,32,304,39*70,1759653129000
NMEA,$GPGSV,5,2,15,07,33,212,35,09,48,300,36,16,21,099,29,26,16,059,34*7E,1759653129000
NMEA,$GPGSV,5,3,15,31,10,040,27*49,1759653129000
NMEA,$GPGSV,5,4,15,01,27,178,24,03,61,097,26,04,57,015,37,06,32,304,32,8*6D,1759653129000
NMEA,$GPGSV,5,5,15,09,48,300,35,26,16,059,32,8*67,1759653129000
NMEA,$GLGSV,2,1,08,67,18,071,33,68,45,020,39,69,31,314,40,77,13,030,20*6B,1759653129000
NMEA,$GLGSV,2,2,08,78,46,087,45,79,29,155,41,83,32,229,38,84,33,297,27*62,1759653129000
NMEA,$GAGSV,4,1,15,107,32,051,33,112,17,320,17,119,32,271,32,126,41,186,32*6A,1759653129000
NMEA,$GAGSV,4,2,15,127,19,119,39,129,64,335,42,130,14,068,22,133,58,271,41*6A,1759653129000
NMEA,$GAGSV,4,3,15,107,32,051,25,119,32,271,27,126,41,186,25,127,19,119,34,1*71,1759653129000
NMEA,$GAGSV,4,4,15,129,64,335,36,130,14,068,27,133,58,271,31,1*7F,1759653129000
NMEA,$BDGSV,5,1,15,205,49,138,42,206,33,044,31,209,48,050,33,213,13,124,27*6A,1759653129000
NMEA,$BDGSV,5,2,15,216,25,041,41,221,58,350,48,222,38,075,44,226,27,182,32*6D,1759653129000
NMEA,$BDGSV,5,3,15,234,22,253,36,236,25,051,35*6C,1759653129000
NMEA,$BDGSV,5,4,15,221,58,350,37,222,38,075,35,226,27,182,20,234,22,253,31,5*7E,1759653129000
NMEA,$BDGSV,5,5,15,236,25,051,30,5*72,1759653129000
NMEA,$GIGSV,1,1,02,02,19,197,27,09,76,110,25,1*70,1759653129000
NMEA,$GPGSA,A,3,04,,,,,,,,,,,,1.4,0.6,1.2*36,1759653129000
NMEA,$GNGSA,A,3,78,79,83,84,,,,,,,,,1.4,0.6,1.2*2A,1759653129000
NMEA,$GAGSA,A,3,107,119,129,133,,,,,,,,,1.4,0.6,1.2*27,1759653129000
NMEA,$BDGSA,A,3,206,209,221,222,,,,,,,,,1.4,0.6,1.2*2F,1759653129000
NMEA,$PSSGR,GSA,A,3,03,06,09,26,,,,,,,,,1.4,0.6,1.2,1,8*4D,1759653129000
NMEA,$PSSGR,GSA,A,3,127,,,,,,,,,,,,1.4,0.6,1.2,3,1*7A,1759653129000
NMEA,$GPRMC,083209.000,A,3205.0164,N,03448.1620,E,1.0,47.5,051025,,,A*53,1759653129000
NMEA,$GPGGA,083210.000,3205.0166,N,03448.1620,E,1,24,0.4,34.8,M,17.1,M,,*65,1759653130000
NMEA,$PSAMSA,083210.000,3205.0166,N,03448.1620,E,0,M,,*6A,1759653130000
NMEA,$GPGLL,3205.0166,N,03448.1620,E,083210.000,A,A*5A,1759653130000
NMEA,$GPVTG,35.0,T,,M,0.8,N,1.5,K,A*37,1759653130000
NMEA,$GPGSV,5,1,15,01,27,178,35,03,61,097,32,04,57,015,41,06,32,304,38*72,1759653130000
NMEA,$GPGSV,5,2,15,07,33,212,35,09,48,300,36,16,21,099,29,26,16,059,34*7E,1759653130000
NMEA,$GPGSV,5,3,15,31,10,040,27*49,1759653130000
NMEA,$GPGSV,5,4,15,01,27,178,24,03,61,097,25,04,57,015,36,06,32,304,33,8*6E,1759653130000
NMEA,$GPGSV,5,5,15,09,48,300,34,26,16,059,31,8*65,1759653130000
NMEA,$GLGSV,2,1,08,67,18,071,33,68,45,020,38,69,31,314,39,77,13,030,21*65,1759653130000
NMEA,$GLGSV,2,2,08,78,46,087,45,79,29,155,41,83,32,229,37,84,33,297,27*6D,1759653130000
NMEA,$GAGSV,4,1,15,107,32,051,33,112,17,320,17,119,32,271,32,126,41,186,32*6A,1759653130000
NMEA,$GAGSV,4,2,15,127,19,119,37,129,64,335,42,130,14,068,22,133,58,271,42*67,1759653130000
NMEA,$GAGSV,4,3,15,107,32,051,25,119,32,271,26,126,41,186,25,127,19,119,34,1*70,1759653130000
NMEA,$GAGSV,4,4,15,129,64,335,36,130,14,068,27,133,58,271,31,1*7F,1759653130000
NMEA,$BDGSV,5,1,15,205,49,138,41,206,33,044,32,209,48,050,34,213,13,124,28*62,1759653130000
NMEA,$BDGSV,5,2,15,216,25,041,42,221,58,350,48,222,38,075,44,226,27,182,32*6E,1759653130000
NMEA,$BDGSV,5,3,15,234,22,253,36,236,25,051,35*6C,1759653130000
NMEA,$BDGSV,5,4,15,221,58,350,37,222,38,075,35,226,27,182,20,234,22,253,31,5*7E,1759653130000
NMEA,$BDGSV,5,5,15,236,25,051,30,5*72,1759653130000
NMEA,$GIGSV,1,1,02,02,19,197,27,09,76,110,25,1*70,1759653130000
NMEA,$GPGSA,A,3,07,,,,,,,,,,,,1.2,0.4,1.0*33,1759653130000
NMEA,$GNGSA,A,3,68,69,77,78,79,83,,,,,,,1.2,0.4,1.0*21,1759653130000
NMEA,$GAGSA,A,3,107,119,126,129,133,,,,,,,,1.2,0.4,1.0*14,1759653130000
NMEA,$BDGSA,A,3,206,209,221,222,226,234,,,,,,,1.2,0.4,1.0*2A,1759653130000
NMEA,$PSSGR,GSA,A,3,03,04,06,09,,,,,,,,,1.2,0.4,1.0,1,8*4B,1759653130000
NMEA,$PSSGR,GSA,A,3,127,130,,,,,,,,,,,1.2,0.4,1.0,3,1*4E,1759653130000
NMEA,$GPRMC,083210.000,A,3205.0166,N,03448.1620,E,0.8,35.0,051025,,,A*50,1759653130000
NMEA,$GPGGA,083211.000,3205.0168,N,03448.1620,E,1,26,0.4,34.8,M,17.1,M,,*68,1759653131000
NMEA,$PSAMSA,083211.000,3205.0168,N,03448.1620,E,0,M,,*65,1759653131000
NMEA,$GPGLL,3205.0168,N,03448.1620,E,083211.000,A,A*55,1759653131000
NMEA,$GPVTG,22.4,T,,M,0.5,N,1.0,K,A*3D,1759653131000
NMEA,$GPGSV,5,1,15,01,27,178,35,03,61,097,37,04,57,015,40,06,32,304,37*79,1759653131000
NMEA,$GPGSV,5,2,15,07,33,212,35,09,48,300,36,16,21,099,30,26,16,059,34*76,1759653131000
NMEA,$GPGSV,5,3,15,31,10,040,27*49,1759653131000
NMEA,$GPGSV,5,4,15,01,27,178,24,03,61,097,25,04,57,015,35,06,32,304,34,8*6A,1759653131000
NMEA,$GPGSV,5,5,15,09,48,300,33,26,16,059,30,8*63,1759653131000
NMEA,$GLGSV,2,1,08,67,18,071,33,68,45,020,37,69,31,314,37,77,13,030,21*64,1759653131000
NMEA,$GLGSV,2,2,08,78,46,087,45,79,29,155,40,83,32,229,37,84,33,297,27*6C,1759653131000
NMEA,$GAGSV,4,1,15,107,32,051,33,112,17,320,17,119,32,271,32,126,41,186,32*6A,1759653131000
NMEA,$GAGSV,4,2,15,127,19,119,35,129,64,335,42,130,14,068,22,133,58,271,42*65,1759653131000
NMEA,$GAGSV,4,3,15,107,32,051,25,119,32,271,26,126,41,186,25,127,19,119,34,1*70,1759653131000
NMEA,$GAGSV,4,4,15,129,64,335,36,130,14,068,26,133,58,271,31,1*7E,1759653131000
NMEA,$BDGSV,5,1,15,205,49,138,40,206,33,044,33,209,48,050,34,213,13,124,29*63,1759653131000
NMEA,$BDGSV,5,2,15,216,25,041,42,221,58,350,48,222,38,075,44,226,27,182,33*6F,1759653131000
NMEA,$BDGSV,5,3,15,234,22,253,37,236,25,051,35*6D,1759653131000
NMEA,$BDGSV,5,4,15,221,58,350,36,222,38,075,35,226,27,182,20,234,22,253,30,5*7E,1759653131000
NMEA,$BDGSV,5,5,15,236,25,051,29,5*7A,1759653131000
NMEA,$GIGSV,1,1,02,02,19,197,26,09,76,110,25,1*71,1759653131000
NMEA,$GPGSA,A,3,01,03,07,,,,,,,,,,1.0,0.4,1.0*33,1759653131000
NMEA,$GNGSA,A,3,67,68,69,77,78,83,84,,,,,,1.0,0.4,1.0*20,1759653131000
NMEA,$GAGSA,A,3,107,119,126,129,133,,,,,,,,1.0,0.4,1.0*16,1759653131000
NMEA,$BDGSA,A,3,206,209,221,222,226,234,,,,,,,1.0,0.4,1.0*28,1759653131000
NMEA,$PSSGR,GSA,A,3,04,06,09,,,,,,,,,,1.0,0.4,1.0,1,8*4A,1759653131000
NMEA,$PSSGR,GSA,A,3,127,130,,,,,,,,,,,1.0,0.4,1.0,3,1*4C,1759653131000
NMEA,$GPRMC,083211.000,A,3205.0168,N,03448.1620,E,0.5,22.4,051025,,,A*50,1759653131000
NMEA,$GPGGA,083212.000,3205.0173,N,03448.1620,E,1,26,0.4,35.1,M,17.1,M,,*69,1759653132000
NMEA,$PSAMSA,083212.000,3205.0173,N,03448.1620,E,0,M,,*6C,1759653132000
NMEA,$GPGLL,3205.0173,N,03448.1620,E,083212.000,A,A*5C,1759653132000
NMEA,$GPVTG,4.6,T,,M,1.2,N,2.3,K,A*0D,1759653132000
NMEA,$GPGSV,5,1,15,01,27,178,34,03,61,097,39,04,57,015,39,06,32,304,37*78,1759653132000
NMEA,$GPGSV,5,2,15,07,33,212,35,09,48,300,36,16,21,099,33,26,16,059,34*75,1759653132000
NMEA,$GPGSV,5,3,15,31,10,040,27*49,1759653132000
NMEA,$GPGSV,5,4,15,01,27,178,24,03,61,097,25,04,57,015,35,06,32,304,34,8*6A,1759653132000
NMEA,$GPGSV,5,5,15,09,48,300,33,26,16,059,29,8*6B,1759653132000
NMEA,$GLGSV,2,1,08,67,18,071,33,68,45,020,36,69,31,314,37,77,13,030,21*65,1759653132000
NMEA,$GLGSV,2,2,08,78,46,087,45,79,29,155,39,83,32,229,37,84,33,297,27*62,1759653132000
NMEA,$GAGSV,4,1,15,107,32,051,33,112,17,320,17,119,32,271,32,126,41,186,32*6A,1759653132000
NMEA,$GAGSV,4,2,15,127,19,119,34,129,64,335,41,130,14,068,22,133,58,271,42*67,1759653132000
NMEA,$GAGSV,4,3,15,107,32,051,25,119,32,271,26,126,41,186,24,127,19,119,33,1*76,1759653132000
NMEA,$GAGSV,4,4,15,129,64,335,36,130,14,068,26,133,58,271,31,1*7E,1759653132000
NMEA,$BDGSV,5,1,15,205,49,138,39,206,33,044,34,209,48,050,35,213,13,124,29*6B,1759653132000
NMEA,$BDGSV,5,2,15,216,25,041,42,221,58,350,47,222,38,075,43,226,27,182,33*67,1759653132000
NMEA,$BDGSV,5,3,15,234,22,253,38,236,25,051,36*61,1759653132000
NMEA,$BDGSV,5,4,15,221,58,350,35,222,38,075,35,226,27,182,20,234,22,253,29,5*75,1759653132000
NMEA,$BDGSV,5,5,15,236,25,051,29,5*7A,1759653132000
NMEA,$GIGSV,1,1,02,02,19,197,26,09,76,110,25,1*71,1759653132000
NMEA,$GPGSA,A,3,01,03,07,,,,,,,,,,1.0,0.4,1.0*33,1759653132000
NMEA,$GNGSA,A,3,67,68,69,77,78,83,84,,,,,,1.0,0.4,1.0*20,1759653132000
NMEA,$GAGSA,A,3,107,119,126,129,133,,,,,,,,1.0,0.4,1.0*16,1759653132000
NMEA,$BDGSA,A,3,206,209,221,226,234,,,,,,,,1.0,0.4,1.0*1A,1759653132000
NMEA,$PSSGR,GSA,A,3,04,06,09,,,,,,,,,,1.0,0.4,1.0,1,8*4A,1759653132000
NMEA,$PSSGR,GSA,A,3,127,130,,,,,,,,,,,1.0,0.4,1.0,3,1*4C,1759653132000
NMEA,$PSSGR,GSA,A,3,222,,,,,,,,,,,,1.0,0.4,1.0,4,5*7B,1759653132000
NMEA,$GPRMC,083212.000,A,3205.0173,N,03448.1620,E,1.2,4.6,051025,,,A*69,1759653132000
NMEA,$GPGGA,083213.000,3205.0173,N,03448.1618,E,1,24,0.4,35.0,M,17.1,M,,*60,1759653133000
NMEA,$PSAMSA,083213.000,3205.0173,N,03448.1618,E,0,M,,*66,1759653133000
NMEA,$GPGLL,3205.0173,N,03448.1618,E,083213.000,A,A*56,1759653133000
NMEA,$GPVTG,359.6,T,,M,0.1,N,0.3,K,A*06,1759653133000
NMEA,$GPGSV,5,1,15,01,27,178,34,03,61,097,39,04,57,015,39,06,32,304,36*79,1759653133000
NMEA,$GPGSV,5,2,15,07,33,212,35,09,48,300,36,16,21,099,35,26,16,059,34*73,1759653133000
NMEA,$GPGSV,5,3,15,31,10,040,27*49,1759653133000
NMEA,$GPGSV,5,4,15,01,27,178,23,03,61,097,25,04,57,015,34,06,32,304,34,8*6C,1759653133000
NMEA,$GPGSV,5,5,15,09,48,300,32,26,16,059,28,8*6B,1759653133000
NMEA,$GLGSV,2,1,08,67,18,071,33,68,45,020,36,69,31,314,36,77,13,030,22*67,1759653133000
NMEA,$GLGSV,2,2,08,78,46,087,45,79,29,155,39,83,32,229,37,84,33,297,27*62,1759653133000
NMEA,$GAGSV,4,1,15,107,32,051,33,112,17,320,17,119,32,271,33,126,41,186,32*6B,1759653133000
NMEA,$GAGSV,4,2,15,127,19,119,33,129,64,335,41,130,14,068,23,133,58,271,42*61,1759653133000
NMEA,$GAGSV,4,3,15,107,32,051,25,119,32,271,26,126,41,186,24,127,19,119,33,1*76,1759653133000
NMEA,$GAGSV,4,4,15,129,64,335,36,130,14,068,26,133,58,271,31,1*7E,1759653133000
NMEA,$BDGSV,5,1,15,205,49,138,38,206,33,044,34,209,48,050,36,213,13,124,29*69,1759653133000
NMEA,$BDGSV,5,2,15,216,25,041,42,221,58,350,47,222,38,075,42,226,27,182,33*66,1759653133000
NMEA,$BDGSV,5,3,15,234,22,253,38,236,25,051,36*61,1759653133000
NMEA,$BDGSV,5,4,15,221,58,350,35,222,38,075,35,226,27,182,20,234,22,253,28,5*74,1759653133000
NMEA,$BDGSV,5,5,15,236,25,051,28,5*7B,1759653133000
NMEA,$GIGSV,1,1,02,02,19,197,26,09,76,110,25,1*71,1759653133000
NMEA,$GPGSA,A,3,01,03,07,,,,,,,,,,1.2,0.4,1.0*31,1759653133000
NMEA,$GNGSA,A,3,67,68,69,78,83,,,,,,,,1.2,0.4,1.0*2E,1759653133000
NMEA,$GAGSA,A,3,107,119,126,129,133,,,,,,,,1.2,0.4,1.0*14,1759653133000
NMEA,$BDGSA,A,3,206,209,221,226,234,,,,,,,,1.2,0.4,1.0*18,1759653133000
NMEA,$PSSGR,GSA,A,3,04,06,09,,,,,,,,,,1.2,0.4,1.0,1,8*48,1759653133000
NMEA,$PSSGR,GSA,A,3,127,130,,,,,,,,,,,1.2,0.4,1.0,3,1*4E,1759653133000
NMEA,$PSSGR,GSA,A,3,222,,,,,,,,,,,,1.2,0.4,1.0,4,5*79,1759653133000
NMEA,$GPRMC,083213.000,A,3205.0173,N,03448.1618,E,0.1,359.6,051025,,,A*6A,1759653133000
NMEA,$GPGGA,083214.000,3205.0171,N,03448.1616,E,1,24,0.4,35.4,M,17.1,M,,*6F,1759653134000
NMEA,$PSAMSA,083214.000,3205.0171,N,03448.1616,E,0,M,,*6D,1759653134000
NMEA,$GPGLL,3205.0171,N,03448.1616,E,083214.000,A,A*5D,1759653134000
NMEA,$GPVTG,356.5,T,,M,0.3,N,0.5,K,A*0E,1759653134000
NMEA,$GPGSV,5,1,15,01,27,178,35,03,61,097,39,04,57,015,38,06,32,304,36*79,1759653134000
NMEA,$GPGSV,5,2,15,07,33,212,35,09,48,300,36,16,21,099,35,26,16,059,34*73,1759653134000
NMEA,$GPGSV,5,3,15,31,10,040,27*49,1759653134000
NMEA,$GPGSV,5,4,15,01,27,178,23,03,61,097,25,04,57,015,33,06,32,304,35,8*6A,1759653134000
NMEA,$GPGSV,5,5,15,09,48,300,32,26,16,059,28,8*6B,1759653134000
NMEA,$GLGSV,2,1,08,67,18,071,33,68,45,020,35,69,31,314,35,77,13,030,22*67,1759653134000
NMEA,$GLGSV,2,2,08,78,46,087,45,79,29,155,38,83,32,229,37,84,33,297,27*63,1759653134000
NMEA,$GAGSV,4,1,15,107,32,051,33,112,17,320,17,119,32,271,33,126,41,186,32*6B,1759653134000
NMEA,$GAGSV,4,2,15,127,19,119,32,129,64,335,41,130,14,068,23,133,58,271,42*60,1759653134000
NMEA,$GAGSV,4,3,15,107,32,051,25,119,32,271,26,126,41,186,24,127,19,119,32,1*77,1759653134000
NMEA,$GAGSV,4,4,15,129,64,335,36,130,14,068,26,133,58,271,31,1*7E,1759653134000
NMEA,$BDGSV,5,1,15,205,49,138,37,206,33,044,35,209,48,050,36,213,13,124,29*67,1759653134000
NMEA,$BDGSV,5,2,15,216,25,041,42,221,58,350,47,222,38,075,41,226,27,182,34*62,1759653134000
NMEA,$BDGSV,5,3,15,234,22,253,38,236,25,051,37*60,1759653134000
NMEA,$BDGSV,5,4,15,221,58,350,35,222,38,075,34,226,27,182,20,234,22,253,26,5*7B,1759653134000
NMEA,$BDGSV,5,5,15,236,25,051,28,5*7B,1759653134000
NMEA,$GIGSV,1,1,02,02,19,197,26,09,76,110,25,1*71,1759653134000
NMEA,$GPGSA,A,3,01,03,07,,,,,,,,,,1.2,0.4,1.0*31,1759653134000
NMEA,$GNGSA,A,3,67,68,78,79,83,84,,,,,,,1.2,0.4,1.0*23,1759653134000
NMEA,$GAGSA,A,3,107,119,126,129,133,,,,,,,,1.2,0.4,1.0*14,1759653134000
NMEA,$BDGSA,A,3,206,209,221,234,,,,,,,,,1.2,0.4,1.0*2E,1759653134000
NMEA,$PSSGR,GSA,A,3,04,06,09,,,,,,,,,,1.2,0.4,1.0,1,8*48,1759653134000
NMEA,$PSSGR,GSA,A,3,127,130,,,,,,,,,,,1.2,0.4,1.0,3,1*4E,1759653134000
NMEA,$PSSGR,GSA,A,3,222,,,,,,,,,,,,1.2,0.4,1.0,4,5*79,1759653134000
NMEA,$GPRMC,083214.000,A,3205.0171,N,03448.1616,E,0.3,356.5,051025,,,A*6F,1759653134000
NMEA,$GPGGA,083215.000,3205.0173,N,03448.1613,E,1,23,0.6,35.6,M,17.1,M,,*6E,1759653135000
NMEA,$PSAMSA,083215.000,3205.0173,N,03448.1613,E,0,M,,*6B,1759653135000
NMEA,$GPGLL,3205.0173,N,03448.1613,E,083215.000,A,A*5B,1759653135000
NMEA,$GPVTG,350.1,T,,M,0.5,N,0.9,K,A*06,1759653135000
NMEA,$GPGSV,5,1,15,01,27,178,35,03,61,097,39,04,57,015,37,06,32,304,35*75,1759653135000
NMEA,$GPGSV,5,2,15,07,33,212,35,09,48,300,36,16,21,099,35,26,16,059,34*73,1759653135000
NMEA,$GPGSV,5,3,15,31,10,040,27*49,1759653135000
NMEA,$GPGSV,5,4,15,01,27,178,23,03,61,097,25,04,57,015,32,06,32,304,35,8*6B,1759653135000
NMEA,$GPGSV,5,5,15,09,48,300,31,26,16,059,27,8*67,1759653135000
NMEA,$GLGSV,2,1,08,67,18,071,33,68,45,020,35,69,31,314,35,77,13,030,22*67,1759653135000
NMEA,$GLGSV,2,2,08,78,46,087,45,79,29,155,38,83,32,229,37,84,33,297,27*63,1759653135000
NMEA,$GAGSV,4,1,15,107,32,051,34,112,17,320,17,119,32,271,33,126,41,186,32*6C,1759653135000
NMEA,$GAGSV,4,2,15,127,19,119,31,129,64,335,42,130,14,068,23,133,58,271,42*60,1759653135000
NMEA,$GAGSV,4,3,15,107,32,051,25,119,32,271,26,126,41,186,23,127,19,119,32,1*70,1759653135000
NMEA,$GAGSV,4,4,15,129,64,335,36,130,14,068,25,133,58,271,31,1*7D,1759653135000
NMEA,$BDGSV,5,1,15,205,49,138,36,206,33,044,35,209,48,050,36,213,13,124,31*6F,1759653135000
NMEA,$BDGSV,5,2,15,216,25,041,41,221,58,350,47,222,38,075,39,226,27,182,34*6E,1759653135000
NMEA,$BDGSV,5,3,15,234,22,253,38,236,25,051,37*60,1759653135000
NMEA,$BDGSV,5,4,15,221,58,350,35,222,38,075,34,226,27,182,20,234,22,253,26,5*7B,1759653135000
NMEA,$BDGSV,5,5,15,236,25,051,28,5*7B,1759653135000
NMEA,$GIGSV,1,1,02,02,19,197,26,09,76,110,25,1*71,1759653135000
NMEA,$GPGSA,A,3,03,07,,,,,,,,,,,1.2,0.6,1.0*32,1759653135000
NMEA,$GNGSA,A,3,67,68,78,79,83,84,,,,,,,1.2,0.6,1.0*21,1759653135000
NMEA,$GAGSA,A,3,107,119,126,129,133,,,,,,,,1.2,0.6,1.0*16,1759653135000
NMEA,$BDGSA,A,3,206,209,221,234,,,,,,,,,1.2,0.6,1.0*2C,1759653135000
NMEA,$PSSGR,GSA,A,3,04,06,09,26,,,,,,,,,1.2,0.6,1.0,1,8*4E,1759653135000
NMEA,$PSSGR,GSA,A,3,127,130,,,,,,,,,,,1.2,0.6,1.0,3,1*4C,1759653135000
NMEA,$GPRMC,083215.000,A,3205.0173,N,03448.1613,E,0.5,350.1,051025,,,A*6D,1759653135000
NMEA,$GPGGA,083216.000,3205.0178,N,03448.1611,E,1,19,0.6,35.8,M,17.1,M,,*63,1759653136000
NMEA,$PSAMSA,083216.000,3205.0178,N,03448.1611,E,0,M,,*61,1759653136000
NMEA,$GPGLL,3205.0178,N,03448.1611,E,083216.000,A,A*51,1759653136000
NMEA,$GPVTG,343.6,T,,M,0.8,N,1.5,K,A*03,1759653136000
NMEA,$GPGSV,5,1,15,01,27,178,35,03,61,097,39,04,57,015,37,06,32,304,35*75,1759653136000
NMEA,$GPGSV,5,2,15,07,33,212,35,09,48,300,36,16,21,099,35,26,16,059,34*73,1759653136000
NMEA,$GPGSV,5,3,15,31,10,040,28*46,1759653136000
NMEA,$GPGSV,5,4,15,01,27,178,22,03,61,097,24,04,57,015,32,06,32,304,34,8*6A,1759653136000
NMEA,$GPGSV,5,5,15,09,48,300,31,26,16,059,27,8*67,1759653136000
NMEA,$GLGSV,2,1,08,67,18,071,33,68,45,021,34,69,32,314,34,77,12,030,23*65,1759653136000
NMEA,$GLGSV,2,2,08,78,47,087,45,79,30,155,38,83,32,229,37,84,33,297,27*6A,1759653136000
NMEA,$GAGSV,4,1,14,107,32,051,34,112,17,320,17,119,32,271,33,126,41,186,31*6E,1759653136000
NMEA,$GAGSV,4,2,14,127,19,119,30,129,64,335,42,133,58,271,42*68,1759653136000
NMEA,$GAGSV,4,3,14,107,32,051,29,119,32,271,26,126,41,186,23,127,19,119,31,1*7E,1759653136000
NMEA,$GAGSV,4,4,14,129,64,335,36,130,14,068,22,133,58,271,31,1*7B,1759653136000
NMEA,$BDGSV,5,1,15,205,49,138,36,206,33,044,35,209,48,050,36,213,13,124,32*6C,1759653136000
NMEA,$BDGSV,5,2,15,216,25,041,40,221,58,350,47,222,38,075,37,226,27,182,34*61,1759653136000
NMEA,$BDGSV,5,3,15,234,22,253,38,236,25,051,37*60,1759653136000
NMEA,$BDGSV,5,4,15,221,58,350,34,222,38,075,34,226,27,182,20,234,22,253,27,5*7B,1759653136000
NMEA,$BDGSV,5,5,15,236,25,051,31,5*73,1759653136000
NMEA,$GIGSV,1,1,02,02,19,197,26,09,76,110,25,1*71,1759653136000
NMEA,$GPGSA,A,3,03,07,,,,,,,,,,,1.4,0.6,1.2*36,1759653136000
NMEA,$GNGSA,A,3,78,79,83,84,,,,,,,,,1.4,0.6,1.2*2A,1759653136000
NMEA,$GAGSA,A,3,129,133,,,,,,,,,,,1.4,0.6,1.2*28,1759653136000
NMEA,$BDGSA,A,3,206,209,221,,,,,,,,,,1.4,0.6,1.2*1D,1759653136000
NMEA,$PSSGR,GSA,A,3,04,06,09,26,,,,,,,,,1.4,0.6,1.2,1,8*4A,1759653136000
NMEA,$PSSGR,GSA,A,3,107,119,127,,,,,,,,,,1.4,0.6,1.2,3,1*75,1759653136000
NMEA,$PSSGR,GSA,A,3,222,,,,,,,,,,,,1.4,0.6,1.2,4,5*7F,1759653136000
NMEA,$GPRMC,083216.000,A,3205.0178,N,03448.1611,E,0.8,343.6,051025,,,A*6F,1759653136000
NMEA,$GPGGA,083217.000,3205.0179,N,03448.1608,E,1,16,0.6,36.1,M,17.1,M,,*6E,1759653137000
NMEA,$PSAMSA,083217.000,3205.0179,N,03448.1608,E,0,M,,*69,1759653137000
NMEA,$GPGLL,3205.0179,N,03448.1608,E,083217.000,A,A*59,1759653137000
NMEA,$GPVTG,349.5,T,,M,1.0,N,1.8,K,A*0E,1759653137000
NMEA,$GPGSV,5,1,15,01,27,178,35,03,61,097,38,04,57,015,36,06,32,304,35*75,1759653137000
NMEA,$GPGSV,5,2,15,07,33,212,35,09,48,300,36,16,21,099,35,26,16,059,34*73,1759653137000
NMEA,$GPGSV,5,3,15,31,10,040,28*46,1759653137000
NMEA,$GPGSV,5,4,15,01,27,178,22,03,61,097,24,04,57,015,31,06,32,304,33,8*6E,1759653137000
NMEA,$GPGSV,5,5,15,09,48,300,30,26,16,059,26,8*67,1759653137000
NMEA,$GLGSV,2,1,07,67,18,071,33,68,45,021,34,69,32,314,34,77,12,030,23*6A,1759653137000
NMEA,$GLGSV,2,2,07,79,30,155,38,83,32,229,38,84,33,297,26*59,1759653137000
NMEA,$GAGSV,5,1,15,107,32,051,34,112,17,320,17,119,32,271,32,126,41,186,31*6F,1759653137000
NMEA,$GAGSV,5,2,15,127,19,119,33,129,64,335,42,130,14,068,19,133,58,271,42*6A,1759653137000
NMEA,$GAGSV,5,3,15*6A,1759653137000
NMEA,$GAGSV,5,4,15,107,32,051,29,119,32,271,25,126,41,186,23,127,19,119,31,1*7A,1759653137000
NMEA,$GAGSV,5,5,15,129,64,335,36,133,58,271,31,1*73,1759653137000
NMEA,$BDGSV,5,1,15,205,49,138,35,206,33,044,35,209,48,050,36,213,13,124,33*6E,1759653137000
NMEA,$BDGSV,5,2,15,216,25,041,39,221,58,350,46,222,38,075,36,226,27,182,34*6F,1759653137000
NMEA,$BDGSV,5,3,15,234,22,253,38,236,25,051,37*60,1759653137000
NMEA,$BDGSV,5,4,15,221,58,350,33,222,38,075,33,226,27,182,20,234,22,253,27,5*7B,1759653137000
NMEA,$BDGSV,5,5,15,236,25,051,36,5*74,1759653137000
NMEA,$GIGSV,1,1,02,02,19,197,26,09,76,110,25,1*71,1759653137000
NMEA,$GPGSA,A,3,03,,,,,,,,,,,,1.6,0.6,1.4*35,1759653137000
NMEA,$GNGSA,A,3,79,83,,,,,,,,,,,1.6,0.6,1.4*2D,1759653137000
NMEA,$GAGSA,A,3,107,126,129,133,,,,,,,,,1.6,0.6,1.4*2F,1759653137000
NMEA,$BDGSA,A,3,206,209,221,,,,,,,,,,1.6,0.6,1.4*19,1759653137000
NMEA,$PSSGR,GSA,A,3,04,06,09,26,,,,,,,,,1.6,0.6,1.4,1,8*4E,1759653137000
NMEA,$PSSGR,GSA,A,3,119,,,,,,,,,,,,1.6,0.6,1.4,3,1*73,1759653137000
NMEA,$PSSGR,GSA,A,3,222,,,,,,,,,,,,1.6,0.6,1.4,4,5*7B,1759653137000
NMEA,$GPRMC,083217.000,A,3205.0179,N,03448.1608,E,1.0,349.5,051025,,,A*67,1759653137000
NMEA,$GPGGA,083218.000,3205.0181,N,03448.1607,E,1,14,0.8,36.5,M,17.1,M,,*61,1759653138000
NMEA,$PSAMSA,083218.000,3205.0181,N,03448.1607,E,0,M,,*6E,1759653138000
NMEA,$GPGLL,3205.0181,N,03448.1607,E,083218.000,A,A*5E,1759653138000
NMEA,$GPVTG,359.9,T,,M,1.8,N,3.4,K,A*05,1759653138000
NMEA,$GPGSV,5,1,14,01,27,178,35,03,61,097,38,04,57,015,36,06,32,304,34*75,1759653138000
NMEA,$GPGSV,5,2,14,07,33,212,35,09,48,300,35,16,21,099,35,26,16,059,33*76,1759653138000
NMEA,$GPGSV,5,3,14,31,10,040,28*47,1759653138000
NMEA,$GPGSV,5,4,14,01,27,178,24,03,61,097,24,04,57,015,30,06,32,304,33,8*68,1759653138000
NMEA,$GPGSV,5,5,14,09,48,300,30,8*5D,1759653138000
NMEA,$GLGSV,2,1,08,67,18,071,33,68,45,021,34,69,32,314,33,77,12,030,24*65,1759653138000
NMEA,$GLGSV,2,2,08,78,47,087,42,79,30,155,38,83,32,229,38,84,33,297,26*63,1759653138000
NMEA,$GAGSV,5,1,15,107,32,051,34,112,17,320,17,119,32,271,31,126,41,186,31*6C,1759653138000
NMEA,$GAGSV,5,2,15,127,19,119,33,129,64,335,42,130,14,068,16,133,58,271,41*66,1759653138000
NMEA,$GAGSV,5,3,15*6A,1759653138000
NMEA,$GAGSV,5,4,15,107,32,051,28,119,32,271,25,126,41,186,23,127,19,119,30,1*7A,1759653138000
NMEA,$GAGSV,5,5,15,129,64,335,36,133,58,271,30,1*72,1759653138000
NMEA,$BDGSV,5,1,15,205,49,138,35,206,33,044,36,209,48,050,36,213,13,124,33*6D,1759653138000
NMEA,$BDGSV,5,2,15,216,25,041,38,221,58,350,46,222,38,075,36,226,27,182,34*6E,1759653138000
NMEA,$BDGSV,5,3,15,234,22,253,38,236,25,051,37*60,1759653138000
NMEA,$BDGSV,5,4,15,221,58,350,34,222,38,075,32,226,27,182,20,234,22,253,27,5*7D,1759653138000
NMEA,$BDGSV,5,5,15,236,25,051,35,5*77,1759653138000
NMEA,$GIGSV,1,1,02,02,19,197,26,09,76,110,25,1*71,1759653138000
NMEA,$GPGSA,A,3,03,,,,,,,,,,,,1.8,0.8,1.6*37,1759653138000
NMEA,$GNGSA,A,3,79,83,,,,,,,,,,,1.8,0.8,1.6*2F,1759653138000
NMEA,$GAGSA,A,3,107,129,133,,,,,,,,,,1.8,0.8,1.6*18,1759653138000
NMEA,$BDGSA,A,3,206,209,216,221,,,,,,,,,1.8,0.8,1.6*2E,1759653138000
NMEA,$PSSGR,GSA,A,3,09,,,,,,,,,,,,1.8,0.8,1.6,1,8*4A,1759653138000
NMEA,$PSSGR,GSA,A,3,119,,,,,,,,,,,,1.8,0.8,1.6,3,1*71,1759653138000
NMEA,$PSSGR,GSA,A,3,222,236,,,,,,,,,,,1.8,0.8,1.6,4,5*4E,1759653138000
NMEA,$GPRMC,083218.000,A,3205.0181,N,03448.1607,E,1.8,359.9,051025,,,A*65,1759653138000
NMEA,$GPGGA,083219.000,3205.0188,N,03448.1608,E,1,15,0.8,36.7,M,17.1,M,,*65,1759653139000
NMEA,$PSAMSA,083219.000,3205.0188,N,03448.1608,E,0,M,,*69,1759653139000
NMEA,$GPGLL,3205.0188,N,03448.1608,E,083219.000,A,A*59,1759653139000
NMEA,$GPVTG,2.1,T,,M,2.2,N,4.1,K,A*0B,1759653139000
NMEA,$GPGSV,5,1,15,01,27,178,35,03,61,097,38,04,57,015,35,06,32,304,34*77,1759653139000
NMEA,$GPGSV,5,2,15,07,33,212,35,09,48,300,35,16,21,099,35,26,16,059,31*75,1759653139000
NMEA,$GPGSV,5,3,15,31,10,040,28*46,1759653139000
NMEA,$GPGSV,5,4,15,01,27,178,24,03,61,097,24,04,57,015,30,06,32,304,33,8*69,1759653139000
NMEA,$GPGSV,5,5,15,09,48,300,30,8*5C,1759653139000
NMEA,$GLGSV,2,1,08,67,18,071,33,68,45,021,33,69,32,314,33,77,12,030,24*62,1759653139000
NMEA,$GLGSV,2,2,08,78,47,087,41,79,30,155,38,83,32,229,41,84,33,297,26*6E,1759653139000
NMEA,$GAGSV,5,1,14,107,32,051,34,112,17,320,17,119,32,271,30,126,41,186,31*6C,1759653139000
NMEA,$GAGSV,5,2,14,127,19,119,35,129,64,335,42,130,14,068,23,133,58,270,40*67,1759653139000
NMEA,$GAGSV,5,3,14*6B,1759653139000
NMEA,$GAGSV,5,4,14,107,32,051,28,119,32,271,25,127,19,119,29,129,64,335,36,1*75,1759653139000
NMEA,$GAGSV,5,5,14,133,58,270,30,1*7A,1759653139000
NMEA,$BDGSV,5,1,15,205,49,138,34,206,33,044,37,209,48,050,35,213,13,124,33*6E,1759653139000
NMEA,$BDGSV,5,2,15,216,25,041,38,221,58,350,46,222,38,075,35,226,27,182,34*6D,1759653139000
NMEA,$BDGSV,5,3,15,234,22,253,39,236,25,051,37*61,1759653139000
NMEA,$BDGSV,5,4,15,221,58,350,34,222,38,075,32,226,27,182,20,234,22,253,26,5*7C,1759653139000
NMEA,$BDGSV,5,5,15,236,25,051,35,5*77,1759653139000
NMEA,$GIGSV,1,1,02,02,19,197,26,09,76,110,25,1*71,1759653139000
NMEA,$GPGSA,A,3,01,,,,,,,,,,,,1.8,0.8,1.6*35,1759653139000
NMEA,$GNGSA,A,3,68,83,,,,,,,,,,,1.8,0.8,1.6*2F,1759653139000
NMEA,$GAGSA,A,3,107,129,,,,,,,,,,,1.8,0.8,1.6*29,1759653139000
NMEA,$BDGSA,A,3,206,209,221,236,,,,,,,,,1.8,0.8,1.6*2C,1759653139000
NMEA,$PSSGR,GSA,A,3,03,04,06,09,,,,,,,,,1.8,0.8,1.6,1,8*4B,1759653139000
NMEA,$PSSGR,GSA,A,3,119,133,,,,,,,,,,,1.8,0.8,1.6,3,1*40,1759653139000
NMEA,$GPRMC,083219.000,A,3205.0188,N,03448.1608,E,2.2,2.1,051025,,,A*6E,1759653139000
NMEA,$GPGGA,083220.000,3205.0193,N,03448.1606,E,1,21,0.6,37.2,M,17.1,M,,*66,1759653140000
NMEA,$PSAMSA,083220.000,3205.0193,N,03448.1606,E,0,M,,*67,1759653140000
NMEA,$GPGLL,3205.0193,N,03448.1606,E,083220.000,A,A*57,1759653140000
NMEA,$GPVTG,359.2,T,,M,2.3,N,4.3,K,A*06,1759653140000
NMEA,$GPGSV,5,1,15,01,27,178,35,03,61,097,36,04,57,015,35,06,32,304,34*79,1759653140000
NMEA,$GPGSV,5,2,15,07,33,212,36,09,48,300,35,16,21,099,35,26,16,059,30*77,1759653140000
NMEA,$GPGSV,5,3,15,31,10,040,28*46,1759653140000
NMEA,$GPGSV,5,4,15,01,27,178,23,03,61,097,23,04,57,015,29,06,32,304,32,8*60,1759653140000
NMEA,$GPGSV,5,5,15,09,48,300,30,8*5C,1759653140000
NMEA,$GLGSV,2,1,08,67,18,071,34,68,45,021,33,69,32,314,33,77,12,030,24*65,1759653140000
NMEA,$GLGSV,2,2,08,78,47,087,39,79,30,155,38,83,32,229,44,84,33,297,26*64,1759653140000
NMEA,$GAGSV,4,1,14,107,32,051,35,112,17,320,17,119,32,271,29,126,41,186,30*65,1759653140000
NMEA,$GAGSV,4,2,14,127,19,119,35,129,64,335,42,130,14,068,22,133,58,270,39*69,1759653140000
NMEA,$GAGSV,4,3,14*6A,1759653140000
NMEA,$GAGSV,4,4,14,107,32,051,28,127,19,119,28,129,64,335,36,133,58,270,30,1*74,1759653140000
NMEA,$BDGSV,5,1,15,205,49,138,34,206,33,044,38,209,48,050,35,213,13,124,33*61,1759653140000
NMEA,$BDGSV,5,2,15,216,25,041,37,221,58,350,46,222,38,075,35,226,27,182,34*62,1759653140000
NMEA,$BDGSV,5,3,15,234,22,253,39,236,25,051,37*61,1759653140000
NMEA,$BDGSV,5,4,15,221,58,350,34,222,38,075,31,226,27,182,20,234,22,253,26,5*7F,1759653140000
NMEA,$BDGSV,5,5,15,236,25,051,34,5*76,1759653140000
NMEA,$GIGSV,1,1,02,02,19,197,26,09,76,110,25,1*71,1759653140000
NMEA,$GPGSA,A,3,01,07,,,,,,,,,,,1.6,0.6,1.4*30,1759653140000
NMEA,$GNGSA,A,3,68,69,78,79,83,,,,,,,,1.6,0.6,1.4*23,1759653140000
NMEA,$GAGSA,A,3,107,119,126,129,,,,,,,,,1.6,0.6,1.4*27,1759653140000
NMEA,$BDGSA,A,3,206,209,221,222,234,,,,,,,,1.6,0.6,1.4*1E,1759653140000
NMEA,$PSSGR,GSA,A,3,03,04,06,09,,,,,,,,,1.6,0.6,1.4,1,8*49,1759653140000
NMEA,$GPRMC,083220.000,A,3205.0193,N,03448.1606,E,2.3,359.2,051025,,,A*6F,1759653140000
