     4.01           OBSERVATION DATA    M                   RINEX VERSION / TYPE
GnssLogger          samsung 15          20251005 083211 UTC PGM / RUN BY / DATE
Google GnssLogger                                           MARKER NAME
Unknown                                                     MARKER NUMBER
Unknown             Unknown                                 OBSERVER / AGENCY
Unknown             GnssLogger          v3.1.1.1            REC # / TYPE / VERS
Unknown             Unknown                                 ANT # / TYPE
        0.0000        0.0000        0.0000                  ANTENNA: DELTA H/E/N
G    8 C1C L1C D1C S1C C5Q L5Q D5Q S5Q                      SYS / # / OBS TYPES
R    4 C1C L1C D1C S1C                                      SYS / # / OBS TYPES
C    8 C2I L2I D2I S2I C5P L5P D5P S5P                      SYS / # / OBS TYPES
E    8 C1C L1C D1C S1C C5Q L5Q D5Q S5Q                      SYS / # / OBS TYPES
  2025    10    05    08    32   11.0000000     GPS         TIME OF FIRST OBS
 8 R03  5 R04  6 R05  1 R13 -2 R14 -7 R15  0 R19  3 R20  2  GLONASS SLOT / FRQ #
samsung SM-S711B (Android 15) HW Year: 2021 HW Model:       COMMENT
S.LSI,K040,SPOTNAV_4.6.2_7_E23                              COMMENT
                                                            END OF HEADER
> 2025 10 05 08 32 11.0000000  0 33                      
G04  20965297.22707    572841.38507     -1680.09607        44.10007  20965302.92306 -14882972.08606     -1254.64806        40.40006
G09  21168033.67505 -28003896.17905       269.30805        34.10005                                                                
G01  22949743.42326  -5593975.49426     -4335.26626        36.10026  22949782.39623 -19994776.23623     -3235.74223        21.00023
G07  22692111.97825 -11883897.28725      1803.72125        34.30025                                                                
G26  23826468.77925 -22945121.50525     -1761.44425        31.50025                                                                
G06  22887110.18326   -201677.00226       733.29426        36.20026  22887033.73625   1932126.07025       547.81025        33.10025
G31  24503427.43024 -26838220.00924     -4531.73224        28.90024                                                                
G16  23192955.75124 -28217353.71424       859.38624        27.30024                                                                
G03  20554951.20324    590735.15824     -2004.65224        27.60024                                                                
C21  22561140.74707     44578.58207      -199.32507        47.20007  22561156.33626     25889.30026      -149.56826        38.40026
R14  20485695.24807 109569273.00307      -228.42707        44.70007
R19  21490057.24307 115327604.78807     -4068.51107        43.70007
E27  27063578.27507 -26785282.75707      1297.40707        44.30007  27063594.16406 -18988988.41606       968.95506        39.10006
E33  23994980.02106   -945060.53206     -1055.79206        41.20006  23994930.55525 -15369874.29225      -787.28225        30.80025
C22  23369461.85807  -4453112.80807     -2168.31507        42.50007  23369475.64906 -19020353.46506     -1635.60706        37.70006
R15  21706521.78806 116362970.70306      2944.61806        37.60006
C09  37832745.13605 -27985450.02705     -1232.83305        34.10005                                                                
C34  24602186.56125 -29632898.72625     -2619.71725        33.40025  24602026.47114 -17011502.25214     -1975.88714        26.30014
R05  21537129.15605 115498327.31405       730.62505        33.50005
E07  25793473.05015 -29805905.12715     -2605.66315        32.90015  25793470.35224 -17972233.04924     -1947.80424        27.10024
R03  22672703.71425 121739307.56525     -2787.47525        31.00025
E26  24929676.54425 -21132890.26825     -3455.63625        30.80025  24929697.53024 -19644995.67424     -2578.84624        28.50024
C36  24464113.54726  -2224119.69226     -2686.83826        36.00026  24464170.20724 -16269092.27024     -2022.17724        28.50024
C16  39593764.40724 -29305914.23424     -1669.43324        29.20024                                                                
C06  38215111.82924    464673.42324     -1566.70824        28.60024                                                                
E29  23758790.63225    373382.37525     -1063.62125        32.30025  23758796.32825  -5355539.54625      -794.95425        31.10025
R04  20479634.04426 110038188.68426     -1175.32926        36.10026
C13  40034421.54724 -29587138.40224     -1470.52524        27.70024                                                                
R20  21514488.53024 115417797.92124      -508.61324        28.00024
C26  24538026.17824   -744814.00424      2299.77824        27.80024  24537997.69823 -21914098.88123      1738.83723        22.20023
E19  24972359.49524 -30133650.78524       436.68324        25.00024                                                                
E30  27436538.68023 -28917288.62823      -291.63923        21.40023                                                                
R13  23315575.96323 124873515.23923     -3934.82623        19.50023
> 2025 10 05 08 32 12.0000006  0 33                      
G04  20965625.49907    574521.11507     -1680.44607        43.70007  20965638.99006 -14881717.76706     -1254.82306        40.20006
G09  21167975.21605 -28004165.78705       268.82405        34.40005                                                                
G06  22886983.07116   -202407.80416       729.55516        35.70016  22886903.92625   1931582.67625       540.55825        32.90025
G16  23192827.44024 -28218210.81224       855.13124        28.40024                                                                
G01  22950565.15426  -5589640.57826     -4335.82826        35.70026  22950622.11523 -19991537.69923     -3239.93323        20.90023
G07  22691808.88825 -11885702.03325      1804.74425        34.20025                                                                
G26  23826809.94325 -22943359.90025     -1762.52725        31.90025                                                                
G31  24504286.33624 -26833684.42524     -4536.39324        28.70024                                                                
G03  20555334.63824    592741.57724     -2007.96524        26.60024  20555355.02424 -22471129.08324     -1493.46424        24.50024
C21  22561182.71807     44777.64207      -199.76207        47.00007  22561211.19826     26038.68426      -149.84426        37.40026
R19  21490840.90007 115331714.96807     -4069.26407        44.30007
R14  20485761.50207 109569544.52707      -229.77207        44.60007
E33  23995205.46506   -944004.75906     -1056.72906        41.40006  23995148.20515 -15369085.29115      -789.74115        30.40015
C22  23369892.66007  -4450943.41807     -2170.23307        42.30007  23369913.34626 -19018720.03926     -1633.08326        37.20026
E27  27063342.63807 -26786580.94207      1297.60907        43.40007  27063361.82406 -18989957.84606       968.97706        39.40006
R15  21705994.45306 116360070.59106      2944.31606        37.30006
C34  24602698.90615 -29630278.77815     -2621.07215        33.80015  24602546.01204 -17009527.76504     -1975.01204        26.70004
C09  37832979.27305 -27984218.12905     -1232.34205        34.10005                                                                
R05  21537004.74205 115497580.80605       730.43705        33.50005
E07  25793991.99105 -29803297.55505     -2608.85005        32.90005  25793981.19824 -17970285.49124     -1947.85524        26.90024
R04  20479860.08825 110039317.29825     -1181.85225        35.10025
E26  24930344.48225 -21129435.63625     -3454.70425        30.80025  24930371.76324 -19642415.46324     -2581.45624        28.90024
R03  22673250.23525 121742149.94525     -2783.91225        31.00025
C36  24464642.98025  -2221433.28325     -2687.00825        35.10025  24464703.83815 -16267068.65015     -2024.86215        29.50015
C16  39594084.88525 -29304240.82225     -1675.49625        29.60025                                                                
C06  38215400.52924    466242.92924     -1571.29424        28.50024                                                                
E29  23759037.96025    374447.75025     -1065.37425        31.60025  23759015.47625  -5354743.72325      -796.68925        30.30025
E19  24972317.82424 -30134086.95324       436.16824        26.70024  24972287.84524 -22510154.87724       321.60524        25.50024
C13  40034764.50924 -29585664.17124     -1476.45324        27.70024                                                                
R20  21514672.60224 115418700.00724      -506.56424        27.80024
E30  27436588.74523 -28916992.76423      -298.32723        21.60023                                                                
R13  23316234.00723 124876946.60823     -3938.09623        19.30023
C26                                                                  24537571.09323 -21915830.62223      1728.91423        21.80023
> 2025 10 05 08 32 13.0000011  0 31                      
G04  20965922.59407    576199.82907     -1678.20507        43.30007  20965945.37806 -14880464.08306     -1253.36506        40.10006
G26  23827131.62015 -22941599.08715     -1760.41615        33.60015                                                                
G09  21167915.25705 -28004436.22805       270.85905        34.80005                                                                
G06  22886723.15106   -203140.06906       732.99506        35.50006  22886748.93325   1931035.12025       549.63725        32.70025
G01  22951375.79325  -5585310.87725     -4327.09125        35.30025  22951432.75423 -19988302.95023     -3232.85323        20.80023
G07  22691470.72215 -11887509.20615      1808.38715        34.00015                                                                
G16  23192638.27125 -28219070.16625       860.48225        31.70025                                                                
G31  24505144.94124 -26829142.91624     -4544.47024        28.70024                                                                
G03  20555716.27424    594747.92424     -2006.31024        25.70024  20555722.56924 -22469635.72824     -1493.35424        24.30024
C21  22561232.48407     44975.73807      -197.61507        46.80007  22561235.78126     26187.66526      -148.78026        37.60026
R04  20480062.74816 110040483.45916     -1178.02316        40.20016
R19  21491597.57707 115335842.75107     -4067.79707        44.30007
R14  20485789.38307 109569773.33907      -228.15707        44.50007
E33  23995393.13507   -942949.54407     -1054.93607        41.70007  23995333.77605 -15368297.26605      -787.53705        30.00005
C22  23370300.07807  -4448774.86807     -2168.12807        42.00007  23370314.16826 -19017091.08426     -1626.71926        36.70026
E27  27063080.61907 -26787879.82207      1299.22507        42.80007  27063099.20606 -18990927.71606       970.08906        40.30006
R15  21705407.75926 116357015.26626      2946.04126        37.00026
C34  24603180.37305 -29627659.35405     -2619.16005        34.30005  24603034.67404 -17007553.96104     -1973.46004        26.90004
E07  25794468.36105 -29800690.81105     -2606.33005        33.70005  25794466.86224 -17968346.59024     -1934.57324        26.70024
C09  37833223.90425 -27982988.42725     -1228.60425        34.00025                                                                
E26  24930989.93525 -21125984.59325     -3449.24825        30.80025  24931011.82025 -19639838.04025     -2576.02825        30.50025
C36  24465168.21625  -2218748.88525     -2683.39025        34.40025  24465207.78905 -16265045.35405     -2023.13205        30.00005
C16  39594380.48125 -29302573.50025     -1664.27625        29.70025                                                                
E29  23759224.43125    375511.64925     -1063.16125        31.10025  23759198.04924  -5353949.38724      -793.59224        29.40024
C06  38215650.85524    467810.42824     -1566.49524        28.40024                                                                
E19  24972181.71824 -30134524.45824       438.17424        27.10024  24972187.41424 -22510473.06924       318.19224        25.20024
C26  24537351.34524 -30032531.12224      2299.12124        25.80024  24537116.00823 -21917558.59523      1726.08723        21.40023
R20  21514807.50924 115419501.86424      -518.18224        27.70024
R03  22673636.66825 121744299.92125     -2786.31825        29.60025
E30  27436625.32023 -28916693.85723      -300.42823        21.90023                                                                
R13  23316812.00723 124880112.84823     -3933.63823        19.10023
> 2025 10 05 08 32 14.0000017  0 33                      
G04  20966266.75607    577875.62107     -1674.33007        43.00007  20966272.75107 -14879213.19507     -1249.48907        43.70007
G09  21167887.97605 -28004709.11905       274.11505        35.30005                                                                
G06  22886609.23005   -203874.90105       736.11605        35.40005  22886620.92225   1930485.00925       551.38925        32.60025
G26  23827497.66706 -22939842.82706     -1753.98406        36.50006  23827493.17024 -22615201.79024     -1303.98324        23.70024
G01  22952257.48315  -5580980.11215     -4331.29515        35.10015  22952270.07423 -19985074.32123     -3225.56723        20.80023
G07  22691074.39605 -11889318.97805      1811.06905        33.90005                                                                
G31  24506017.33724 -26824607.12324     -4532.93324        28.90024                                                                
G03  20556106.60424    596747.89724     -1996.78524        25.10024  20556115.59724 -22468141.77824     -1494.24724        23.80024
G16  23192526.44825 -28219931.33125       862.07025        31.40025                                                                
C21  22561288.84507     45171.21007      -194.16007        46.60007  22561287.94526     26333.37926      -144.07926        37.60026
R14  20485848.14207 109570007.48607      -223.20507        44.50007
R19  21492357.25107 115339825.87507     -4064.88707        44.20007
R04  20480296.28607 110041653.44707     -1175.09607        43.80007
E33  23995655.15407   -941897.73507     -1050.10407        42.00007  23995546.62905 -15367511.84505      -784.11905        31.60005
C22  23370732.97807  -4446610.51907     -2162.24807        41.90007  23370733.57826 -19015463.82126     -1626.41626        35.80026
E27  27062839.58607 -26789183.39607      1305.92107        42.30007  27062866.86706 -18991901.14606       975.21006        39.90006
R15  21704871.73026 116354070.80426      2954.05826        36.70026
C34  24603710.10625 -29625042.94025     -2614.90825        34.70025  24603556.61224 -17005580.50424     -1973.28324        26.80024
R05  21536829.96325 115496646.13925       739.27525        33.80025
C09  37833473.33115 -27981761.39815     -1225.69115        34.00015                                                                
E07  25794966.01725 -29798086.62125     -2602.91025        33.70025  25794977.40924 -17966408.90324     -1937.07824        26.50024
C26  24536690.90225 -30118227.03325      2302.75625        32.00025  24536694.20023 -21919288.13223      1730.31823        21.10023
C36  24465701.84725  -2216067.61225     -2679.71025        33.90025  24465742.01925 -16263022.46925     -2022.67825        29.90025
E26  24931688.15125 -21122534.23625     -3450.01025        30.80025  24931681.55625 -19637261.39325     -2576.25825        29.90025
C16  39594719.24625 -29300908.05225     -1664.51125        29.70025                                                                
R03  22674202.97624 121747251.06224     -2773.70824        29.30024
E19  24972116.36424 -30134962.88524       438.88824        27.60024  24972118.46224 -22510795.02424       323.83624        24.80024
C06  38215954.54524    469377.90724     -1567.46824        28.30024                                                                
C13  40035243.57824 -30144702.34124     -1469.84424        26.00024                                                                
R20  21514887.85324 115419851.52624      -519.58724        27.60024
E30  27436694.57223 -28916397.82423      -294.59523        21.90023                                                                
R13  23317582.17423 124884146.29023     -3923.97023        19.00023
E29  23759539.51325    376570.90925     -1056.94025        30.60025  23759421.69525  -5353156.37425      -792.35025        30.10025
> 2025 10 05 08 32 15.0000022  0 33                      
G04  20966570.44507    579547.32907     -1669.66507        42.80007  20966576.14107 -14877964.60607     -1247.43807        43.60007
G06  22886474.92326   -204610.20726       735.54326        35.60026  22886465.03025   1929932.38725       553.87725        32.40025
G09  21167816.32615 -28004985.11215       277.54415        35.30015  21167827.11824 -22474801.74124       214.02024        25.00024
G01  22953107.09525  -5576654.88225     -4322.46025        34.90025  22953081.91223 -19981846.28323     -3227.74123        20.80023
G26  23827811.54926 -22938094.49426     -1744.36726        36.10026  23827817.54524 -22613897.23524     -1304.55424        23.50024
G07  22690724.53825 -11891132.19325      1814.93625        33.80025                                                                
G16  23192341.17625 -28220794.51725       864.19625        31.10025                                                                
G31  24506857.35624 -26820078.62224     -4524.85324        29.00024                                                                
G03  20556483.44324    598744.20424     -1994.47324        25.80024  20556477.14724 -22466654.35824     -1484.15424        24.60024
C21  22561308.03107     45363.42307      -190.58407        46.50007  22561310.43016     26478.02716      -144.11616        37.90016
R14  20485873.92507 109570224.09407      -217.80107        44.40007
C22  23371133.20107  -4444452.01407     -2155.58107        42.80007  23371136.19926 -19013837.35726     -1626.06326        35.50026
R05  21536667.17626 115495856.03526       735.68226        39.10026
E33  23995835.02907   -940850.87607     -1044.38407        42.00007  23995731.00105 -15366730.14605      -779.83705        32.50005
R04  20480497.74607 110042812.71107     -1171.16307        43.50007
E27  27062587.16107 -26790492.57207      1311.97607        42.00007  27062602.15006 -18992878.87206       979.87206        39.80006
R15  21704287.43416 116351030.01116      2952.84716        36.50016
C34  24604221.85225 -29622432.65625     -2607.21725        34.60025  24604038.67824 -17003612.77024     -1964.87224        26.70024
R19  21493112.72827 115343947.53527     -4062.13327        43.70027
E07  25795467.56925 -29795489.60825     -2593.42425        33.70025  25795473.56524 -17964467.86824     -1942.70824        26.40024
C09  37833695.77705 -27980539.58505     -1219.20605        33.90005                                                                
C36  24466215.09225  -2213391.33725     -2673.77425        33.70025  24466238.17624 -16261000.36924     -2021.70824        29.40024
C26  24536267.59525 -30120531.86625      2304.83225        32.00025  24536237.01723 -21921023.67623      1738.54623        20.80023
E19  24972012.63524 -30489518.58724       441.23224        29.00024  24972021.03024 -22511118.90624       324.84424        24.70024
E26  24932315.91725 -21119081.93125     -3453.27825        30.70025  24932320.71425 -19634690.23125     -2568.41725        29.70025
C16  39595019.33825 -29299247.03025     -1658.80825        29.60025                                                                
R03  22674703.33024 121750009.95524     -2772.03124        29.20024
C06  38216214.46524    470940.05024     -1559.47424        28.20024                                                                
R20  21514894.14924 115419964.76324      -509.84724        27.50024
C13  40035520.58624 -30143235.75524     -1466.58524        25.80024                                                                
E30  27436688.27623 -28916105.89423      -289.87923        21.90023                                                                
R13  23318346.34523 124888306.56623     -3925.83223        18.80023
E29  23759750.26725    377626.96225     -1054.44925        30.30025  23759608.76525  -5352366.29325      -788.61425        30.20025
> 2025 10 05 08 32 16.0000028  0 33                      
G04  20966903.51507    581221.64207     -1675.61407        42.90007  20966910.41007 -14876714.43507     -1250.96107        43.20007
G06  22886354.10726   -205344.23326       733.38526        36.10026  22886341.81525   1929385.36925       544.21625        32.30025
G09  21167779.45125 -28005256.10025       268.48525        35.30025  21167777.65224 -22475013.74724       212.00624        24.60024
G01  22953990.58325  -5572324.20725     -4333.39425        34.80025  22953921.63123 -19978612.56823     -3236.55123        20.70023
G26  23828161.40726 -22936341.64826     -1755.10326        35.70026  23828164.40523 -22612586.22723     -1314.23423        23.40023
G03  20556881.56725    600741.19325     -1997.32925        33.20025  20556875.87124 -22465168.23424     -1485.47424        24.50024
G16  23192187.38325 -28221652.99525       856.12325        30.80025                                                                
G31  24507754.63524 -26815548.84824     -4530.40624        29.00024                                                                
G07  22690410.35625 -11892942.24225      1808.46525        33.80025                                                                
C21  22561361.09507     45558.32107      -196.24007        46.80007  22561364.09306     26624.93006      -148.03006        38.40006
C22  23371561.00507  -4442291.69707     -2161.22407        44.00007  23371567.00125 -19012208.29625     -1630.35925        35.20025
R14  20485928.48707 109570435.36707      -224.55607        44.40007
R05  21536548.75817 115495143.94617       732.54517        43.40017
E33  23996037.68907   -939801.43707     -1050.72907        42.00007  23995946.25205 -15365946.35805      -784.83205        32.00005
R04  20480736.68107 110044011.05507     -1177.22807        43.20007
E27  27062356.02107 -26791799.96207      1306.49607        41.80007  27062368.61206 -18993855.06006       975.42006        39.40006
R19  21493885.59327 115348001.07727     -4062.51027        42.40027
R15  21703700.74106 116347813.36006      2948.66706        36.30006
E29  23759809.02625 -30614096.80625     -1063.51225        32.60025  23759828.21325  -5351575.49325      -791.15925        30.40025
C34  24604706.91615 -29619821.75015     -2611.21615        34.60015  24604557.31924 -17001645.01924     -1967.75824        26.60024
E07  25795964.62525 -29792890.75125     -2599.77825        33.80025  25795985.31124 -17962527.66424     -1939.78824        26.20024
C09  37833947.60325 -27979314.34125     -1226.95925        33.80025                                                                
C36  24466753.51925  -2210710.62625     -2682.92825        33.60025  24466761.31424 -16258981.83824     -2016.74324        28.80024
C26  24535833.49625 -30122832.17525      2298.04625        32.10025  24535817.90723 -21922754.90523      1729.07123        20.50023
E26  24932989.85025 -21115630.45025     -3451.06625        30.70025  24932989.25124 -19632122.55724     -2565.93024        29.40024
C16  39595349.41025 -29297582.53525     -1666.22925        29.60025                                                                
E19  24971944.58224 -30489955.99724       437.40924        29.00024  24971953.87624 -22511438.93524       318.10424        24.60024
R03  22675189.59324 121752532.94324     -2775.82024        29.20024
C06  38216545.43624    472504.71024     -1565.91824        28.10024                                                                
R20  21515010.46824 115420508.00424      -512.82724        27.40024
C13  40035817.38024 -30141766.16224     -1471.09724        25.80024                                                                
E30  27436784.80923 -28915814.27823      -291.45823        21.90023                                                                
R13  23319135.69823 124892440.86723     -3935.61223        18.60023
> 2025 10 05 08 32 17.0000034  0 34                      
G04  20967217.69707    582897.90507     -1677.23707        43.70007  20967229.38907 -14875462.69607     -1252.52207        42.80007
G06  22886221.89816   -206074.57116       728.49416        40.60016  22886199.11425   1928840.51525       543.77225        32.10025
G09  21167742.87725 -28005522.66825       264.35925        35.20025  21167726.38824 -22475220.27024       203.78224        24.30024
G01  22954814.41325  -5567993.23225     -4331.12425        34.70025  22954742.46223 -19975376.84723     -3236.72323        20.60023
G26  23828479.48725 -22934586.21125     -1756.73025        35.30025                                                                
G03  20557278.49225    602741.92825     -2002.60625        33.10025  20557248.81324 -22463675.62424     -1495.85424        28.40024
G16  23192001.51125 -28222513.72325       861.85425        30.50025                                                                
G31  24508609.94224 -26811013.33124     -4538.38624        28.90024                                                                
G07  22690043.41025 -11894748.74225      1804.72425        33.80025                                                                
C21  22561395.27107     45754.86407      -197.36707        47.40007  22561400.66706     26772.96406      -148.59906        38.90006
C22  23371976.51707  -4440129.53807     -2163.07707        45.00007  23371979.81525 -19010576.96225     -1632.47025        35.10025
R14  20485961.76407 109570630.62407      -226.18707        44.30007
R05  21536406.95607 115494402.79507       731.49407        43.30007
E33  23996235.85207   -938749.79907     -1052.73607        42.50007  23996142.01725 -15365161.12725      -785.95325        31.70025
E27  27062095.50107 -26793105.89807      1305.20807        41.70007  27062115.58706 -18994830.19206       974.60206        38.70006
R04  20480959.42727 110045222.42227     -1177.53727        42.90027
R19  21494611.99016 115351905.37016     -4073.67116        41.40016
R15  21703147.62426 116344876.55326      2947.82326        36.20026
C36  24467261.96725  -2208029.03625     -2682.02725        33.60025  24467278.75524 -16256960.45424     -2022.81024        29.40024
E07  25796460.18225 -29790293.29425     -2596.75525        34.00025  25796458.98324 -17960584.86724     -1944.09324        26.10024
C34  24605212.36625 -29617208.15525     -2614.93825        34.50025  24605055.27524 -16999671.40424     -1976.54624        26.40024
E29  23759999.09525 -30613033.80525     -1063.00025        34.40025  23760023.97825  -5350782.17925      -794.57125        31.70025
C09  37834177.54415 -27978087.32915     -1227.89415        33.80015                                                                
C26  24535399.39625 -30125125.41125      2289.69725        32.10025  24535379.91023 -21924486.62023      1731.95723        20.20023
E26  24933627.80925 -21112174.79425     -3457.74125        31.20025  24933643.09824 -19629545.62524     -2581.55924        29.10024
R03  22675675.85624 121755153.20624     -2774.17424        29.40024
C16  39595675.88425 -29295912.32425     -1673.06825        29.60025                                                                
E19  24971861.84024 -30711137.39524       433.78724        28.80024  24971868.13524 -22511757.63224       318.03024        25.20024
C06  38216859.61924    474068.67124     -1563.61024        28.00024                                                                
C13  40036083.59624 -30140291.18024     -1477.67424        27.00024                                                                
R20  21515080.02024 115420897.45724      -520.18524        27.30024
E30  27436847.46623 -28915517.92523      -298.72223        21.90023                                                                
R13  23319943.93923 124896775.35223     -3947.20323        18.60023
E12  27094949.45722 -30256107.76822      1410.76522        17.00022                                                                
> 2025 10 05 08 32 18.0000039  0 34                      
G04  20967517.49017    584573.51917     -1676.04017        43.80017  20967536.37707 -14874210.25607     -1252.79007        42.40007
G06  22886070.20317   -206804.91717       730.35117        41.50017  22886045.32125   1928296.14325       544.13025        32.10025
G07  22689714.23825 -11896555.73825      1807.24425        34.40025                                                                
G01  22955651.13325  -5563660.11925     -4334.17925        34.60025  22955552.50223 -19972141.84923     -3234.63423        20.60023
G26  23828820.95125 -22932829.50725     -1757.33725        35.00025                                                                
G03  20557619.95625    604740.62325     -1997.67625        32.90025  20557616.65824 -22462182.57924     -1493.26124        27.90024
G16  23191817.73925 -28223377.47625       865.26425        30.20025                                                                
G31  24509462.55224 -26806473.27824     -4542.31924        28.70024                                                                
G09  21167685.91625 -28005797.09425       278.35425        35.10025  21167658.03524 -22475422.41524       199.95524        24.10024
C21  22561411.46008     45951.26608      -196.33108        47.50008  22561424.95106     26920.82206      -147.77106        39.10006
C22  23372375.24127  -4437967.52127     -2161.94627        45.10027  23372378.83925 -19008946.14225     -1630.56225        35.40025
R14  20486003.43507 109570930.36707      -225.81707        44.30007
R05  21536255.26117 115493670.05517       734.72817        43.30017
E33  23996437.91217   -937697.02917     -1053.33717        42.80017  23996330.58625 -15364370.61525      -793.15225        31.50025
E27  27061834.08207 -26794411.74607      1305.80407        42.00007  27061853.26906 -18995805.46206       975.33906        38.50006
R04  20481159.68817 110046372.49117     -1178.38817        42.50017
R19  21495371.66426 115356047.69626     -4072.32826        40.80026
R15  21702570.22326 116341869.39726      2950.06826        36.00026
C36  24467749.13025  -2205348.61425     -2679.83825        34.10025  24467780.60824 -16254941.56124     -2017.64624        29.30024
C34  24605520.25325 -30506290.23225     -2612.32825        34.30025  24605533.14424 -16997700.22324     -1969.96424        28.20024
E29  23760178.07125 -30611972.33925     -1060.69925        34.30025  23760193.06125  -5349990.40425      -791.00625        31.50025
E07  25796927.85825 -29787693.20225     -2601.40925        34.00025  25796953.34124 -17958640.45724     -1945.21524        25.90024
C09  37834390.39725 -27976860.30125     -1227.03725        33.70025                                                                
C26  24534961.99925 -30127422.15825      2298.50225        32.10025  24534925.72423 -21926218.32823      1731.70323        20.00023
E26  24934295.74625 -21108720.66925     -3453.35925        31.60025  24934287.35224 -19626966.08524     -2580.84324        28.70024
R03  22676185.80325 121757961.88725     -2777.72925        30.60025
E19  24971759.91024 -30711570.70424       433.30924        29.40024  24971769.50424 -22512077.27524       320.11724        25.00024
C16  39595985.27025 -29294243.73625     -1667.77625        29.60025                                                                
C06  38217150.71724    475630.93324     -1561.41324        28.10024                                                                
C13  40036349.81224 -30138818.99124     -1470.79224        27.40024                                                                
R20  21515144.47524 115421319.80724      -522.29124        27.10024
E30  27436845.06723 -28915219.59623      -299.31723        22.10023  27436755.72923 -22335136.12523      -218.44823        18.80023
R13  23320676.33223 124900765.24523     -3954.60723        18.50023
E12  27094652.36222 -30257515.59322      1407.82522        17.10022                                                                
> 2025 10 05 08 32 19.0000045  0 33                      
G04  20967855.95507    586246.02507     -1670.70107        43.80007  20967875.14227 -14872959.93627     -1249.26027        41.90027
G06  22885949.08716   -207539.32416       736.43616        41.40016  22885920.30725   1927744.28125       555.60625        32.00025
G07  22689359.58325 -11898368.67625      1815.90725        34.90025                                                                
G01  22956487.85425  -5559333.26925     -4323.71625        34.70025  22956389.52223 -19968910.17523     -3230.00923        20.50023
G26  23829155.21925 -22931077.57925     -1749.53825        34.60025                                                                
G03  20557996.79515    606736.04115     -1993.77715        32.70015  20558011.78524 -22460691.42224     -1490.21224        27.50024
G16  23191655.55125 -28224242.49125       865.64625        29.90025                                                                
G09  21167643.04625 -28006074.70625       279.20425        35.00025  21167622.66024 -22475627.10324       205.96024        24.10024
C21  22561470.51908     46142.80608      -189.10808        47.50008  22561475.31606     27065.37906      -142.90606        38.50006
R14  20486060.09607 109571152.31307      -219.79207        44.20007
C22  23372800.34727  -4435811.65927     -2152.78327        45.00027  23372808.74125 -19007317.79325     -1627.11325        35.20025
E27  27061605.04107 -26795722.08807      1312.58807        42.60007  27061619.13106 -18996783.90206       980.02406        38.40006
E33  23996663.05607   -936646.66107     -1049.16507        42.70007  23996545.53725 -15363584.11625      -784.49325        32.60025
R05  21536119.75527 115492866.18127       742.08627        43.10027
R04  20481385.43217 110047501.87317     -1169.44117        42.30017
R19  21496154.12226 115360152.51726     -4061.78226        40.20026
E29  23760408.61115 -30610915.91715     -1053.14915        34.50015  23760407.71225  -5349202.09525      -786.57525        33.40025
R15  21702032.39616 116338914.23216      2955.98516        35.90016
C36  24468286.35825  -2202673.12625     -2673.01825        34.60025  24468303.14624 -16252926.04524     -2013.82624        29.00024
E07  25797435.40725 -29785097.96225     -2592.81125        33.90025  25797456.69224 -17956700.33424     -1937.98024        27.60024
C09  37834657.21225 -27975637.34125     -1220.92525        33.70025                                                                
C34  24606039.79325 -30503681.66525     -2608.56625        34.20025  24606052.68424 -16995734.46624     -1963.04324        27.80024
E26  24934964.58325 -21105270.92625     -3447.54925        31.90025  24934957.38824 -19624389.86224     -2574.56224        28.30024
C26  24534529.69925 -30129726.19825      2307.68525        32.00025  24534499.12023 -21927955.94023      1740.56423        19.80023
R03  22676747.61425 121760887.75325     -2770.61625        30.60025
C16  39596309.94525 -29292579.44225     -1662.14625        29.60025                                                                
E19  24971693.05725 -30712008.64725       440.25925        29.70025  24971700.55124 -22512404.31724       330.74024        24.90024
C06  38217433.72124    477189.42024     -1556.59824        28.20024                                                                
C13  40036669.09124 -30137352.71524     -1463.31924        27.70024                                                                
R20  21515248.80324 115421798.01024      -511.23824        27.10024
E30  27436890.33623 -28914925.82623      -291.48923        22.20023  27436829.77813 -22334916.30013      -220.51413        18.90013
R13  23321401.82923 124904558.77523     -3954.48123        18.50023
E12  27094408.03222 -30258923.44722      1407.86722        17.20022                                                                
> 2025 10 05 08 32 20.0000050  0 34                      
G04  20968164.44207    587916.45007     -1669.38407        43.70007  20968185.42726 -14871711.50126     -1247.49226        41.40026
G06  22885817.17826   -208276.26326       738.20626        41.30026  22885767.71325   1927196.45625       545.80725        32.40025
G07  22689005.52825 -11900182.54625      1814.33525        35.20025                                                                
G01  22957348.85815  -5555009.65715     -4321.99215        34.70015  22957197.16323 -19965679.39223     -3230.33723        20.40023
G26  23829477.19625 -22929324.11225     -1754.23725        34.30025                                                                
G03  20558355.94615    608730.11815     -1993.40615        32.60015  20558376.33224 -22459202.41024     -1487.93924        27.20024
G16  23191541.03025 -28225111.47625       870.96925        29.60025                                                                
G31  24511179.16424 -26797410.61524     -4528.74924        27.60024                                                                
G09  21167556.10625 -28006352.82125       278.36725        34.90025  21167554.30724 -22475833.97324       207.96124        24.70024
C21  22561492.70408     46332.86608      -189.32008        47.50008  22561492.10406     27208.57606      -142.51606        38.30006
R14  20486085.57807 109571368.16107      -220.90407        44.60007
C22  23373202.06917  -4433655.53817     -2156.25017        44.90017  23373204.76725 -19005692.26625     -1624.11625        34.90025
E27  27061337.02607 -26797033.66907      1312.20007        42.90007  27061353.81506 -18997763.24806       979.79806        37.90006
E33  23996839.33407   -935598.32207     -1046.57507        42.60007  23996731.40925 -15362798.29825      -785.47725        32.40025
R05  21535979.15217 115492193.86717       739.10517        42.90017
E29  23760597.78006 -30609859.97706     -1055.94806        36.80006  23760594.18325  -5348412.45325      -790.30925        34.40025
R04  20481587.19227 110048662.67227     -1170.96827        42.00027
R19  21496920.09226 115364330.81826     -4060.15226        39.70026
R15  21701471.48426 116335997.30126      2956.76326        35.80026
C36  24468768.12425  -2199997.06725     -2676.34425        34.90025  24468789.70924 -16250907.18024     -2020.53924        28.70024
C34  24606525.15725 -30501073.57425     -2607.85125        34.10025  24606537.14924 -16993776.26124     -1954.42924        27.40024
E07  25797949.25125 -29782503.74325     -2593.70825        33.80025  25797935.76124 -17954763.17024     -1935.68224        27.50024
C09  37834871.86325 -27974414.30125     -1223.07925        33.60025                                                                
E26  24935598.94425 -21101824.53525     -3444.71325        32.30025  24935600.14324 -19621824.97524     -2559.21824        27.90024
C26  24534087.50525 -30132034.78425      2310.85725        32.00025  24534041.63623 -21929697.40123      1743.38323        19.70023
R03  22677186.21125 121763316.53025     -2766.71525        30.80025
C16  39596626.52625 -29290919.57525     -1657.65325        29.90025                                                                
E19  24971599.52124 -30980630.53424       445.28724        29.30024  24971604.31824 -22512735.89124       333.84124        24.70024
C06  38217724.52024    478744.90424     -1553.98224        28.50024                                                                
C13  40036923.01524 -30135888.60924     -1463.02124        27.70024                                                                
R20  21515332.14524 115422322.89024      -514.97424        27.00024
E30  27436933.80623 -28914637.26523      -285.95723        22.20023  27436872.34923 -22334694.98723      -222.05723        18.90023
R13  23322114.43623 124908443.22823     -3954.92623        18.50023
E12  27094154.10722 -30260331.69222      1408.44022        17.20022                                                                
> 2025 10 05 08 32 21.0000056  0 32                      
G04  20968499.91007    589587.25807     -1670.99707        43.60007  20968518.49726 -14870465.66826     -1244.53026        40.20026
G06  22885676.27626   -209011.39426       734.22626        41.20026  22885643.29925   1926649.81425       546.05025        32.60025
G07  22688676.35625 -11901992.15225      1807.47325        35.20025                                                                
G09  21167521.03025 -28006630.28225       277.13425        34.80025  21167518.63224 -22476039.30524       204.56324        25.50024
G03  20558755.86905    610724.45605     -1994.46805        32.60005  20558770.85924 -22457712.87924     -1489.79124        26.90024
G26  23829818.06025 -22927568.85425     -1756.15125        33.90025                                                                
G01  22958170.58915  -5550687.06415     -4322.08015        34.80015  22958032.68523 -19962448.92223     -3230.31123        20.40023
C21  22561543.36908     46523.14308      -190.38608        47.60008  22561541.27006     27351.95306      -143.46606        37.90006
R14  20486143.43807 109571597.73607      -222.18207        45.00007
C22  23373626.27527  -4431499.33527     -2156.24227        44.70027  23373633.47025 -19004064.86225     -1628.34125        34.40025
E27  27061105.58607 -26798345.56307      1312.05007        42.90007  27061119.97606 -18998742.82706       979.69506        37.80006
E29  23760802.53907 -30608803.73907     -1056.38707        43.10007  23760810.03416  -5347624.06516      -787.76016        35.70016
E33  23997065.67707   -934549.80907     -1049.59907        42.50007  23996945.16125 -15362012.55825      -785.70025        32.00025
R05  21535869.12817 115491526.13917       738.78517        42.60017
R04  20481832.42217 110049895.49017     -1171.28917        41.80017
R19  21497699.85226 115368421.09726     -4068.99726        39.20026
R15  21700907.27516 116332902.21916      2954.30616        35.80016
C36  24469290.66325  -2197318.07225     -2680.46125        34.90025  24469318.24324 -16248884.95024     -2023.91124        28.20024
C34  24607046.19625 -30498465.70225     -2607.76125        34.50025  24607054.29124 -16991815.75224     -1961.66024        27.10024
E07  25798440.31125 -29779907.38625     -2597.42525        33.70025  25798442.41024 -17952821.98424     -1943.19624        27.00024
C09  37835110.49825 -27973191.61225     -1222.51225        33.50025                                                                
E26  24936267.48125 -21098381.05825     -3442.01925        32.40025  24936264.78324 -19619261.00824     -2563.50624        27.20024
R03  22677706.05125 121766018.74525     -2771.13125        31.00025
C16  39596947.30425 -29289257.10225     -1663.77525        29.90025                                                                
C06  38218035.70424    480302.41024     -1558.51524        28.90024                                                                
E19  24971523.07424 -30981071.65624       441.12224        29.00024  24971534.16724 -22513069.45924       334.56424        24.60024
C13  40037245.29224 -30134421.54324     -1468.54424        27.60024                                                                
R20  21515441.27024 115422827.10824      -522.77824        27.10024
E30  27437006.65623 -28914349.24123      -287.75623        22.10023  27437091.19724 -22334475.04524      -219.25524        24.50024
R13  23322904.68923 124912584.40523     -3961.38723        19.00023
E12  27093913.07422 -30261735.54822      1401.66122        17.10022                                                                
C26  24533658.50225 -30134337.04025      2299.09025        31.90025  24533619.82823 -21931430.98323      1729.64223        19.60023
> 2025 10 05 08 32 22.0000061  0 34                      
G04  20968812.59317    591259.43917     -1672.86717        43.40017  20968820.38826 -14869220.20026     -1245.28726        39.90026
G06  22885497.89916   -209743.37816       730.41116        41.10016  22885490.70425   1926102.84225       547.13625        32.60025
G09  21167448.78025 -28006906.46425       275.54225        34.80025  21167452.07824 -22476244.32824       204.87024        26.10024
G07  22688341.48825 -11903804.18925      1813.25125        35.20025                                                                
G01  22958948.85025  -5546356.25225     -4334.92025        34.80025  22958839.42623 -19959217.83123     -3231.40023        20.20023
G03  20559123.71525    612719.06925     -1994.75025        32.50025  20559134.50724 -22456222.82824     -1490.30924        26.80024
G16  23191248.73324 -28226841.66824       863.35524        28.40024                                                                
G31  24512937.44724 -26788346.55724     -4539.60724        27.30024                                                                
G26  23830144.83425 -22925816.25525     -1751.26925        33.50025                                                                
C21  22561562.85508     46714.69508      -192.18908        47.60008  22561565.55316     27496.19116      -144.66916        37.90016
R14  20486165.92207 109571797.56707      -224.98407        45.40007
C05  37229883.78817 -30821153.70517      -897.31117        43.40017                                                                
E27  27060843.26807 -26799656.07307      1309.81607        42.90007  27060855.56006 -18999721.51406       978.24106        37.60006
C22  23374028.89717  -4429341.28617     -2158.97117        44.40017  23374033.39325 -19002439.98625     -1623.61125        34.30025
E29  23760985.71207 -30607746.31007     -1058.02407        43.00007  23760997.70405  -5346834.34905      -790.38005        35.30005
R15  21700349.66106 116330003.64006      2952.04106        37.10006
R04  20482031.18507 110051039.43307     -1174.89307        41.60007
E33  23997232.66217   -933499.67717     -1049.94217        41.50017  23997132.53125 -15361226.96025      -785.52725        31.80025
R19  21498451.43216 115372522.09216     -4064.02516        38.80016
R05  21535714.43527 115490779.63327       738.02527        41.80027
C36  24469801.50925  -2194641.26825     -2675.70725        34.90025  24469823.99314 -16246863.46814     -2021.10714        27.60014
C34  24607544.15225 -30495855.98525     -2610.63925        34.50025  24607541.75324 -16989851.23924     -1966.51424        27.00024
E07  25798902.89115 -29777310.86415     -2596.60215        33.60015  25798912.78424 -17950881.23524     -1940.52924        26.40024
C09  37835339.83915 -27971969.93515     -1221.17115        33.40015                                                                
E26  24936891.34925 -21094937.06825     -3444.24425        32.40025  24936903.64124 -19616691.02624     -2572.98824        26.90024
R03  22678288.54825 121769218.05425     -2778.04825        31.20025
C16  39597245.89725 -29287596.13625     -1660.21225        30.30025                                                                
C06  38218320.50724    481859.03524     -1556.18424        28.90024                                                                
E19  24971429.83924 -30981509.93024       436.85024        28.90024  24971434.93524 -22513403.24524       333.89524        24.50024
R20  21515549.79524 115423487.41224      -512.18024        27.10024
E30  27437009.95323 -28914061.17823      -288.08223        22.10023  27437137.36524 -22334253.32524      -222.61024        24.30024
R13  23323593.91223 124916343.55323     -3968.44123        19.40023
E12  27093607.58622 -30263134.12422      1395.93522        17.10022                                                                
C26                                                                  24533160.54613 -21933166.75513      1736.86613        19.50013
> 2025 10 05 08 32 23.0000067  0 34                      
G04  20969145.96227    592928.67827     -1667.76727        43.30027  20969154.95626 -14867972.14726     -1249.34326        39.50026
G06  22885408.86106   -210476.90506       734.29806        41.00006  22885367.79025   1925557.54325       544.46325        32.60025
G09  21167409.20825 -28007184.26625       278.61225        35.30025  21167414.90414 -22476450.34614       206.51414        27.60014
G07  22687984.13525 -11905618.04525      1814.76525        35.20025                                                                
G01  22959742.70115  -5542030.02715     -4323.92915        34.70015  22959677.94623 -19955986.65923     -3231.21023        20.10023
G03  20559538.62815    614714.66515     -1996.08615        32.50015  20559530.83324 -22454732.51324     -1490.44724        26.60024
G16  23191118.32324 -28227708.94124       867.27324        28.60024                                                                
G31  24513819.43624 -26783810.32024     -4536.23424        27.30024                                                                
G26  23830501.58725 -22924064.07425     -1751.97125        33.20025                                                                
C21  22561613.52008     46904.40708      -188.79108        47.60008  22561618.61606     27639.20006      -142.39406        37.90006
R14  20486228.27917 109572050.02017      -222.14117        45.40017
C22  23374460.59807  -4427185.17407     -2155.14207        44.20007  23374463.59625 -19000815.59625     -1624.14625        34.30025
E27  27060606.13207 -26800967.98007      1311.85507        42.90007  27060621.12206 -19000701.37706       980.45106        37.40006
C05  37230072.65727 -30820262.50627      -891.19827        43.30027                                                                
E29  23761208.45827 -30606689.62127     -1056.31827        42.70027  23761216.25205  -5346046.06905      -787.56105        35.10005
R04  20482280.31216 110052294.46516     -1168.68816        41.30016
R15  21699798.94206 116326979.66006      2954.92006        40.40006
R05  21535578.03016 115489970.40616       739.55716        41.30016
E33  23997494.08126   -932447.91526     -1052.82626        40.90026  23997348.38125 -15360439.95925      -787.70125        31.70025
R19  21499249.47916 115376710.34216     -4059.91016        38.50016
C36  24470331.84225  -2191961.78825     -2680.81725        34.90025  24470351.02804 -16244843.11704     -2019.78504        27.10004
E07  25799404.14425 -29774715.30525     -2595.07725        33.50025  25799435.02314 -17948941.43514     -1939.32514        26.20014
C09  37835597.96125 -27970745.69825     -1225.51625        33.30025                                                                
E26  24937577.87425 -21091485.56625     -3455.25625        32.30025  24937573.07724 -19614114.08624     -2580.41824        26.50024
R03  22678879.73825 121772301.70325     -2774.63225        31.50025
C26  24532761.22325 -30138947.33525      2304.75725        31.20025  24532730.94403 -21934903.30403      1736.93703        19.50003
C16  39597580.76525 -29285930.49725     -1667.97425        30.60025                                                                
E19  24971369.28124 -30981949.51624       440.24124        29.00024  24971367.48224 -22513732.50024       326.98924        24.50024
C06  38218634.99024    483415.99024     -1557.12024        29.10024                                                                
R20  21515700.29124 115424211.98924      -512.68324        27.10024
E30  27437100.49123 -28913772.78623      -288.55623        22.00023  27437205.41825 -22334031.51825      -221.84925        29.80025
R13  23324412.94523 124920638.30123     -3963.03823        19.50023
E12  27093390.83622 -30264532.08722      1397.65622        17.00022                                                                
C34                                                                  24608055.29824 -16987885.49124     -1966.36324        25.90024
> 2025 10 05 08 32 24.0000072  0 35                      
G04  20969448.75317    594591.52717     -1659.65417        43.20017  20969456.54726 -14866727.83926     -1242.43626        38.40026
G09  21167359.44226 -28007470.34926       290.22326        35.50026  21167345.05206 -22476661.43006       213.61706        36.50006
G07  22687619.58815 -11907438.62215      1823.93515        35.10015                                                                
G01  22960516.76525  -5537714.69925     -4309.87825        34.70025  22960485.28723 -19952764.63423     -3217.44923        20.00023
G03  20559910.97025    616706.02725     -1989.24525        32.40025  20559894.48124 -22453247.43824     -1482.45524        26.30024
G26  23830817.86825 -22922319.30225     -1741.06725        32.90025  23830811.27323 -22968027.32223     -1303.58223        19.60023
G16  23190954.63624 -28228581.85724       875.73624        28.80024                                                                
G31  24514678.04224 -26779285.51924     -4519.08124        27.30024                                                                
G06  22885291.34206   -211218.19206       745.16606        40.80006  22885208.60025   1925004.98325       556.19025        32.20025
C21  22561642.00008     47087.06508      -179.13208        47.90008  22561640.50106     27776.87506      -135.00906        37.90006
R14  20486250.76407 109572247.55707      -213.58607        45.40007
C22  23374859.32207  -4425036.48907     -2144.97107        44.10007  23374862.32015 -18999196.33315     -1616.69915        34.30015
E27  27060340.81607 -26802287.07707      1322.94107        42.80007  27060355.80506 -19001686.23306       987.35106        36.20006
C05  37230225.55117 -30819379.32617      -879.17117        43.10017                                                                
R15  21699226.33806 116323999.26306      2965.66906        41.00006
E29  23761398.82617 -30605641.70417     -1044.28017        42.40017  23761401.22405  -5345263.06305      -780.36905        35.10005
R04  20482473.97806 110053409.28706     -1159.78706        41.10006
R05  21535424.23606 115489226.19106       750.00206        41.00006
E33  23997515.06616 -31354879.29216     -1041.93916        40.50016  23997533.35325 -15359657.93025      -779.54225        31.60025
R19  21499986.36926 115380731.73326     -4054.18826        38.20026
C36  24470834.59425  -2189290.39125     -2667.35425        35.10025  24470855.57924 -16242828.18024     -2012.22924        26.90024
C34  24608523.57415 -30490645.41915     -2598.08415        34.40015  24608542.46124 -16985925.79824     -1956.66424        26.70024
E07  25799874.81815 -29772127.94615     -2583.25715        33.50015  25799913.49214 -17947006.84414     -1931.98414        25.90014
C09  37835802.11925 -27969529.24625     -1212.55925        33.20025                                                                
E26  24938219.73025 -21088044.64025     -3435.63625        32.30025  24938219.43024 -19611542.61824     -2568.73124        26.20024
C16  39597883.85525 -29284276.96025     -1647.48525        31.30025                                                                
R03  22679341.41925 121774852.25825     -2759.63725        31.80025
C26  24532281.85525 -30141257.01925      2309.68225        31.40025  24532271.36223 -21936644.96723      1744.21823        19.50023
C06  38218923.98924    484964.92524     -1544.92324        29.10024                                                                
E19  24971251.76224 -31365336.11324       452.72124        28.70024  24971268.55124 -22514064.31324       333.09224        24.40024
R20  21515811.21424 115424883.00424      -506.54224        27.10024
C13  40038019.65624 -31079066.99124     -1465.92724        23.80024                                                                
E30  27437098.09223 -28913489.94223      -280.06923        22.00023  27437248.28824 -22333815.60324      -212.97024        29.10024
R13  23325224.78323 124925050.71323     -3951.81123        19.50023
E12  27093105.13422 -30265942.07922      1416.00522        17.00022                                                                
> 2025 10 05 08 32 25.0000077  0 35                      
G04  20969774.02807    596253.79707     -1661.98007        43.00007  20969777.02526 -14865487.95326     -1237.67326        38.10026
G06  22885144.14406   -211961.71806       744.64506        40.70006  22885073.09425   1924448.93425       557.79425        32.20025
G07  22687304.80625 -11909260.70025      1822.82925        35.10025                                                                
G01  22961299.52315  -5533402.23715     -4311.02615        34.70015  22961290.52924 -19949544.38924     -3219.35524        25.00024
G26  23831138.04615 -22920576.77415     -1741.40415        32.80015  23831146.14124 -22966727.42724     -1298.04924        28.30024
G03  20560280.91425    618695.03125     -1987.82325        32.30025  20560274.91824 -22451769.30424     -1474.66224        26.10024
G16  23190808.63724 -28229462.39024       884.34224        28.80024                                                                
G31  24515545.34124 -26774767.05924     -4515.28724        27.20024                                                                
G09  21167302.48126 -28007754.58426       283.31126        35.50026  21167294.38706 -22476875.04506       214.88106        35.50006
C21  22561677.97508     47265.20708      -175.88408        47.90008  22561678.57506     27910.57506      -131.71206        37.80006
R14  20486294.83307 109572464.17107      -213.87907        45.40007
C22  23375269.13807  -4422890.09507     -2145.24807        44.00007  23375278.13205 -18997578.71005     -1616.80205        34.30005
E27  27060091.98807 -26803606.92407      1320.22207        42.80007  27060106.67825 -19002672.06525       986.32025        34.60025
C05  37230403.32807 -30818497.73607      -880.79407        43.00007                                                                
R15  21698671.42206 116321015.05306      2963.57706        41.30006
E33  23997731.21606 -31353837.71106     -1041.58106        40.50006  23997732.71525 -15358881.35825      -773.84425        31.40025
E29  23761592.49207 -30604598.02507     -1041.31007        42.20007  23761602.38506  -5344484.10406      -776.93506        37.00006
R04  20482708.11606 110054645.94306     -1159.28806        40.90006
R05  21535269.84306 115488384.08006       750.31706        40.80006
R19  21500725.95726 115384670.46926     -4046.74326        38.00026
C16  39598210.03015 -29282624.78415     -1651.49415        34.70015                                                                
C34  24609026.92505 -30488045.60405     -2599.81305        35.10005  24609040.11625 -16983967.66225     -1957.35725        32.80025
C36  24471334.64825  -2186621.62025     -2667.45625        35.10025  24471364.32725 -16240817.22325     -2008.96625        31.50025
E07  25800392.56025 -29769543.52125     -2582.95725        33.40025  25800405.45124 -17945076.65824     -1927.98324        25.70024
C09  37836025.16525 -27968318.18325     -1208.36825        33.10025                                                                
R03  22679778.21615 121777172.27815     -2756.12615        32.30015
E26  24938868.78025 -21084609.05825     -3433.65725        32.30025  24938876.27524 -19608975.08424     -2565.56624        25.80024
C26  24531898.12025 -30143572.50925      2318.39325        31.40025  24531829.76823 -21938391.23823      1748.57423        19.50023
