NMEA,$GPGGA,084046.000,3205.0295,N,03448.1601,E,1,13,0.8,36.7,M,17.1,M,,*6A,1759653646000
NMEA,$PSAMSA,084046.000,3205.0295,N,03448.1601,E,0,M,,*60,1759653646000
NMEA,$GPGLL,3205.0295,N,03448.1601,E,084046.000,A,A*50,1759653646000
NMEA,$GPVTG,284.6,T,,M,0.4,N,0.7,K,A*06,1759653646000
NMEA,$GPGSV,5,1,15,01,23,177,36,03,58,105,32,04,56,021,42,06,33,300,38*7A,1759653646000
NMEA,$GPGSV,5,2,15,07,36,214,41,09,50,305,37,16,23,095,26,26,15,056,35*7F,1759653646000
NMEA,$GPGSV,5,3,15,30,06,218,25,31,07,040,24*75,1759653646000
NMEA,$GPGSV,5,4,15,01,23,177,27,04,56,021,39,06,33,300,33,09,50,305,33,8*6D,1759653646000
NMEA,$GPGSV,5,5,15,26,15,056,25,8*5D,1759653646000
NMEA,$GLGSV,2,1,08,67,17,075,40,68,45,027,40,69,33,319,33,78,47,080,47*62,1759653646000
NMEA,$GLGSV,2,2,08,79,34,153,33,83,28,226,37,84,33,292,26,85,06,334,23*6F,1759653646000
NMEA,$GAGSV,4,1,14,107,30,054,32,112,19,319,17,119,34,275,34,121,06,165,25*62,1759653646000
NMEA,$GAGSV,4,2,14,126,38,186,32,127,21,116,28,129,64,342,42,133,57,264,41*6D,1759653646000
NMEA,$GAGSV,4,3,14,107,30,054,29,119,34,275,32,126,38,186,27,127,21,116,23,1*73,1759653646000
NMEA,$GAGSV,4,4,14,129,64,342,36,133,57,264,34,1*7C,1759653646000
NMEA,$BDGSV,4,1,15,206,32,044,29,209,47,049,33,211,22,276,36,213,13,126,28*6B,1759653646000
NMEA,$BDGSV,4,2,15,216,24,041,30,221,60,356,46,222,36,079,45,226,30,181,34*68,1759653646000
NMEA,$BDGSV,4,3,15,234,20,250,34,236,23,048,34*61,1759653646000
NMEA,$BDGSV,4,4,15,221,60,356,38,222,36,079,39,226,30,181,24,234,20,250,25,5*76,1759653646000
NMEA,$GPGSA,A,3,07,,,,,,,,,,,,2.0,0.8,1.8*36,1759653646000
NMEA,$GNGSA,A,3,67,78,84,,,,,,,,,,2.0,0.8,1.8*2D,1759653646000
NMEA,$GAGSA,A,3,107,126,129,,,,,,,,,,2.0,0.8,1.8*19,1759653646000
NMEA,$BDGSA,A,3,209,222,,,,,,,,,,,2.0,0.8,1.8*29,1759653646000
NMEA,$PSSGR,GSA,A,3,04,06,09,,,,,,,,,,2.0,0.8,1.8,1,8*4D,1759653646000
NMEA,$PSSGR,GSA,A,3,221,,,,,,,,,,,,2.0,0.8,1.8,4,5*7F,1759653646000
NMEA,$GPRMC,084046.000,A,3205.0295,N,03448.1601,E,0.4,284.6,051025,,,A*68,1759653646000
NMEA,$GPGGA,084047.000,3205.0295,N,03448.1601,E,1,18,0.6,36.6,M,17.1,M,,*6F,1759653647000
NMEA,$PSAMSA,084047.000,3205.0295,N,03448.1601,E,1,M,,*60,1759653647000
NMEA,$GPGLL,3205.0295,N,03448.1601,E,084047.000,A,A*51,1759653647000
NMEA,$GPVTG,284.6,T,,M,0.0,N,0.0,K,A*05,1759653647000
NMEA,$GPGSV,5,1,15,01,23,177,35,03,58,105,32,04,56,021,41,06,33,300,38*7A,1759653647000
NMEA,$GPGSV,5,2,15,07,36,214,41,09,50,305,37,16,23,095,26,26,15,056,34*7E,1759653647000
NMEA,$GPGSV,5,3,15,30,06,218,25,31,07,040,24*75,1759653647000
NMEA,$GPGSV,5,4,15,01,23,177,34,04,56,021,39,06,33,300,33,09,50,305,33,8*6F,1759653647000
NMEA,$GPGSV,5,5,15,26,15,056,24,8*5C,1759653647000
NMEA,$GLGSV,2,1,08,67,17,075,40,68,45,027,40,69,33,319,34,78,47,080,46*64,1759653647000
NMEA,$GLGSV,2,2,08,79,34,153,34,83,28,226,37,84,33,292,30,85,06,334,23*6F,1759653647000
NMEA,$GAGSV,4,1,14,107,30,054,32,112,19,319,17,119,34,275,34,121,06,165,23*64,1759653647000
NMEA,$GAGSV,4,2,14,126,38,186,32,127,21,116,28,129,64,342,43,133,57,264,41*6C,1759653647000
NMEA,$GAGSV,4,3,14,107,30,054,28,119,34,275,32,126,38,186,27,127,21,116,23,1*72,1759653647000
NMEA,$GAGSV,4,4,14,129,64,342,36,133,57,264,33,1*7B,1759653647000
NMEA,$BDGSV,4,1,15,206,32,044,29,209,47,049,33,211,22,276,36,213,13,126,28*6B,1759653647000
NMEA,$BDGSV,4,2,15,216,24,041,30,221,60,356,45,222,36,079,46,226,30,181,34*68,1759653647000
NMEA,$BDGSV,4,3,15,234,20,250,34,236,23,048,34*61,1759653647000
NMEA,$BDGSV,4,4,15,221,60,356,38,222,36,079,39,226,30,181,24,234,20,250,24,5*77,1759653647000
NMEA,$GPGSA,A,3,07,,,,,,,,,,,,1.4,0.6,1.2*35,1759653647000
NMEA,$GNGSA,A,3,67,68,78,84,,,,,,,,,1.4,0.6,1.2*20,1759653647000
NMEA,$GAGSA,A,3,112,126,129,,,,,,,,,,1.4,0.6,1.2*1E,1759653647000
NMEA,$BDGSA,A,3,206,209,221,222,234,,,,,,,,1.4,0.6,1.2*1A,1759653647000
NMEA,$PSSGR,GSA,A,3,04,06,09,26,,,,,,,,,1.4,0.6,1.2,1,8*4A,1759653647000
NMEA,$PSSGR,GSA,A,3,119,,,,,,,,,,,,1.4,0.6,1.2,3,1*77,1759653647000
NMEA,$GPRMC,084047.000,A,3205.0295,N,03448.1601,E,0.0,,051025,,,A*4B,1759653647000
NMEA,$GPGGA,084048.000,3205.0299,N,03448.1608,E,1,15,0.6,35.5,M,17.1,M,,*68,1759653648000
NMEA,$PSAMSA,084048.000,3205.0299,N,03448.1608,E,0,M,,*6B,1759653648000
NMEA,$GPGLL,3205.0299,N,03448.1608,E,084048.000,A,A*5B,1759653648000
NMEA,$GPVTG,284.6,T,,M,0.5,N,1.0,K,A*01,1759653648000
NMEA,$GPGSV,5,1,16,01,23,177,35,03,58,105,32,04,56,021,41,06,33,300,38*79,1759653648000
NMEA,$GPGSV,5,2,16,07,36,214,41,09,50,305,38,16,23,095,27,19,00,260,24*7D,1759653648000
NMEA,$GPGSV,5,3,16,26,15,056,33,30,06,218,25,31,07,040,24*45,1759653648000
NMEA,$GPGSV,5,4,16,01,23,177,34,03,58,105,27,04,56,021,41,06,33,300,32,8*67,1759653648000
NMEA,$GPGSV,5,5,16,09,50,305,32,8*51,1759653648000
NMEA,$GLGSV,2,1,08,67,17,075,39,68,45,027,39,69,33,319,34,78,47,080,46*64,1759653648000
NMEA,$GLGSV,2,2,08,79,34,153,34,83,28,226,37,84,33,292,30,85,06,334,23*6F,1759653648000
NMEA,$GAGSV,4,1,14,107,30,054,32,112,19,319,15,119,34,275,33,121,06,165,20*62,1759653648000
NMEA,$GAGSV,4,2,14,126,38,186,32,127,21,116,27,129,64,342,44,133,57,264,41*64,1759653648000
NMEA,$GAGSV,4,3,14,107,30,054,28,119,34,275,31,126,38,186,26,127,21,116,23,1*70,1759653648000
NMEA,$GAGSV,4,4,14,129,64,342,35,133,57,264,33,1*78,1759653648000
NMEA,$BDGSV,4,1,15,206,32,044,29,209,47,049,33,211,22,276,36,213,13,126,27*64,1759653648000
NMEA,$BDGSV,4,2,15,216,24,041,30,221,60,356,44,222,36,079,46,226,30,181,34*69,1759653648000
NMEA,$BDGSV,4,3,15,234,20,250,34,236,23,048,34*61,1759653648000
NMEA,$BDGSV,4,4,15,221,60,356,37,222,36,079,39,226,30,181,24,234,20,250,24,5*78,1759653648000
NMEA,$GPGSA,A,3,07,26,,,,,,,,,,,1.6,0.6,1.4*35,1759653648000
NMEA,$GNGSA,A,3,67,68,78,79,,,,,,,,,1.6,0.6,1.4*26,1759653648000
NMEA,$GAGSA,A,3,126,129,,,,,,,,,,,1.6,0.6,1.4*28,1759653648000
NMEA,$BDGSA,A,3,209,221,222,234,,,,,,,,,1.6,0.6,1.4*2A,1759653648000
NMEA,$PSSGR,GSA,A,3,04,06,09,,,,,,,,,,1.6,0.6,1.4,1,8*4A,1759653648000
NMEA,$GPRMC,084048.000,A,3205.0299,N,03448.1608,E,0.5,284.6,051025,,,A*62,1759653648000
NMEA,$GPGGA,084049.000,3205.0297,N,03448.1609,E,1,16,0.6,36.3,M,17.1,M,,*60,1759653649000
NMEA,$PSAMSA,084049.000,3205.0297,N,03448.1609,E,0,M,,*65,1759653649000
NMEA,$GPGLL,3205.0297,N,03448.1609,E,084049.000,A,A*55,1759653649000
NMEA,$GPVTG,284.6,T,,M,1.4,N,2.6,K,A*04,1759653649000
NMEA,$GPGSV,5,1,17,01,23,177,34,03,58,105,31,04,56,021,41,06,33,300,38*7A,1759653649000
NMEA,$GPGSV,5,2,17,07,36,214,41,09,50,305,38,16,23,095,27,26,15,056,32*74,1759653649000
NMEA,$GPGSV,5,3,17,30,06,218,25,31,07,040,24*77,1759653649000
NMEA,$GPGSV,5,4,17,01,23,177,33,03,58,105,26,04,56,021,40,06,33,300,32,8*61,1759653649000
NMEA,$GPGSV,5,5,17,09,50,305,32,8*50,1759653649000
NMEA,$GLGSV,2,1,08,67,17,075,38,68,45,027,38,69,33,319,33,78,47,080,46*63,1759653649000
NMEA,$GLGSV,2,2,08,79,34,153,34,83,28,226,37,84,33,292,30,85,06,334,23*6F,1759653649000
NMEA,$GAGSV,4,1,14,107,30,054,32,112,19,319,13,119,34,275,33,121,06,165,17*60,1759653649000
NMEA,$GAGSV,4,2,14,126,38,186,32,127,21,116,27,129,64,342,44,133,57,264,41*64,1759653649000
NMEA,$GAGSV,4,3,14,107,30,054,27,119,34,275,31,126,38,186,26,127,21,116,22,1*7E,1759653649000
NMEA,$GAGSV,4,4,14,129,64,342,38,133,57,264,33,1*75,1759653649000
NMEA,$BDGSV,4,1,14,206,32,044,29,209,47,049,34,211,22,276,36,213,13,126,27*62,1759653649000
NMEA,$BDGSV,4,2,14,216,24,041,29,221,60,356,46,222,36,079,45,226,30,181,34*61,1759653649000
NMEA,$BDGSV,4,3,14,234,20,250,33,236,23,048,34*67,1759653649000
NMEA,$BDGSV,4,4,14,221,60,356,37,222,36,079,38,226,30,181,24,5*7E,1759653649000
NMEA,$GPGSA,A,3,07,26,,,,,,,,,,,1.4,0.6,1.2*31,1759653649000
NMEA,$GNGSA,A,3,67,68,78,79,,,,,,,,,1.4,0.6,1.2*22,1759653649000
NMEA,$GAGSA,A,3,126,129,133,,,,,,,,,,1.4,0.6,1.2*1D,1759653649000
NMEA,$BDGSA,A,3,221,222,234,236,,,,,,,,,1.4,0.6,1.2*22,1759653649000
NMEA,$PSSGR,GSA,A,3,04,06,09,,,,,,,,,,1.4,0.6,1.2,1,8*4E,1759653649000
NMEA,$GPRMC,084049.000,A,3205.0297,N,03448.1609,E,1.4,284.6,051025,,,A*6C,1759653649000
NMEA,$GPGGA,084050.000,3205.0295,N,03448.1607,E,1,20,0.6,36.6,M,17.1,M,,*64,1759653650000
NMEA,$PSAMSA,084050.000,3205.0295,N,03448.1607,E,0,M,,*61,1759653650000
NMEA,$GPGLL,3205.0295,N,03448.1607,E,084050.000,A,A*51,1759653650000
NMEA,$GPVTG,284.6,T,,M,1.0,N,1.8,K,A*0D,1759653650000
NMEA,$GPGSV,5,1,17,01,23,177,34,03,58,105,31,04,56,021,41,06,33,300,38*7A,1759653650000
NMEA,$GPGSV,5,2,17,07,36,214,41,09,50,305,38,16,23,095,27,26,15,056,32*74,1759653650000
NMEA,$GPGSV,5,3,17,30,06,218,25,31,07,040,24*77,1759653650000
NMEA,$GPGSV,5,4,17,01,23,177,31,03,58,105,26,04,56,021,40,06,33,300,31,8*60,1759653650000
NMEA,$GPGSV,5,5,17,09,50,305,32,8*50,1759653650000
NMEA,$GLGSV,2,1,08,67,17,075,38,68,45,027,39,69,33,319,33,78,47,080,45*61,1759653650000
NMEA,$GLGSV,2,2,08,79,34,153,34,83,28,226,37,84,33,292,29,85,06,334,23*67,1759653650000
NMEA,$GAGSV,4,1,13,107,30,054,33,119,34,275,33,121,06,165,14,126,38,186,32*66,1759653650000
NMEA,$GAGSV,4,2,13,127,21,116,27,129,64,342,44,133,57,264,40*62,1759653650000
NMEA,$GAGSV,4,3,13,107,30,054,27,119,34,275,30,126,38,186,26,127,21,116,24,1*7E,1759653650000
NMEA,$GAGSV,4,4,13,129,64,342,38,133,57,264,33,1*72,1759653650000
NMEA,$BDGSV,4,1,15,206,32,044,28,209,47,049,34,211,22,276,36,213,13,126,27*62,1759653650000
NMEA,$BDGSV,4,2,15,216,24,041,30,221,60,356,47,222,36,079,45,226,30,181,34*69,1759653650000
NMEA,$BDGSV,4,3,15,234,20,250,33,236,23,048,34*66,1759653650000
NMEA,$BDGSV,4,4,15,221,60,356,37,222,36,079,37,226,30,181,23,5*77,1759653650000
NMEA,$GPGSA,A,3,07,26,,,,,,,,,,,1.4,0.6,1.2*31,1759653650000
NMEA,$GNGSA,A,3,67,68,78,79,84,,,,,,,,1.4,0.6,1.2*2E,1759653650000
NMEA,$GAGSA,A,3,107,119,126,129,133,,,,,,,,1.4,0.6,1.2*12,1759653650000
NMEA,$BDGSA,A,3,209,221,222,236,,,,,,,,,1.4,0.6,1.2*2C,1759653650000
NMEA,$PSSGR,GSA,A,3,01,04,06,09,,,,,,,,,1.4,0.6,1.2,1,8*4F,1759653650000
NMEA,$GPRMC,084050.000,A,3205.0295,N,03448.1607,E,1.0,284.6,051025,,,A*6C,1759653650000
NMEA,$GPGGA,084051.000,3205.0296,N,03448.1609,E,1,17,0.6,38.0,M,17.1,M,,*64,1759653651000
NMEA,$PSAMSA,084051.000,3205.0296,N,03448.1609,E,0,M,,*6D,1759653651000
NMEA,$GPGLL,3205.0296,N,03448.1609,E,084051.000,A,A*5D,1759653651000
NMEA,$GPVTG,284.6,T,,M,1.1,N,2.0,K,A*07,1759653651000
NMEA,$GPGSV,4,1,16,01,23,177,34,03,58,105,31,04,56,021,41,06,33,300,38*7A,1759653651000
NMEA,$GPGSV,4,2,16,07,36,214,41,09,50,305,38,16,23,095,27,26,15,056,31*77,1759653651000
NMEA,$GPGSV,4,3,16,30,06,218,24,31,07,040,24*76,1759653651000
NMEA,$GPGSV,4,4,16,01,23,177,29,04,56,021,40,06,33,300,31,09,50,305,32,8*6C,1759653651000
NMEA,$GLGSV,2,1,08,67,17,075,38,68,45,027,40,69,33,319,33,78,47,080,44*6E,1759653651000
NMEA,$GLGSV,2,2,08,79,34,153,34,83,28,226,37,84,33,292,29,85,06,334,23*67,1759653651000
NMEA,$GAGSV,4,1,13,107,30,054,33,119,34,275,33,121,06,165,21,126,38,186,32*60,1759653651000
NMEA,$GAGSV,4,2,13,127,21,116,30,129,64,342,44,133,57,264,41*65,1759653651000
NMEA,$GAGSV,4,3,13,107,30,054,26,119,34,275,29,126,38,186,25,127,21,116,27,1*77,1759653651000
NMEA,$GAGSV,4,4,13,129,64,342,38,133,57,264,33,1*72,1759653651000
NMEA,$BDGSV,4,1,14,206,32,044,29,209,47,049,34,211,22,276,35,213,13,126,27*61,1759653651000
NMEA,$BDGSV,4,2,14,216,24,041,30,221,60,356,48,222,36,079,45,226,30,181,34*67,1759653651000
NMEA,$BDGSV,4,3,14,234,20,250,33,236,23,048,35*66,1759653651000
NMEA,$BDGSV,4,4,14,221,60,356,38,222,36,079,36,226,30,181,23,5*78,1759653651000
NMEA,$GPGSA,A,3,07,26,,,,,,,,,,,1.4,0.6,1.2*31,1759653651000
NMEA,$GNGSA,A,3,67,68,78,84,,,,,,,,,1.4,0.6,1.2*20,1759653651000
NMEA,$GAGSA,A,3,119,129,133,,,,,,,,,,1.4,0.6,1.2*11,1759653651000
NMEA,$BDGSA,A,3,221,222,226,234,236,,,,,,,,1.4,0.6,1.2*14,1759653651000
NMEA,$PSSGR,GSA,A,3,04,06,09,,,,,,,,,,1.4,0.6,1.2,1,8*4E,1759653651000
NMEA,$GPRMC,084051.000,A,3205.0296,N,03448.1609,E,1.1,284.6,051025,,,A*61,1759653651000
NMEA,$GPGGA,084052.000,3205.0296,N,03448.1615,E,1,11,1.0,37.4,M,17.1,M,,*60,1759653652000
NMEA,$PSAMSA,084052.000,3205.0296,N,03448.1615,E,0,M,,*63,1759653652000
NMEA,$GPGLL,3205.0296,N,03448.1615,E,084052.000,A,A*53,1759653652000
NMEA,$GPVTG,284.6,T,,M,1.6,N,3.0,K,A*01,1759653652000
NMEA,$GPGSV,5,1,17,01,23,177,34,03,58,105,31,04,56,021,41,06,33,300,37*75,1759653652000
NMEA,$GPGSV,5,2,17,07,36,214,41,09,50,305,38,16,23,095,26,26,15,056,31*76,1759653652000
NMEA,$GPGSV,5,3,17,30,06,218,24,31,07,040,24*76,1759653652000
NMEA,$GPGSV,5,4,17*7E,1759653652000
NMEA,$GPGSV,5,5,17,01,23,177,28,04,56,021,40,06,33,300,30,09,50,305,32,8*6D,1759653652000
NMEA,$GLGSV,2,1,08,67,17,075,38,68,45,027,40,69,33,319,33,78,47,080,43*69,1759653652000
NMEA,$GLGSV,2,2,08,79,34,153,34,83,28,226,37,84,33,292,29,85,06,334,23*67,1759653652000
NMEA,$GAGSV,4,1,13,107,30,054,33,119,34,275,33,121,06,165,21,126,38,186,32*60,1759653652000
NMEA,$GAGSV,4,2,13,127,21,116,30,129,64,342,44,133,57,264,41*65,1759653652000
NMEA,$GAGSV,4,3,13,107,30,054,26,119,34,275,29,126,38,186,25,127,21,116,31,1*70,1759653652000
NMEA,$GAGSV,4,4,13,129,64,342,40,133,57,264,33,1*7D,1759653652000
NMEA,$BDGSV,4,1,14,206,32,044,29,209,47,049,34,211,22,276,35,213,13,126,27*61,1759653652000
NMEA,$BDGSV,4,2,14,216,24,041,30,221,60,356,48,222,36,079,44,226,30,181,34*66,1759653652000
NMEA,$BDGSV,4,3,14,234,20,250,33,236,23,048,35*66,1759653652000
NMEA,$BDGSV,4,4,14,221,60,356,38,222,36,079,36,226,30,181,23,5*78,1759653652000
NMEA,$GPGSA,A,3,07,26,,,,,,,,,,,2.0,1.0,1.6*35,1759653652000
NMEA,$GNGSA,A,3,67,78,,,,,,,,,,,2.0,1.0,1.6*26,1759653652000
NMEA,$GAGSA,A,3,133,,,,,,,,,,,,2.0,1.0,1.6*16,1759653652000
NMEA,$BDGSA,A,3,221,222,,,,,,,,,,,2.0,1.0,1.6*24,1759653652000
NMEA,$PSSGR,GSA,A,3,04,06,09,,,,,,,,,,2.0,1.0,1.6,1,8*4A,1759653652000
NMEA,$PSSGR,GSA,A,3,129,,,,,,,,,,,,2.0,1.0,1.6,3,1*70,1759653652000
NMEA,$GPRMC,084052.000,A,3205.0296,N,03448.1615,E,1.6,284.6,051025,,,A*68,1759653652000
NMEA,$GPGGA,084053.000,3205.0292,N,03448.1620,E,1,13,1.4,38.2,M,17.1,M,,*6C,1759653653000
NMEA,$PSAMSA,084053.000,3205.0292,N,03448.1620,E,0,M,,*60,1759653653000
NMEA,$GPGLL,3205.0292,N,03448.1620,E,084053.000,A,A*50,1759653653000
NMEA,$GPVTG,284.6,T,,M,1.3,N,2.4,K,A*01,1759653653000
NMEA,$GPGSV,5,1,17,01,23,177,34,03,58,105,31,04,56,021,41,06,33,300,37*75,1759653653000
NMEA,$GPGSV,5,2,17,07,36,214,41,09,50,305,38,16,23,095,27,26,15,056,36*70,1759653653000
NMEA,$GPGSV,5,3,17,30,06,218,24,31,07,040,24*76,1759653653000
NMEA,$GPGSV,5,4,17*7E,1759653653000
NMEA,$GPGSV,5,5,17,01,23,177,27,04,56,021,39,06,33,300,30,09,50,305,32,8*6C,1759653653000
NMEA,$GLGSV,2,1,08,67,17,075,40,68,45,027,40,69,33,319,32,78,47,080,42*66,1759653653000
NMEA,$GLGSV,2,2,08,79,34,153,34,83,28,226,37,84,33,292,29,85,06,334,23*67,1759653653000
NMEA,$GAGSV,4,1,14,107,30,054,33,112,19,319,20,119,34,275,33,121,06,165,22*67,1759653653000
NMEA,$GAGSV,4,2,14,126,38,186,32,127,21,116,31,129,64,342,43,133,57,264,41*64,1759653653000
NMEA,$GAGSV,4,3,14,107,30,054,26,119,34,275,28,126,38,186,25,127,21,116,31,1*76,1759653653000
NMEA,$GAGSV,4,4,14,129,64,342,40,133,57,264,33,1*7A,1759653653000
NMEA,$BDGSV,4,1,14,206,32,044,29,209,47,049,34,211,22,276,35,213,13,126,27*61,1759653653000
NMEA,$BDGSV,4,2,14,216,24,041,30,221,60,356,47,222,36,079,44,226,30,181,33*6E,1759653653000
NMEA,$BDGSV,4,3,14,234,20,250,33,236,23,048,35*66,1759653653000
NMEA,$BDGSV,4,4,14,221,60,356,38,222,36,079,36,226,30,181,23,5*78,1759653653000
NMEA,$GPGSA,A,3,06,26,,,,,,,,,,,2.2,1.4,1.6*32,1759653653000
NMEA,$GNGSA,A,3,67,68,78,,,,,,,,,,2.2,1.4,1.6*2E,1759653653000
NMEA,$GAGSA,A,3,107,133,,,,,,,,,,,2.2,1.4,1.6*26,1759653653000
NMEA,$BDGSA,A,3,209,221,222,,,,,,,,,,2.2,1.4,1.6*19,1759653653000
NMEA,$PSSGR,GSA,A,3,04,09,,,,,,,,,,,2.2,1.4,1.6,1,8*4A,1759653653000
NMEA,$PSSGR,GSA,A,3,129,,,,,,,,,,,,2.2,1.4,1.6,3,1*76,1759653653000
NMEA,$GPRMC,084053.000,A,3205.0292,N,03448.1620,E,1.3,284.6,051025,,,A*6E,1759653653000
NMEA,$GPGGA,084054.000,3205.0292,N,03448.1629,E,1,14,0.8,36.5,M,17.1,M,,*61,1759653654000
NMEA,$PSAMSA,084054.000,3205.0292,N,03448.1629,E,0,M,,*6E,1759653654000
NMEA,$GPGLL,3205.0292,N,03448.1629,E,084054.000,A,A*5E,1759653654000
NMEA,$GPVTG,284.6,T,,M,1.6,N,2.9,K,A*09,1759653654000
NMEA,$GPGSV,4,1,16,01,23,177,34,03,58,105,31,04,56,021,41,06,33,300,37*75,1759653654000
NMEA,$GPGSV,4,2,16,07,36,214,41,09,50,305,38,16,23,095,27,26,15,056,36*70,1759653654000
NMEA,$GPGSV,4,3,16,30,06,218,24,31,07,040,24*76,1759653654000
NMEA,$GPGSV,4,4,16,01,23,177,25,04,56,021,39,06,33,300,30,09,50,305,32,8*6F,1759653654000
NMEA,$GLGSV,2,1,08,67,16,076,40,68,45,027,40,69,33,319,32,78,47,080,42*64,1759653654000
NMEA,$GLGSV,2,2,08,79,34,153,34,83,28,226,36,84,33,291,28,85,06,333,23*63,1759653654000
NMEA,$GAGSV,4,1,14,107,30,054,33,112,19,319,21,119,34,275,33,121,06,165,23*67,1759653654000
NMEA,$GAGSV,4,2,14,126,38,186,31,127,21,116,31,129,64,342,44,133,57,264,41*60,1759653654000
NMEA,$GAGSV,4,3,14,107,30,054,25,119,34,275,28,126,38,186,25,127,21,116,31,1*75,1759653654000
NMEA,$GAGSV,4,4,14,129,64,342,40,133,57,264,32,1*7B,1759653654000
NMEA,$BDGSV,4,1,14,206,32,044,29,209,47,049,34,211,22,276,35,213,13,126,27*61,1759653654000
NMEA,$BDGSV,4,2,14,216,24,041,30,221,60,356,48,222,36,079,44,226,30,181,33*61,1759653654000
NMEA,$BDGSV,4,3,14,234,20,250,33,236,23,048,35*66,1759653654000
NMEA,$BDGSV,4,4,14,221,60,356,38,222,36,079,36,226,30,181,22,5*79,1759653654000
NMEA,$GPGSA,A,3,07,26,,,,,,,,,,,1.8,0.8,1.6*37,1759653654000
NMEA,$GNGSA,A,3,67,68,78,,,,,,,,,,1.8,0.8,1.6*2A,1759653654000
NMEA,$GAGSA,A,3,107,126,129,133,,,,,,,,,1.8,0.8,1.6*2D,1759653654000
NMEA,$BDGSA,A,3,221,222,,,,,,,,,,,1.8,0.8,1.6*26,1759653654000
NMEA,$PSSGR,GSA,A,3,04,06,09,,,,,,,,,,1.8,0.8,1.6,1,8*48,1759653654000
NMEA,$GPRMC,084054.000,A,3205.0292,N,03448.1629,E,1.6,284.6,051025,,,A*65,1759653654000
NMEA,$GPGGA,084055.000,3205.0290,N,03448.1632,E,1,18,0.6,35.4,M,17.1,M,,*68,1759653655000
NMEA,$PSAMSA,084055.000,3205.0290,N,03448.1632,E,0,M,,*67,1759653655000
NMEA,$GPGLL,3205.0290,N,03448.1632,E,084055.000,A,A*57,1759653655000
NMEA,$GPVTG,50.6,T,,M,1.1,N,2.0,K,A*3C,1759653655000
NMEA,$GPGSV,4,1,16,01,23,177,34,03,58,105,31,04,56,022,40,06,33,300,37*77,1759653655000
NMEA,$GPGSV,4,2,16,07,36,214,41,09,50,305,38,16,23,095,27,26,15,056,36*70,1759653655000
NMEA,$GPGSV,4,3,16,30,06,218,24,31,07,040,24*76,1759653655000
NMEA,$GPGSV,4,4,16,01,23,177,24,04,56,022,39,06,33,300,31,09,50,305,32,8*6C,1759653655000
NMEA,$GLGSV,2,1,08,67,16,076,40,68,45,027,40,69,33,319,32,78,47,080,41*67,1759653655000
NMEA,$GLGSV,2,2,08,79,34,153,35,83,28,226,36,84,33,291,28,85,06,333,23*62,1759653655000
NMEA,$GAGSV,4,1,14,107,30,054,33,112,19,319,22,119,34,275,32,121,06,165,23*65,1759653655000
NMEA,$GAGSV,4,2,14,126,38,186,31,127,21,116,30,129,64,342,44,133,57,264,41*61,1759653655000
NMEA,$GAGSV,4,3,14,107,30,054,25,119,34,275,28,126,38,186,24,127,21,116,30,1*75,1759653655000
NMEA,$GAGSV,4,4,14,129,64,342,40,133,57,264,32,1*7B,1759653655000
NMEA,$BDGSV,4,1,14,206,32,044,29,209,47,049,34,211,22,276,35,213,13,126,27*61,1759653655000
NMEA,$BDGSV,4,2,14,216,24,041,30,221,60,356,48,222,36,079,45,226,30,181,33*60,1759653655000
NMEA,$BDGSV,4,3,14,234,20,250,33,236,23,048,35*66,1759653655000
NMEA,$BDGSV,4,4,14,221,60,356,38,222,36,079,35,226,30,181,22,5*7A,1759653655000
NMEA,$GPGSA,A,3,07,26,,,,,,,,,,,1.4,0.6,1.2*31,1759653655000
NMEA,$GNGSA,A,3,67,68,78,,,,,,,,,,1.4,0.6,1.2*2C,1759653655000
NMEA,$GAGSA,A,3,107,121,126,133,,,,,,,,,1.4,0.6,1.2*23,1759653655000
NMEA,$BDGSA,A,3,206,209,221,222,,,,,,,,,1.4,0.6,1.2*2F,1759653655000
NMEA,$PSSGR,GSA,A,3,04,06,09,,,,,,,,,,1.4,0.6,1.2,1,8*4E,1759653655000
NMEA,$PSSGR,GSA,A,3,119,129,,,,,,,,,,,1.4,0.6,1.2,3,1*4D,1759653655000
NMEA,$GPRMC,084055.000,A,3205.0290,N,03448.1632,E,1.1,50.6,051025,,,A*50,1759653655000
NMEA,$GPGGA,084056.000,3205.0288,N,03448.1636,E,1,15,0.8,34.2,M,17.1,M,,*62,1759653656000
NMEA,$PSAMSA,084056.000,3205.0288,N,03448.1636,E,0,M,,*69,1759653656000
NMEA,$GPGLL,3205.0288,N,03448.1636,E,084056.000,A,A*59,1759653656000
NMEA,$GPVTG,56.7,T,,M,0.9,N,1.7,K,A*36,1759653656000
NMEA,$GPGSV,4,1,16,01,23,177,34,03,58,105,31,04,56,022,40,06,33,300,38*78,1759653656000
NMEA,$GPGSV,4,2,16,07,36,214,41,09,50,305,38,16,23,095,27,26,15,056,37*71,1759653656000
NMEA,$GPGSV,4,3,16,30,06,218,24,31,07,040,24*76,1759653656000
NMEA,$GPGSV,4,4,16,01,23,177,24,04,56,022,39,06,33,300,32,09,50,305,32,8*6F,1759653656000
NMEA,$GLGSV,3,1,09,67,16,076,40,68,45,027,40,69,33,319,32,77,09,028,18*6C,1759653656000
NMEA,$GLGSV,3,2,09,78,47,080,41,79,34,153,35,83,28,226,36,84,33,291,28*6A,1759653656000
NMEA,$GLGSV,3,3,09,85,06,333,23*55,1759653656000
NMEA,$GAGSV,4,1,14,107,30,054,33,112,19,319,22,119,34,275,31,121,06,165,23*66,1759653656000
NMEA,$GAGSV,4,2,14,126,38,186,31,127,21,116,30,129,64,342,44,133,57,264,41*61,1759653656000
NMEA,$GAGSV,4,3,14,107,30,054,25,119,34,275,28,126,38,186,24,127,21,116,35,1*70,1759653656000
NMEA,$GAGSV,4,4,14,129,64,342,39,133,57,264,32,1*75,1759653656000
NMEA,$BDGSV,4,1,14,206,32,044,29,209,47,049,34,211,22,276,35,213,13,126,27*61,1759653656000
NMEA,$BDGSV,4,2,14,216,24,041,30,221,60,356,48,222,36,079,45,226,30,181,33*60,1759653656000
NMEA,$BDGSV,4,3,14,234,20,250,33,236,23,048,34*67,1759653656000
NMEA,$BDGSV,4,4,14,221,60,356,38,222,36,079,35,226,30,181,22,234,20,250,24,5*7C,1759653656000
NMEA,$GPGSA,A,3,26,,,,,,,,,,,,1.4,0.8,1.2*38,1759653656000
NMEA,$GNGSA,A,3,67,68,78,79,84,,,,,,,,1.4,0.8,1.2*20,1759653656000
NMEA,$GAGSA,A,3,121,129,133,,,,,,,,,,1.4,0.8,1.2*14,1759653656000
NMEA,$BDGSA,A,3,221,222,,,,,,,,,,,1.4,0.8,1.2*2E,1759653656000
NMEA,$PSSGR,GSA,A,3,04,06,09,,,,,,,,,,1.4,0.8,1.2,1,8*40,1759653656000
NMEA,$PSSGR,GSA,A,3,119,,,,,,,,,,,,1.4,0.8,1.2,3,1*79,1759653656000
NMEA,$GPRMC,084056.000,A,3205.0288,N,03448.1636,E,0.9,56.7,051025,,,A*50,1759653656000
NMEA,$GPGGA,084057.000,3205.0296,N,03448.1640,E,1,14,0.8,34.5,M,17.1,M,,*6B,1759653657000
NMEA,$PSAMSA,084057.000,3205.0296,N,03448.1640,E,0,M,,*66,1759653657000
NMEA,$GPGLL,3205.0296,N,03448.1640,E,084057.000,A,A*56,1759653657000
NMEA,$GPVTG,86.4,T,,M,1.2,N,2.3,K,A*35,1759653657000
NMEA,$GPGSV,4,1,16,01,23,177,34,03,58,105,31,04,56,022,40,06,33,300,38*78,1759653657000
NMEA,$GPGSV,4,2,16,07,37,214,41,09,50,305,38,16,23,095,28,26,15,056,36*7E,1759653657000
NMEA,$GPGSV,4,3,16,30,06,218,25,31,07,040,24*77,1759653657000
NMEA,$GPGSV,4,4,16,01,23,177,23,04,56,022,39,06,33,300,32,09,50,305,31,8*6B,1759653657000
NMEA,$GLGSV,3,1,09,67,16,076,40,68,45,027,39,69,33,319,32,77,09,028,18*62,1759653657000
NMEA,$GLGSV,3,2,09,78,47,080,41,79,34,153,35,83,28,226,36,84,33,291,28*6A,1759653657000
NMEA,$GLGSV,3,3,09,85,06,333,23*55,1759653657000
NMEA,$GAGSV,4,1,14,107,29,054,33,112,19,319,22,119,34,275,31,121,06,165,23*6E,1759653657000
NMEA,$GAGSV,4,2,14,126,38,186,31,127,21,116,29,129,64,342,44,133,57,264,41*69,1759653657000
NMEA,$GAGSV,4,3,14,107,29,054,25,119,34,275,27,126,38,186,24,127,21,116,34,1*76,1759653657000
NMEA,$GAGSV,4,4,14,129,64,342,39,133,57,264,32,1*75,1759653657000
NMEA,$BDGSV,5,1,16,205,49,138,43,206,32,044,29,209,47,049,34,211,22,276,35*67,1759653657000
NMEA,$BDGSV,5,2,16,213,12,126,27,216,24,041,30,221,60,356,48,222,36,079,45*6D,1759653657000
NMEA,$BDGSV,5,3,16,226,30,181,33,234,20,250,33,236,23,048,34*69,1759653657000
NMEA,$BDGSV,5,4,16,221,60,356,38,222,36,079,35,226,30,181,21,234,20,250,24,5*7C,1759653657000
NMEA,$BDGSV,5,5,16,236,23,048,26,5*78,1759653657000
NMEA,$GPGSA,A,3,07,26,,,,,,,,,,,1.6,0.8,1.4*3B,1759653657000
NMEA,$GNGSA,A,3,67,78,79,84,,,,,,,,,1.6,0.8,1.4*2A,1759653657000
NMEA,$GAGSA,A,3,129,133,,,,,,,,,,,1.6,0.8,1.4*22,1759653657000
NMEA,$BDGSA,A,3,209,221,222,,,,,,,,,,1.6,0.8,1.4*11,1759653657000
NMEA,$PSSGR,GSA,A,3,04,06,09,,,,,,,,,,1.6,0.8,1.4,1,8*44,1759653657000
NMEA,$GPRMC,084057.000,A,3205.0296,N,03448.1640,E,1.2,86.4,051025,,,A*5B,1759653657000
NMEA,$GPGGA,084058.000,3205.0296,N,03448.1642,E,1,21,0.6,34.3,M,17.1,M,,*68,1759653658000
NMEA,$PSAMSA,084058.000,3205.0296,N,03448.1642,E,0,M,,*6B,1759653658000
NMEA,$GPGLL,3205.0296,N,03448.1642,E,084058.000,A,A*5B,1759653658000
NMEA,$GPVTG,92.9,T,,M,0.8,N,1.4,K,A*32,1759653658000
NMEA,$GPGSV,4,1,15,01,23,177,34,03,58,105,30,04,56,022,40,06,33,300,38*7A,1759653658000
NMEA,$GPGSV,4,2,15,07,37,214,41,09,50,306,38,16,23,095,28,26,15,056,36*7E,1759653658000
NMEA,$GPGSV,4,3,15,30,06,218,25,31,07,040,24*74,1759653658000
NMEA,$GPGSV,4,4,15,01,23,177,22,04,56,022,39,06,33,300,32,09,50,306,31,8*6A,1759653658000
NMEA,$GLGSV,3,1,09,67,16,076,40,68,45,027,39,69,33,319,32,77,09,028,18*62,1759653658000
NMEA,$GLGSV,3,2,09,78,47,080,41,79,34,153,36,83,28,226,36,84,33,291,28*69,1759653658000
NMEA,$GLGSV,3,3,09,85,06,333,23*55,1759653658000
NMEA,$GAGSV,4,1,14,107,29,054,33,112,19,319,22,119,34,275,30,121,06,165,23*6F,1759653658000
NMEA,$GAGSV,4,2,14,126,38,186,31,127,21,116,26,129,64,342,44,133,57,264,41*66,1759653658000
NMEA,$GAGSV,4,3,14,107,29,054,25,119,34,275,27,126,38,186,23,127,21,116,34,1*71,1759653658000
NMEA,$GAGSV,4,4,14,129,64,342,39,133,57,264,32,1*75,1759653658000
NMEA,$BDGSV,4,1,16,205,49,138,43,206,32,044,29,209,47,049,34,211,22,276,34*67,1759653658000
NMEA,$BDGSV,4,2,16,213,12,126,27,216,24,041,30,221,60,356,48,222,36,079,45*6C,1759653658000
NMEA,$BDGSV,4,3,16,226,30,181,33,234,20,250,33,236,23,048,33*6F,1759653658000
NMEA,$BDGSV,4,4,16,221,60,356,38,222,36,079,35,226,30,181,21,234,20,250,28,5*71,1759653658000
NMEA,$GPGSA,A,3,03,07,26,,,,,,,,,,1.2,0.6,1.0*36,1759653658000
NMEA,$GNGSA,A,3,67,68,78,79,83,,,,,,,,1.2,0.6,1.0*2D,1759653658000
NMEA,$GAGSA,A,3,121,126,129,133,,,,,,,,,1.2,0.6,1.0*2B,1759653658000
NMEA,$BDGSA,A,3,206,209,221,222,234,,,,,,,,1.2,0.6,1.0*1E,1759653658000
NMEA,$PSSGR,GSA,A,3,04,06,09,,,,,,,,,,1.2,0.6,1.0,1,8*4A,1759653658000
NMEA,$PSSGR,GSA,A,3,119,,,,,,,,,,,,1.2,0.6,1.0,3,1*73,1759653658000
NMEA,$GPRMC,084058.000,A,3205.0296,N,03448.1642,E,0.8,92.9,051025,,,A*55,1759653658000
NMEA,$GPGGA,084059.000,3205.0293,N,03448.1646,E,1,15,0.8,34.4,M,17.1,M,,*66,1759653659000
NMEA,$PSAMSA,084059.000,3205.0293,N,03448.1646,E,0,M,,*6B,1759653659000
NMEA,$GPGLL,3205.0293,N,03448.1646,E,084059.000,A,A*5B,1759653659000
NMEA,$GPVTG,89.4,T,,M,2.0,N,3.6,K,A*3F,1759653659000
NMEA,$GPGSV,4,1,15,01,23,177,34,04,56,022,40,06,33,300,39,07,37,214,41*73,1759653659000
NMEA,$GPGSV,4,2,15,16,23,095,28,26,15,056,36,30,06,218,25,31,07,040,24*73,1759653659000
NMEA,$GPGSV,4,3,15*7A,1759653659000
NMEA,$GPGSV,4,4,15,01,23,177,22,04,56,022,39,06,33,300,31,09,50,306,31,8*69,1759653659000
NMEA,$GLGSV,3,1,09,67,16,076,43,68,45,027,40,69,33,319,32,77,09,028,18*6F,1759653659000
NMEA,$GLGSV,3,2,09,78,47,080,41,79,34,153,36,83,28,226,36,84,33,291,27*66,1759653659000
NMEA,$GLGSV,3,3,09,85,06,333,23*55,1759653659000
NMEA,$GAGSV,4,1,14,107,29,054,33,112,19,319,22,119,34,275,29,121,06,165,23*67,1759653659000
NMEA,$GAGSV,4,2,14,126,38,186,31,127,21,116,27,129,64,342,44,133,57,264,41*67,1759653659000
NMEA,$GAGSV,4,3,14,107,29,054,25,119,34,275,27,126,38,186,23,127,21,116,33,1*76,1759653659000
NMEA,$GAGSV,4,4,14,129,64,342,39,133,57,264,32,1*75,1759653659000
NMEA,$BDGSV,4,1,16,205,49,138,43,206,32,044,29,209,47,049,34,211,22,276,34*67,1759653659000
NMEA,$BDGSV,4,2,16,213,12,126,26,216,24,041,30,221,60,356,48,222,36,079,45*6D,1759653659000
NMEA,$BDGSV,4,3,16,226,30,181,33,234,20,250,33,236,23,048,30*6C,1759653659000
NMEA,$BDGSV,4,4,16,221,60,356,39,222,36,079,34,226,30,181,21,234,20,250,31,5*79,1759653659000
NMEA,$GPGSA,A,3,26,,,,,,,,,,,,1.6,0.8,1.4*3C,1759653659000
NMEA,$GNGSA,A,3,67,68,78,79,,,,,,,,,1.6,0.8,1.4*28,1759653659000
NMEA,$GAGSA,A,3,121,129,133,,,,,,,,,,1.6,0.8,1.4*10,1759653659000
NMEA,$BDGSA,A,3,221,222,,,,,,,,,,,1.6,0.8,1.4*2A,1759653659000
NMEA,$PSSGR,GSA,A,3,04,06,09,,,,,,,,,,1.6,0.8,1.4,1,8*44,1759653659000
NMEA,$PSSGR,GSA,A,3,107,119,,,,,,,,,,,1.6,0.8,1.4,3,1*4B,1759653659000
NMEA,$GPRMC,084059.000,A,3205.0293,N,03448.1646,E,2.0,89.4,051025,,,A*58,1759653659000
NMEA,$GPGGA,084100.000,3205.0299,N,03448.1654,E,1,16,0.8,33.6,M,17.1,M,,*64,1759653660000
NMEA,$PSAMSA,084100.000,3205.0299,N,03448.1654,E,0,M,,*6F,1759653660000
NMEA,$GPGLL,3205.0299,N,03448.1654,E,084100.000,A,A*5F,1759653660000
NMEA,$GPVTG,68.4,T,,M,1.1,N,2.1,K,A*34,1759653660000
NMEA,$GPGSV,4,1,15,01,23,177,34,03,58,105,27,04,56,022,39,06,33,300,39*73,1759653660000
NMEA,$GPGSV,4,2,15,07,37,214,40,09,50,306,34,16,23,095,29,26,15,056,35*71,1759653660000
NMEA,$GPGSV,4,3,15,30,06,218,25,31,07,040,24*74,1759653660000
NMEA,$GPGSV,4,4,15,01,23,177,26,04,56,022,38,06,33,300,31,09,50,306,31,8*6C,1759653660000
NMEA,$GLGSV,3,1,09,67,16,076,49,68,45,027,40,69,33,319,32,77,09,028,19*64,1759653660000
NMEA,$GLGSV,3,2,09,78,47,080,41,79,34,153,36,83,28,226,36,84,33,291,27*66,1759653660000
NMEA,$GLGSV,3,3,09,85,06,333,23*55,1759653660000
NMEA,$GAGSV,4,1,14,107,29,054,32,112,19,319,21,119,34,275,26,121,06,165,24*6D,1759653660000
NMEA,$GAGSV,4,2,14,126,38,186,32,127,21,116,25,129,64,342,44,133,57,264,41*66,1759653660000
NMEA,$GAGSV,4,3,14,107,29,054,25,119,34,275,27,126,38,186,23,127,21,116,38,1*7D,1759653660000
NMEA,$GAGSV,4,4,14,129,64,342,39,133,57,264,31,1*76,1759653660000
NMEA,$BDGSV,4,1,16,205,49,138,43,206,32,044,29,209,47,049,34,211,22,276,34*67,1759653660000
NMEA,$BDGSV,4,2,16,213,12,126,26,216,24,041,31,221,60,357,48,222,36,079,45*6D,1759653660000
NMEA,$BDGSV,4,3,16,226,30,181,33,234,20,250,33,236,23,048,27*6A,1759653660000
NMEA,$BDGSV,4,4,16,221,60,357,39,222,36,079,34,226,30,181,21,234,20,250,31,5*78,1759653660000
NMEA,$GPGSA,A,3,26,,,,,,,,,,,,1.6,0.8,1.2*3A,1759653660000
NMEA,$GNGSA,A,3,67,68,78,79,,,,,,,,,1.6,0.8,1.2*2E,1759653660000
NMEA,$GAGSA,A,3,121,129,133,,,,,,,,,,1.6,0.8,1.2*16,1759653660000
NMEA,$BDGSA,A,3,209,221,222,,,,,,,,,,1.6,0.8,1.2*17,1759653660000
NMEA,$PSSGR,GSA,A,3,04,06,09,,,,,,,,,,1.6,0.8,1.2,1,8*42,1759653660000
NMEA,$PSSGR,GSA,A,3,107,119,,,,,,,,,,,1.6,0.8,1.2,3,1*4D,1759653660000
NMEA,$GPRMC,084100.000,A,3205.0299,N,03448.1654,E,1.1,68.4,051025,,,A*51,1759653660000
NMEA,$GPGGA,084101.000,3205.0300,N,03448.1652,E,1,20,0.6,33.0,M,17.1,M,,*6F,1759653661000
NMEA,$PSAMSA,084101.000,3205.0300,N,03448.1652,E,0,M,,*69,1759653661000
NMEA,$GPGLL,3205.0300,N,03448.1652,E,084101.000,A,A*59,1759653661000
NMEA,$GPVTG,49.9,T,,M,1.1,N,2.1,K,A*3A,1759653661000
NMEA,$GPGSV,5,1,16,01,23,177,38,03,58,105,27,04,56,022,38,06,33,300,39*7C,1759653661000
NMEA,$GPGSV,5,2,16,07,37,214,40,09,50,306,33,16,23,095,29,26,15,056,35*74,1759653661000
NMEA,$GPGSV,5,3,16,30,06,218,25,31,07,040,25*77,1759653661000
NMEA,$GPGSV,5,4,16,01,23,177,26,04,56,022,37,06,33,300,34,09,50,306,31,8*64,1759653661000
NMEA,$GPGSV,5,5,16,26,15,056,25,8*5E,1759653661000
NMEA,$GLGSV,3,1,09,67,16,076,49,68,45,027,40,69,33,319,32,77,09,028,19*64,1759653661000
NMEA,$GLGSV,3,2,09,78,47,080,42,79,34,153,36,83,28,226,36,84,33,291,27*65,1759653661000
NMEA,$GLGSV,3,3,09,85,06,333,23*55,1759653661000
NMEA,$GAGSV,5,1,15,107,29,054,32,112,19,319,21,119,34,275,23,121,06,165,24*68,1759653661000
NMEA,$GAGSV,5,2,15,126,38,186,32,127,21,116,22,129,64,342,45,130,14,065,19*6A,1759653661000
NMEA,$GAGSV,5,3,15,133,57,264,41*6C,1759653661000
NMEA,$GAGSV,5,4,15,107,29,054,25,119,34,275,37,126,38,186,23,127,21,116,38,1*7B,1759653661000
NMEA,$GAGSV,5,5,15,129,64,342,39,133,57,264,32,1*74,1759653661000
NMEA,$BDGSV,4,1,16,205,49,138,42,206,32,044,30,209,47,049,35,211,22,276,35*6E,1759653661000
NMEA,$BDGSV,4,2,16,213,12,126,26,216,24,041,39,221,60,357,48,222,36,079,45*65,1759653661000
NMEA,$BDGSV,4,3,16,226,30,181,36,234,20,250,32,236,23,048,24*6D,1759653661000
NMEA,$BDGSV,4,4,16,221,60,357,38,222,36,079,34,226,30,181,20,234,20,250,34,5*7D,1759653661000
NMEA,$GPGSA,A,3,,,,,,,,,,,,,1.4,0.6,1.2*32,1759653661000
NMEA,$GNGSA,A,3,67,68,78,79,83,,,,,,,,1.4,0.6,1.2*29,1759653661000
NMEA,$GAGSA,A,3,121,126,129,133,,,,,,,,,1.4,0.6,1.2*2F,1759653661000
NMEA,$BDGSA,A,3,206,209,221,222,,,,,,,,,1.4,0.6,1.2*2F,1759653661000
NMEA,$PSSGR,GSA,A,3,04,06,09,26,,,,,,,,,1.4,0.6,1.2,1,8*4A,1759653661000
NMEA,$PSSGR,GSA,A,3,107,119,,,,,,,,,,,1.4,0.6,1.2,3,1*41,1759653661000
NMEA,$PSSGR,GSA,A,3,234,,,,,,,,,,,,1.4,0.6,1.2,4,5*78,1759653661000
NMEA,$GPRMC,084101.000,A,3205.0300,N,03448.1652,E,1.1,49.9,051025,,,A*59,1759653661000
NMEA,$GPGGA,084102.000,3205.0295,N,03448.1646,E,1,17,0.6,31.9,M,17.1,M,,*6B,1759653662000
NMEA,$PSAMSA,084102.000,3205.0295,N,03448.1646,E,0,M,,*62,1759653662000
NMEA,$GPGLL,3205.0295,N,03448.1646,E,084102.000,A,A*52,1759653662000
NMEA,$GPVTG,43.6,T,,M,0.3,N,0.6,K,A*39,1759653662000
NMEA,$GPGSV,5,1,15,01,23,177,38,03,58,105,27,04,56,022,37,06,33,300,39*70,1759653662000
NMEA,$GPGSV,5,2,15,07,37,214,40,09,50,306,33,16,23,095,30,26,15,056,35*7F,1759653662000
NMEA,$GPGSV,5,3,15,30,06,218,25,31,07,040,25*74,1759653662000
NMEA,$GPGSV,5,4,15,01,23,177,27,04,56,022,36,06,33,300,34,09,50,306,30,8*66,1759653662000
NMEA,$GPGSV,5,5,15,26,15,056,28,8*50,1759653662000
NMEA,$GLGSV,3,1,09,67,16,076,49,68,45,027,40,69,33,319,32,77,09,028,19*64,1759653662000
NMEA,$GLGSV,3,2,09,78,47,080,42,79,34,153,36,83,28,226,36,84,33,291,27*65,1759653662000
NMEA,$GLGSV,3,3,09,85,06,333,23*55,1759653662000
NMEA,$GAGSV,5,1,15,107,29,054,33,112,19,319,21,119,34,275,20,121,06,165,24*6A,1759653662000
NMEA,$GAGSV,5,2,15,126,38,186,32,127,21,116,19,129,64,342,45,130,14,065,23*6B,1759653662000
NMEA,$GAGSV,5,3,15,133,57,264,41*6C,1759653662000
NMEA,$GAGSV,5,4,15,107,29,054,25,119,34,275,37,126,38,186,25,127,21,116,36,1*73,1759653662000
NMEA,$GAGSV,5,5,15,129,64,342,39,133,57,264,32,1*74,1759653662000
NMEA,$BDGSV,4,1,16,205,49,138,41,206,32,044,31,209,47,049,36,211,22,276,35*6F,1759653662000
NMEA,$BDGSV,4,2,16,213,12,126,26,216,24,041,45,221,60,357,47,222,36,079,45*61,1759653662000
NMEA,$BDGSV,4,3,16,226,31,181,42,234,20,250,29,236,23,048,21*60,1759653662000
NMEA,$BDGSV,4,4,16,221,60,357,38,222,36,079,35,226,31,181,20,234,20,250,34,5*7D,1759653662000
NMEA,$GPGSA,A,3,,,,,,,,,,,,,1.4,0.6,1.2*32,1759653662000
NMEA,$GNGSA,A,3,68,78,79,,,,,,,,,,1.4,0.6,1.2*23,1759653662000
NMEA,$GAGSA,A,3,121,126,129,133,,,,,,,,,1.4,0.6,1.2*2F,1759653662000
NMEA,$BDGSA,A,3,209,221,222,,,,,,,,,,1.4,0.6,1.2*1B,1759653662000
NMEA,$PSSGR,GSA,A,3,04,06,09,26,,,,,,,,,1.4,0.6,1.2,1,8*4A,1759653662000
NMEA,$PSSGR,GSA,A,3,107,119,,,,,,,,,,,1.4,0.6,1.2,3,1*41,1759653662000
NMEA,$PSSGR,GSA,A,3,234,,,,,,,,,,,,1.4,0.6,1.2,4,5*78,1759653662000
NMEA,$GPRMC,084102.000,A,3205.0295,N,03448.1646,E,0.3,43.6,051025,,,A*54,1759653662000
NMEA,$GPGGA,084103.000,3205.0293,N,03448.1642,E,1,16,0.8,32.9,M,17.1,M,,*64,1759653663000
NMEA,$PSAMSA,084103.000,3205.0293,N,03448.1642,E,0,M,,*61,1759653663000
NMEA,$GPGLL,3205.0293,N,03448.1642,E,084103.000,A,A*51,1759653663000
NMEA,$GPVTG,43.6,T,,M,1.7,N,3.1,K,A*38,1759653663000
NMEA,$GPGSV,5,1,15,01,23,177,39,03,58,105,27,04,56,022,36,06,33,300,39*70,1759653663000
NMEA,$GPGSV,5,2,15,07,37,214,39,09,50,306,33,16,23,095,30,26,15,056,37*73,1759653663000
NMEA,$GPGSV,5,3,15,30,06,218,25,31,07,040,25*74,1759653663000
NMEA,$GPGSV,5,4,15,01,23,177,27,04,56,022,36,06,33,300,33,09,50,306,30,8*61,1759653663000
NMEA,$GPGSV,5,5,15,26,15,056,31,8*58,1759653663000
NMEA,$GLGSV,3,1,09,67,16,076,48,68,45,027,40,69,33,319,32,77,09,028,19*65,1759653663000
NMEA,$GLGSV,3,2,09,78,47,080,42,79,34,153,36,83,28,226,36,84,33,291,27*65,1759653663000
NMEA,$GLGSV,3,3,09,85,06,333,22*54,1759653663000
NMEA,$GAGSV,5,1,15,107,29,054,33,112,19,319,21,119,34,275,17,121,06,165,24*6E,1759653663000
NMEA,$GAGSV,5,2,15,126,38,186,31,127,21,116,16,129,64,342,45,130,14,065,24*60,1759653663000
NMEA,$GAGSV,5,3,15,133,57,264,41*6C,1759653663000
NMEA,$GAGSV,5,4,15,107,29,054,25,119,34,275,36,126,38,186,25,127,21,116,35,1*71,1759653663000
NMEA,$GAGSV,5,5,15,129,64,342,39,133,57,264,32,1*74,1759653663000
NMEA,$BDGSV,4,1,16,205,49,138,39,206,32,044,36,209,47,049,36,211,22,276,35*67,1759653663000
NMEA,$BDGSV,4,2,16,213,12,126,26,216,24,041,45,221,60,357,47,222,36,079,45*61,1759653663000
NMEA,$BDGSV,4,3,16,226,31,181,42,234,20,250,37,236,23,048,18*65,1759653663000
NMEA,$BDGSV,4,4,16,221,60,357,39,222,36,079,37,226,31,181,20,234,20,250,33,5*79,1759653663000
NMEA,$GPGSA,A,3,,,,,,,,,,,,,1.6,0.8,1.4*38,1759653663000
NMEA,$GNGSA,A,3,68,78,79,,,,,,,,,,1.6,0.8,1.4*29,1759653663000
NMEA,$GAGSA,A,3,121,129,133,,,,,,,,,,1.6,0.8,1.4*10,1759653663000
NMEA,$BDGSA,A,3,206,209,221,,,,,,,,,,1.6,0.8,1.4*17,1759653663000
NMEA,$PSSGR,GSA,A,3,04,06,09,26,,,,,,,,,1.6,0.8,1.4,1,8*40,1759653663000
NMEA,$PSSGR,GSA,A,3,107,119,,,,,,,,,,,1.6,0.8,1.4,3,1*4B,1759653663000
NMEA,$PSSGR,GSA,A,3,222,,,,,,,,,,,,1.6,0.8,1.4,4,5*75,1759653663000
NMEA,$GPRMC,084103.000,A,3205.0293,N,03448.1642,E,1.7,43.6,051025,,,A*52,1759653663000
NMEA,$GPGGA,084104.000,3205.0294,N,03448.1643,E,1,15,0.8,33.6,M,17.1,M,,*68,1759653664000
NMEA,$PSAMSA,084104.000,3205.0294,N,03448.1643,E,0,M,,*60,1759653664000
NMEA,$GPGLL,3205.0294,N,03448.1643,E,084104.000,A,A*50,1759653664000
NMEA,$GPVTG,43.6,T,,M,0.4,N,0.8,K,A*30,1759653664000
NMEA,$GPGSV,5,1,15,01,23,177,39,03,58,105,27,04,56,022,35,06,33,300,38*72,1759653664000
NMEA,$GPGSV,5,2,15,07,37,214,38,09,50,306,33,16,23,095,30,26,15,056,42*70,1759653664000
NMEA,$GPGSV,5,3,15,30,06,218,25,31,07,040,25*74,1759653664000
NMEA,$GPGSV,5,4,15,01,23,177,27,04,56,022,36,06,33,300,33,09,50,306,30,8*61,1759653664000
NMEA,$GPGSV,5,5,15,26,15,056,31,8*58,1759653664000
NMEA,$GLGSV,3,1,09,67,16,076,47,68,45,027,40,69,33,319,32,77,09,028,20*60,1759653664000
NMEA,$GLGSV,3,2,09,78,47,080,42,79,34,153,36,83,28,226,36,84,33,291,27*65,1759653664000
NMEA,$GLGSV,3,3,09,85,06,333,19*5C,1759653664000
NMEA,$GAGSV,5,1,15,107,29,054,33,112,19,319,21,119,34,275,14,121,06,165,24*6D,1759653664000
NMEA,$GAGSV,5,2,15,126,37,186,31,127,21,116,14,129,64,342,45,130,14,065,24*6D,1759653664000
NMEA,$GAGSV,5,3,15,133,57,264,41*6C,1759653664000
NMEA,$GAGSV,5,4,15,107,29,054,27,119,34,275,36,126,37,186,24,127,21,116,34,1*7C,1759653664000
NMEA,$GAGSV,5,5,15,129,64,342,38,133,57,264,31,1*76,1759653664000
NMEA,$BDGSV,4,1,16,205,49,138,38,206,32,044,36,209,47,049,36,211,22,276,33*60,1759653664000
NMEA,$BDGSV,4,2,16,213,12,126,27,216,24,041,44,221,60,357,47,222,36,079,44*60,1759653664000
NMEA,$BDGSV,4,3,16,226,31,181,43,234,20,250,38,236,23,048,15*66,1759653664000
NMEA,$BDGSV,4,4,16,221,60,357,39,222,36,079,37,226,31,181,20,234,20,250,32,5*78,1759653664000
NMEA,$GPGSA,A,3,26,,,,,,,,,,,,1.8,0.8,1.6*30,1759653664000
NMEA,$GNGSA,A,3,68,78,,,,,,,,,,,1.8,0.8,1.6*2B,1759653664000
NMEA,$GAGSA,A,3,126,129,130,133,,,,,,,,,1.8,0.8,1.6*29,1759653664000
NMEA,$BDGSA,A,3,206,209,221,,,,,,,,,,1.8,0.8,1.6*1B,1759653664000
NMEA,$PSSGR,GSA,A,3,04,06,09,,,,,,,,,,1.8,0.8,1.6,1,8*48,1759653664000
NMEA,$PSSGR,GSA,A,3,107,,,,,,,,,,,,1.8,0.8,1.6,3,1*7E,1759653664000
NMEA,$PSSGR,GSA,A,3,222,,,,,,,,,,,,1.8,0.8,1.6,4,5*79,1759653664000
NMEA,$GPRMC,084104.000,A,3205.0294,N,03448.1643,E,0.4,43.6,051025,,,A*51,1759653664000
NMEA,$GPGGA,084105.000,3205.0291,N,03448.1645,E,1,12,1.0,33.8,M,17.1,M,,*6A,1759653665000
NMEA,$PSAMSA,084105.000,3205.0291,N,03448.1645,E,0,M,,*62,1759653665000
NMEA,$GPGLL,3205.0291,N,03448.1645,E,084105.000,A,A*52,1759653665000
NMEA,$GPVTG,43.6,T,,M,0.5,N,1.0,K,A*38,1759653665000
NMEA,$GPGSV,5,1,15,01,23,177,39,03,58,105,27,04,56,022,34,06,33,300,38*73,1759653665000
NMEA,$GPGSV,5,2,15,07,37,214,38,09,50,306,33,16,23,095,30,26,15,056,45*77,1759653665000
NMEA,$GPGSV,5,3,15,30,06,218,26,31,07,040,25*77,1759653665000
NMEA,$GPGSV,5,4,15,01,23,177,26,04,56,022,35,06,33,300,33,09,50,306,30,8*63,1759653665000
NMEA,$GPGSV,5,5,15,26,15,056,34,8*5D,1759653665000
NMEA,$GLGSV,3,1,09,67,16,076,45,68,45,027,40,69,33,319,32,77,09,028,20*62,1759653665000
NMEA,$GLGSV,3,2,09,78,47,080,42,79,34,153,36,83,28,226,35,84,33,291,27*66,1759653665000
NMEA,$GLGSV,3,3,09,85,06,333,16*53,1759653665000
NMEA,$GAGSV,5,1,15,107,29,054,34,112,19,319,20,119,34,275,32,121,06,165,24*6F,1759653665000
NMEA,$GAGSV,5,2,15,126,37,186,30,127,22,116,13,129,63,342,45,130,14,065,24*6F,1759653665000
NMEA,$GAGSV,5,3,15,133,57,264,41*6C,1759653665000
NMEA,$GAGSV,5,4,15,107,29,054,27,119,34,275,35,126,37,186,24,127,22,116,33,1*7B,1759653665000
NMEA,$GAGSV,5,5,15,129,63,342,38,133,57,264,31,1*71,1759653665000
NMEA,$BDGSV,4,1,16,205,49,138,37,206,32,044,36,209,47,049,36,211,22,276,30*6C,1759653665000
NMEA,$BDGSV,4,2,16,213,12,126,27,216,24,041,44,221,60,357,47,222,36,079,43*67,1759653665000
NMEA,$BDGSV,4,3,16,226,31,181,43,234,20,250,40,236,23,048,13*6F,1759653665000
NMEA,$BDGSV,4,4,16,221,60,357,39,222,36,079,37,226,31,181,20,234,20,250,31,5*7B,1759653665000
NMEA,$GPGSA,A,3,,,,,,,,,,,,,1.8,1.0,1.4*3F,1759653665000
NMEA,$GNGSA,A,3,78,,,,,,,,,,,,1.8,1.0,1.4*2E,1759653665000
NMEA,$GAGSA,A,3,121,129,133,,,,,,,,,,1.8,1.0,1.4*17,1759653665000
NMEA,$BDGSA,A,3,209,221,,,,,,,,,,,1.8,1.0,1.4*24,1759653665000
NMEA,$PSSGR,GSA,A,3,04,06,09,26,,,,,,,,,1.8,1.0,1.4,1,8*47,1759653665000
NMEA,$PSSGR,GSA,A,3,119,,,,,,,,,,,,1.8,1.0,1.4,3,1*7A,1759653665000
NMEA,$PSSGR,GSA,A,3,222,,,,,,,,,,,,1.8,1.0,1.4,4,5*72,1759653665000
NMEA,$GPRMC,084105.000,A,3205.0291,N,03448.1645,E,0.5,43.6,051025,,,A*52,1759653665000
NMEA,$GPGGA,084106.000,3205.0298,N,03448.1647,E,1,14,0.8,33.0,M,17.1,M,,*65,1759653666000
NMEA,$PSAMSA,084106.000,3205.0298,N,03448.1647,E,0,M,,*6A,1759653666000
NMEA,$GPGLL,3205.0298,N,03448.1647,E,084106.000,A,A*5A,1759653666000
NMEA,$GPVTG,43.6,T,,M,1.2,N,2.3,K,A*3E,1759653666000
NMEA,$GPGSV,5,1,15,01,23,177,39,03,58,105,27,04,56,022,34,06,33,300,38*73,1759653666000
NMEA,$GPGSV,5,2,15,07,37,214,37,09,50,306,33,16,23,095,30,26,15,056,45*78,1759653666000
NMEA,$GPGSV,5,3,15,30,06,218,26,31,07,040,25*77,1759653666000
NMEA,$GPGSV,5,4,15,01,23,177,25,04,56,022,33,06,33,300,33,09,50,306,29,8*6E,1759653666000
NMEA,$GPGSV,5,5,15,26,15,056,34,8*5D,1759653666000
NMEA,$GLGSV,3,1,09,67,16,076,43,68,45,027,40,69,33,319,32,77,09,028,21*65,1759653666000
NMEA,$GLGSV,3,2,09,78,47,080,42,79,34,153,37,83,28,226,35,84,33,291,26*66,1759653666000
NMEA,$GLGSV,3,3,09,85,06,333,14*51,1759653666000
NMEA,$GAGSV,5,1,16,107,29,054,39,112,19,319,20,119,34,275,31,121,06,165,24*62,1759653666000
NMEA,$GAGSV,5,2,16,126,37,186,27,127,22,116,29,129,63,342,45,130,14,065,24*63,1759653666000
NMEA,$GAGSV,5,3,16,133,57,264,41*6F,1759653666000
NMEA,$GAGSV,5,4,16,107,29,054,27,119,34,275,34,121,06,165,19,126,37,186,26,1*77,1759653666000
NMEA,$GAGSV,5,5,16,127,22,116,33,129,63,342,38,133,57,264,31,1*70,1759653666000
NMEA,$BDGSV,4,1,16,205,49,138,36,206,32,044,36,209,47,049,37,211,22,276,27*6A,1759653666000
NMEA,$BDGSV,4,2,16,213,12,126,27,216,24,041,43,221,60,357,47,222,36,079,42*61,1759653666000
NMEA,$BDGSV,4,3,16,226,31,181,43,234,20,250,40,236,23,048,12*6E,1759653666000
NMEA,$BDGSV,4,4,16,221,60,357,39,222,36,079,36,226,31,181,20,234,20,250,31,5*7A,1759653666000
NMEA,$GPGSA,A,3,26,,,,,,,,,,,,1.6,0.8,1.4*3C,1759653666000
NMEA,$GNGSA,A,3,78,79,,,,,,,,,,,1.6,0.8,1.4*27,1759653666000
NMEA,$GAGSA,A,3,121,129,133,,,,,,,,,,1.6,0.8,1.4*10,1759653666000
NMEA,$BDGSA,A,3,209,221,,,,,,,,,,,1.6,0.8,1.4*23,1759653666000
NMEA,$PSSGR,GSA,A,3,04,06,09,,,,,,,,,,1.6,0.8,1.4,1,8*44,1759653666000
NMEA,$PSSGR,GSA,A,3,119,126,,,,,,,,,,,1.6,0.8,1.4,3,1*48,1759653666000
NMEA,$PSSGR,GSA,A,3,222,,,,,,,,,,,,1.6,0.8,1.4,4,5*75,1759653666000
NMEA,$GPRMC,084106.000,A,3205.0298,N,03448.1647,E,1.2,43.6,051025,,,A*5C,1759653666000
NMEA,$GPGGA,084107.000,3205.0306,N,03448.1643,E,1,14,0.8,34.5,M,17.1,M,,*64,1759653667000
NMEA,$PSAMSA,084107.000,3205.0306,N,03448.1643,E,0,M,,*69,1759653667000
NMEA,$GPGLL,3205.0306,N,03448.1643,E,084107.000,A,A*59,1759653667000
NMEA,$GPVTG,43.6,T,,M,2.0,N,3.7,K,A*3A,1759653667000
NMEA,$GPGSV,5,1,16,01,23,177,39,03,58,105,27,04,56,022,33,06,33,300,38*77,1759653667000
NMEA,$GPGSV,5,2,16,07,37,214,37,09,50,306,33,16,23,095,30,26,15,056,46*78,1759653667000
NMEA,$GPGSV,5,3,16,30,06,218,26,31,07,040,25*74,1759653667000
NMEA,$GPGSV,5,4,16,01,23,177,25,03,58,105,21,04,56,022,32,06,33,300,33,8*67,1759653667000
NMEA,$GPGSV,5,5,16,09,50,306,29,26,15,056,33,8*6B,1759653667000
NMEA,$GLGSV,3,1,09,67,16,076,42,68,45,027,39,69,33,319,32,77,09,028,21*6A,1759653667000
NMEA,$GLGSV,3,2,09,78,47,080,41,79,34,153,37,83,28,226,35,84,33,291,26*65,1759653667000
NMEA,$GLGSV,3,3,09,85,06,333,12*57,1759653667000
NMEA,$GAGSV,5,1,16,107,29,054,39,112,19,319,20,119,34,275,28,121,06,165,24*6A,1759653667000
NMEA,$GAGSV,5,2,16,126,37,186,24,127,22,116,32,129,63,342,45,130,14,065,24*6A,1759653667000
NMEA,$GAGSV,5,3,16,133,57,264,42*6C,1759653667000
NMEA,$GAGSV,5,4,16,107,29,054,33,119,34,275,34,121,06,165,20,126,37,186,26,1*78,1759653667000
NMEA,$GAGSV,5,5,16,127,22,116,32,129,63,342,38,133,57,264,36,1*76,1759653667000
NMEA,$BDGSV,4,1,15,205,49,138,35,206,32,044,36,209,47,049,37,211,22,276,24*69,1759653667000
NMEA,$BDGSV,4,2,15,213,12,126,28,216,24,041,41,221,60,357,47,222,36,079,41*6C,1759653667000
NMEA,$BDGSV,4,3,15,226,31,181,43,234,20,250,40,236,00,000,12*60,1759653667000
NMEA,$BDGSV,4,4,15,221,60,357,38,222,36,079,35,226,31,181,20,234,20,250,30,5*7A,1759653667000
NMEA,$GPGSA,A,3,07,26,,,,,,,,,,,1.6,0.8,1.2*3D,1759653667000
NMEA,$GNGSA,A,3,78,,,,,,,,,,,,1.6,0.8,1.2*2F,1759653667000
NMEA,$GAGSA,A,3,121,129,133,,,,,,,,,,1.6,0.8,1.2*16,1759653667000
NMEA,$BDGSA,A,3,206,209,221,,,,,,,,,,1.6,0.8,1.2*11,1759653667000
NMEA,$PSSGR,GSA,A,3,03,04,06,09,,,,,,,,,1.6,0.8,1.2,1,8*41,1759653667000
NMEA,$PSSGR,GSA,A,3,126,,,,,,,,,,,,1.6,0.8,1.2,3,1*77,1759653667000
NMEA,$GPRMC,084107.000,A,3205.0306,N,03448.1643,E,2.0,43.6,051025,,,A*5E,1759653667000
NMEA,$GPGGA,084108.000,3205.0317,N,03448.1642,E,1,17,0.6,34.5,M,17.1,M,,*67,1759653668000
NMEA,$PSAMSA,084108.000,3205.0317,N,03448.1642,E,0,M,,*67,1759653668000
NMEA,$GPGLL,3205.0317,N,03448.1642,E,084108.000,A,A*57,1759653668000
NMEA,$GPVTG,330.2,T,,M,2.0,N,3.7,K,A*09,1759653668000
NMEA,$GPGSV,5,1,16,01,23,177,39,03,58,105,28,04,56,022,33,06,33,300,37*77,1759653668000
NMEA,$GPGSV,5,2,16,07,37,214,37,09,50,306,33,16,23,095,31,26,15,056,46*79,1759653668000
NMEA,$GPGSV,5,3,16,30,06,218,26,31,07,040,25*74,1759653668000
NMEA,$GPGSV,5,4,16,01,23,177,24,03,58,105,21,04,56,022,32,06,33,300,33,8*66,1759653668000
NMEA,$GPGSV,5,5,16,09,50,306,29,26,15,056,38,8*60,1759653668000
NMEA,$GLGSV,2,1,08,67,16,076,40,68,45,027,39,69,33,319,32,77,09,028,22*6B,1759653668000
NMEA,$GLGSV,2,2,08,78,47,080,41,79,34,153,37,83,28,226,35,84,33,291,26*65,1759653668000
NMEA,$GAGSV,5,1,16,107,29,054,41,112,19,319,20,119,34,275,25,121,06,165,24*68,1759653668000
NMEA,$GAGSV,5,2,16,126,37,186,21,127,22,116,32,129,63,342,45,130,14,065,24*6F,1759653668000
NMEA,$GAGSV,5,3,16,133,57,264,43*6D,1759653668000
NMEA,$GAGSV,5,4,16,107,29,054,32,119,34,275,33,121,06,165,20,126,37,186,25,1*7D,1759653668000
NMEA,$GAGSV,5,5,16,127,22,116,30,129,63,342,38,133,57,264,36,1*74,1759653668000
NMEA,$BDGSV,4,1,14,205,49,138,35,206,32,044,35,209,47,049,37,211,22,276,21*6E,1759653668000
NMEA,$BDGSV,4,2,14,213,12,126,28,216,24,041,39,221,60,357,47,222,36,079,40*63,1759653668000
NMEA,$BDGSV,4,3,14,226,31,181,43,234,20,250,40*65,1759653668000
NMEA,$BDGSV,4,4,14,221,60,357,37,222,36,079,34,226,31,181,20,234,20,250,29,5*7D,1759653668000
NMEA,$GPGSA,A,3,07,,,,,,,,,,,,1.4,0.6,1.2*35,1759653668000
NMEA,$GNGSA,A,3,68,78,,,,,,,,,,,1.4,0.6,1.2*2D,1759653668000
NMEA,$GAGSA,A,3,121,129,130,133,,,,,,,,,1.4,0.6,1.2*28,1759653668000
NMEA,$BDGSA,A,3,209,221,,,,,,,,,,,1.4,0.6,1.2*29,1759653668000
NMEA,$PSSGR,GSA,A,3,03,04,06,09,26,,,,,,,,1.4,0.6,1.2,1,8*49,1759653668000
NMEA,$PSSGR,GSA,A,3,119,126,,,,,,,,,,,1.4,0.6,1.2,3,1*42,1759653668000
NMEA,$PSSGR,GSA,A,3,222,,,,,,,,,,,,1.4,0.6,1.2,4,5*7F,1759653668000
NMEA,$GPRMC,084108.000,A,3205.0317,N,03448.1642,E,2.0,330.2,051025,,,A*63,1759653668000
NMEA,$GPGGA,084109.000,3205.0324,N,03448.1632,E,1,17,0.6,34.9,M,17.1,M,,*6D,1759653669000
NMEA,$PSAMSA,084109.000,3205.0324,N,03448.1632,E,0,M,,*61,1759653669000
NMEA,$GPGLL,3205.0324,N,03448.1632,E,084109.000,A,A*51,1759653669000
NMEA,$GPVTG,324.4,T,,M,1.8,N,3.3,K,A*05,1759653669000
NMEA,$GPGSV,5,1,15,01,23,177,39,03,58,105,28,04,56,022,33,06,33,300,36*75,1759653669000
NMEA,$GPGSV,5,2,15,07,37,214,36,09,50,306,33,16,23,095,31,26,15,056,47*7A,1759653669000
NMEA,$GPGSV,5,3,15,30,06,218,26,31,07,040,25*77,1759653669000
NMEA,$GPGSV,5,4,15,01,23,177,24,04,56,022,32,06,33,300,32,09,50,306,30,8*67,1759653669000
NMEA,$GPGSV,5,5,15,26,15,056,38,8*51,1759653669000
NMEA,$GLGSV,2,1,08,67,16,076,39,68,45,027,38,69,33,319,32,77,09,028,22*64,1759653669000
NMEA,$GLGSV,2,2,08,78,47,080,40,79,34,153,36,83,28,226,35,84,33,291,26*65,1759653669000
NMEA,$GAGSV,4,1,16,107,29,054,42,112,19,319,20,119,34,275,22,121,06,165,24*6D,1759653669000
NMEA,$GAGSV,4,2,16,127,22,116,32,129,63,342,45,130,14,065,24,133,57,264,44*60,1759653669000
NMEA,$GAGSV,4,3,16,107,29,054,36,119,34,275,32,121,06,165,20,126,37,186,25,1*7E,1759653669000
NMEA,$GAGSV,4,4,16,127,22,116,29,129,63,342,38,133,57,264,35,1*7F,1759653669000
NMEA,$BDGSV,4,1,14,205,49,138,34,206,32,044,35,209,47,049,37,211,22,276,18*65,1759653669000
NMEA,$BDGSV,4,2,14,213,12,126,28,216,24,041,38,221,60,357,46,222,36,079,40*63,1759653669000
NMEA,$BDGSV,4,3,14,226,31,181,42,234,20,250,41*65,1759653669000
NMEA,$BDGSV,4,4,14,221,60,357,36,222,36,079,34,226,31,181,20,234,20,250,29,5*7C,1759653669000
NMEA,$GPGSA,A,3,03,07,26,,,,,,,,,,1.4,0.6,1.2*32,1759653669000
NMEA,$GNGSA,A,3,68,78,,,,,,,,,,,1.4,0.6,1.2*2D,1759653669000
NMEA,$GAGSA,A,3,129,130,133,,,,,,,,,,1.4,0.6,1.2*1A,1759653669000
NMEA,$BDGSA,A,3,206,209,221,,,,,,,,,,1.4,0.6,1.2*1D,1759653669000
NMEA,$PSSGR,GSA,A,3,04,06,09,,,,,,,,,,1.4,0.6,1.2,1,8*4E,1759653669000
NMEA,$PSSGR,GSA,A,3,119,126,,,,,,,,,,,1.4,0.6,1.2,3,1*42,1759653669000
NMEA,$PSSGR,GSA,A,3,222,,,,,,,,,,,,1.4,0.6,1.2,4,5*7F,1759653669000
NMEA,$GPRMC,084109.000,A,3205.0324,N,03448.1632,E,1.8,324.4,051025,,,A*6D,1759653669000
NMEA,$GPGGA,084110.000,3205.0325,N,03448.1625,E,1,11,1.0,36.7,M,17.1,M,,*6F,1759653670000
NMEA,$PSAMSA,084110.000,3205.0325,N,03448.1625,E,0,M,,*6E,1759653670000
NMEA,$GPGLL,3205.0325,N,03448.1625,E,084110.000,A,A*5E,1759653670000
NMEA,$GPVTG,324.3,T,,M,2.2,N,4.1,K,A*0E,1759653670000
NMEA,$GPGSV,5,1,16,01,23,177,40,03,58,105,28,04,56,022,32,06,33,300,35*7A,1759653670000
NMEA,$GPGSV,5,2,16,07,37,214,36,09,50,306,37,16,23,095,31,26,15,056,47*7D,1759653670000
NMEA,$GPGSV,5,3,16,30,06,218,26,31,07,040,25*74,1759653670000
NMEA,$GPGSV,5,4,16,01,23,177,23,04,56,022,32,06,33,300,32,09,50,306,33,8*60,1759653670000
NMEA,$GPGSV,5,5,16,26,15,056,37,8*5D,1759653670000
NMEA,$GLGSV,2,1,08,67,16,076,38,68,45,027,37,69,33,319,31,77,09,028,23*68,1759653670000
NMEA,$GLGSV,2,2,08,78,47,080,39,79,34,153,37,83,28,226,35,84,33,291,26*6A,1759653670000
NMEA,$GAGSV,5,1,16,107,29,054,42,112,19,319,20,119,34,275,19,121,06,165,24*64,1759653670000
NMEA,$GAGSV,5,2,16,126,37,186,31,127,22,116,32,129,63,342,45,130,14,065,24*6E,1759653670000
NMEA,$GAGSV,5,3,16,133,57,264,44*6A,1759653670000
NMEA,$GAGSV,5,4,16,107,29,054,36,119,34,275,32,121,06,165,20,126,37,186,24,1*79,1759653670000
NMEA,$GAGSV,5,5,16,127,22,116,29,129,63,342,38,133,57,264,35,1*7F,1759653670000
NMEA,$BDGSV,4,1,14,205,49,138,34,206,32,044,35,209,47,049,37,211,22,276,15*68,1759653670000
NMEA,$BDGSV,4,2,14,213,12,126,28,216,24,041,37,221,60,357,46,222,36,079,39*62,1759653670000
NMEA,$BDGSV,4,3,14,226,31,181,42,234,20,250,41*65,1759653670000
NMEA,$BDGSV,4,4,14,221,60,357,35,222,36,079,34,226,31,181,19,234,20,250,28,5*74,1759653670000
NMEA,$GPGSA,A,3,26,,,,,,,,,,,,2.0,1.0,1.6*32,1759653670000
NMEA,$GNGSA,A,3,78,,,,,,,,,,,,2.0,1.0,1.6*27,1759653670000
NMEA,$GAGSA,A,3,121,129,133,,,,,,,,,,2.0,1.0,1.6*1E,1759653670000
NMEA,$BDGSA,A,3,206,221,,,,,,,,,,,2.0,1.0,1.6*22,1759653670000
NMEA,$PSSGR,GSA,A,3,04,09,,,,,,,,,,,2.0,1.0,1.6,1,8*4C,1759653670000
NMEA,$PSSGR,GSA,A,3,119,,,,,,,,,,,,2.0,1.0,1.6,3,1*73,1759653670000
NMEA,$PSSGR,GSA,A,3,222,,,,,,,,,,,,2.0,1.0,1.6,4,5*7B,1759653670000
NMEA,$GPRMC,084110.000,A,3205.0325,N,03448.1625,E,2.2,324.3,051025,,,A*6C,1759653670000
NMEA,$GPGGA,084111.000,3205.0325,N,03448.1620,E,1,08,1.8,37.2,M,17.1,M,,*6F,1759653671000
NMEA,$PSAMSA,084111.000,3205.0325,N,03448.1620,E,0,M,,*6A,1759653671000
NMEA,$GPGLL,3205.0325,N,03448.1620,E,084111.000,A,A*5A,1759653671000
NMEA,$GPVTG,318.9,T,,M,0.9,N,1.7,K,A*01,1759653671000
NMEA,$GPGSV,5,1,15,01,23,177,40,03,58,105,28,04,56,022,32,06,33,300,35*79,1759653671000
NMEA,$GPGSV,5,2,15,07,37,214,36,09,50,306,38,16,23,095,31,30,06,218,26*7B,1759653671000
NMEA,$GPGSV,5,3,15,31,07,040,25*4D,1759653671000
NMEA,$GPGSV,5,4,15,01,23,177,22,04,56,022,32,06,33,300,31,09,50,306,36,8*64,1759653671000
NMEA,$GPGSV,5,5,15,26,15,056,37,8*5E,1759653671000
NMEA,$GLGSV,2,1,08,67,16,076,38,68,45,027,37,69,33,319,31,77,09,028,23*68,1759653671000
NMEA,$GLGSV,2,2,08,78,47,080,38,79,34,153,37,83,28,226,35,84,33,291,27*6A,1759653671000
NMEA,$GAGSV,5,1,15,107,29,054,42,112,19,319,20,119,34,275,16,121,06,165,24*68,1759653671000
NMEA,$GAGSV,5,2,15,126,37,186,32,127,22,116,32,129,63,342,45,130,14,065,24*6E,1759653671000
NMEA,$GAGSV,5,3,15,133,57,264,44*69,1759653671000
NMEA,$GAGSV,5,4,15,107,29,054,35,121,06,165,20,126,37,186,24,127,22,116,28,1*7E,1759653671000
NMEA,$GAGSV,5,5,15,129,63,342,38,133,57,264,35,1*75,1759653671000
NMEA,$BDGSV,4,1,14,205,49,138,33,206,32,044,35,209,47,049,37,211,22,276,13*69,1759653671000
NMEA,$BDGSV,4,2,14,213,12,126,28,216,24,041,36,221,60,357,46,222,36,079,39*63,1759653671000
NMEA,$BDGSV,4,3,14,226,31,181,42,234,20,250,41*65,1759653671000
NMEA,$BDGSV,4,4,14,221,60,357,35,222,36,079,33,226,31,181,19,234,20,250,28,5*73,1759653671000
NMEA,$GPGSA,A,3,,,,,,,,,,,,,3.4,1.8,2.8*36,1759653671000
NMEA,$GNGSA,A,3,78,,,,,,,,,,,,3.4,1.8,2.8*27,1759653671000
NMEA,$GAGSA,A,3,129,133,,,,,,,,,,,3.4,1.8,2.8*2C,1759653671000
NMEA,$BDGSA,A,3,206,221,,,,,,,,,,,3.4,1.8,2.8*22,1759653671000
NMEA,$PSSGR,GSA,A,3,04,06,09,,,,,,,,,,3.4,1.8,2.8,1,8*4A,1759653671000
NMEA,$GPRMC,084111.000,A,3205.0325,N,03448.1620,E,0.9,318.9,051025,,,A*64,1759653671000
NMEA,$GPGGA,084112.000,3205.0324,N,03448.1616,E,1,17,0.6,38.5,M,17.1,M,,*61,1759653672000
NMEA,$PSAMSA,084112.000,3205.0324,N,03448.1616,E,0,M,,*6D,1759653672000
NMEA,$GPGLL,3205.0324,N,03448.1616,E,084112.000,A,A*5D,1759653672000
NMEA,$GPVTG,7.6,T,,M,1.3,N,2.5,K,A*09,1759653672000
NMEA,$GPGSV,5,1,16,01,23,177,40,03,58,105,28,04,56,022,32,06,33,300,34*7B,1759653672000
NMEA,$GPGSV,5,2,16,07,37,214,36,09,50,306,38,16,23,095,31,26,15,056,44*71,1759653672000
NMEA,$GPGSV,5,3,16,30,06,218,27,31,07,040,25*75,1759653672000
NMEA,$GPGSV,5,4,16,01,23,177,22,04,56,022,31,06,33,300,31,09,50,306,36,8*64,1759653672000
NMEA,$GPGSV,5,5,16,26,15,056,36,8*5C,1759653672000
NMEA,$GLGSV,2,1,08,67,16,076,37,68,45,027,36,69,33,319,31,77,09,028,23*66,1759653672000
NMEA,$GLGSV,2,2,08,78,47,080,38,79,34,153,37,83,28,226,35,84,33,291,27*6A,1759653672000
NMEA,$GAGSV,5,1,15,107,29,054,42,112,19,319,20,119,34,275,14,121,06,165,24*6A,1759653672000
NMEA,$GAGSV,5,2,15,126,37,186,32,127,22,116,32,129,63,342,45,130,14,065,24*6E,1759653672000
NMEA,$GAGSV,5,3,15,133,57,264,45*68,1759653672000
NMEA,$GAGSV,5,4,15,107,29,054,34,126,37,186,24,127,22,116,28,129,63,342,38,1*7A,1759653672000
NMEA,$GAGSV,5,5,15,133,57,264,35,1*74,1759653672000
NMEA,$BDGSV,4,1,13,205,49,138,33,206,32,044,35,209,47,049,37,213,12,126,28*61,1759653672000
NMEA,$BDGSV,4,2,13,216,24,041,35,221,60,357,46,222,36,079,38,226,31,181,42*60,1759653672000
NMEA,$BDGSV,4,3,13,234,20,250,41*68,1759653672000
NMEA,$BDGSV,4,4,13,221,60,357,35,222,36,079,33,226,31,181,20,234,20,250,27,5*71,1759653672000
NMEA,$GPGSA,A,3,01,03,07,30,,,,,,,,,1.4,0.6,1.2*34,1759653672000
NMEA,$GNGSA,A,3,68,78,83,,,,,,,,,,1.4,0.6,1.2*26,1759653672000
NMEA,$GAGSA,A,3,129,133,,,,,,,,,,,1.4,0.6,1.2*28,1759653672000
NMEA,$BDGSA,A,3,206,209,221,226,,,,,,,,,1.4,0.6,1.2*2B,1759653672000
NMEA,$PSSGR,GSA,A,3,04,06,09,26,,,,,,,,,1.4,0.6,1.2,1,8*4A,1759653672000
NMEA,$GPRMC,084112.000,A,3205.0324,N,03448.1616,E,1.3,7.6,051025,,,A*6A,1759653672000
NMEA,$GPGGA,084113.000,3205.0321,N,03448.1611,E,1,16,0.6,40.0,M,17.1,M,,*69,1759653673000
NMEA,$PSAMSA,084113.000,3205.0321,N,03448.1611,E,0,M,,*6E,1759653673000
NMEA,$GPGLL,3205.0321,N,03448.1611,E,084113.000,A,A*5E,1759653673000
NMEA,$GPVTG,17.1,T,,M,0.7,N,1.3,K,A*3F,1759653673000
NMEA,$GPGSV,5,1,16,01,23,177,39,03,58,105,28,04,56,022,32,06,33,300,34*75,1759653673000
NMEA,$GPGSV,5,2,16,07,37,214,36,09,50,306,38,16,23,095,31,26,15,056,41*74,1759653673000
NMEA,$GPGSV,5,3,16,30,06,218,27,31,07,040,25*75,1759653673000
NMEA,$GPGSV,5,4,16,01,23,177,22,04,56,022,31,06,33,300,31,09,50,306,35,8*67,1759653673000
NMEA,$GPGSV,5,5,16,26,15,056,35,8*5F,1759653673000
NMEA,$GLGSV,2,1,08,67,16,076,36,68,45,027,35,69,33,319,31,77,09,028,23*64,1759653673000
NMEA,$GLGSV,2,2,08,78,47,080,38,79,34,153,36,83,28,226,35,84,33,291,27*6B,1759653673000
NMEA,$GAGSV,4,1,15,107,29,054,42,112,19,319,20,119,34,275,26,121,06,165,24*6A,1759653673000
NMEA,$GAGSV,4,2,15,126,37,186,33,127,22,116,31,129,63,342,45,130,14,065,24*6D,1759653673000
NMEA,$GAGSV,4,3,15,133,57,264,45*69,1759653673000
NMEA,$GAGSV,4,4,15,107,29,054,34,127,22,116,28,129,63,342,38,133,57,264,40,1*74,1759653673000
NMEA,$BDGSV,4,1,12,205,49,138,32,206,32,044,35,209,47,049,37,213,12,126,28*61,1759653673000
NMEA,$BDGSV,4,2,12,216,24,041,34,221,60,357,46,222,36,079,38,226,31,181,42*60,1759653673000
NMEA,$BDGSV,4,3,12,234,20,250,41*69,1759653673000
NMEA,$BDGSV,4,4,12,221,60,357,35,226,31,181,20,234,20,250,27,5*79,1759653673000
NMEA,$GPGSA,A,3,01,07,30,,,,,,,,,,1.4,0.6,1.2*37,1759653673000
NMEA,$GNGSA,A,3,79,83,,,,,,,,,,,1.4,0.6,1.2*29,1759653673000
NMEA,$GAGSA,A,3,126,129,,,,,,,,,,,1.4,0.6,1.2*2C,1759653673000
NMEA,$BDGSA,A,3,206,209,221,226,,,,,,,,,1.4,0.6,1.2*2B,1759653673000
NMEA,$PSSGR,GSA,A,3,04,06,09,26,,,,,,,,,1.4,0.6,1.2,1,8*4A,1759653673000
NMEA,$GPRMC,084113.000,A,3205.0321,N,03448.1611,E,0.7,17.1,051025,,,A*5A,1759653673000
NMEA,$GPGGA,084114.000,3205.0322,N,03448.1611,E,1,19,0.6,40.5,M,17.1,M,,*67,1759653674000
NMEA,$PSAMSA,084114.000,3205.0322,N,03448.1611,E,0,M,,*6A,1759653674000
NMEA,$GPGLL,3205.0322,N,03448.1611,E,084114.000,A,A*5A,1759653674000
NMEA,$GPVTG,26.4,T,,M,1.1,N,2.0,K,A*3F,1759653674000
NMEA,$GPGSV,5,1,17,01,23,177,39,03,58,105,28,04,56,022,32,06,33,300,34*74,1759653674000
NMEA,$GPGSV,5,2,17,07,37,214,36,09,50,306,37,11,03,324,18,16,23,095,32*70,1759653674000
NMEA,$GPGSV,5,3,17,26,15,056,40,30,06,218,27,31,07,040,25*43,1759653674000
NMEA,$GPGSV,5,4,17,01,23,177,21,04,56,022,30,06,33,300,30,09,50,306,34,8*64,1759653674000
NMEA,$GPGSV,5,5,17,26,15,056,35,8*5E,1759653674000
NMEA,$GLGSV,2,1,08,67,16,076,36,68,45,027,35,69,33,319,31,77,09,028,23*64,1759653674000
NMEA,$GLGSV,2,2,08,78,47,080,37,79,34,153,36,83,28,226,35,84,33,291,27*64,1759653674000
NMEA,$GAGSV,4,1,16,107,29,054,42,112,19,319,19,119,34,275,26,121,06,165,24*63,1759653674000
NMEA,$GAGSV,4,2,16,126,37,186,33,127,22,116,29,129,63,342,45,130,14,065,24*67,1759653674000
NMEA,$GAGSV,4,3,16,133,57,264,45*6A,1759653674000
NMEA,$GAGSV,4,4,16,107,29,054,33,127,22,116,27,129,63,342,39,133,57,264,40,1*7E,1759653674000
NMEA,$BDGSV,4,1,13,205,49,138,31,206,32,044,36,209,47,049,37,213,12,126,28*60,1759653674000
NMEA,$BDGSV,4,2,13,216,24,041,34,221,60,357,45,222,36,079,38,226,31,181,42*62,1759653674000
NMEA,$BDGSV,4,3,13,234,20,250,41*68,1759653674000
NMEA,$BDGSV,4,4,13,221,60,357,35,226,31,181,25,234,20,250,26,5*7C,1759653674000
NMEA,$GPGSA,A,3,01,03,07,30,,,,,,,,,1.4,0.6,1.2*34,1759653674000
NMEA,$GNGSA,A,3,68,78,79,83,,,,,,,,,1.4,0.6,1.2*28,1759653674000
NMEA,$GAGSA,A,3,126,129,133,,,,,,,,,,1.4,0.6,1.2*1D,1759653674000
NMEA,$BDGSA,A,3,206,209,221,226,,,,,,,,,1.4,0.6,1.2*2B,1759653674000
NMEA,$PSSGR,GSA,A,3,04,06,09,26,,,,,,,,,1.4,0.6,1.2,1,8*4A,1759653674000
NMEA,$GPRMC,084114.000,A,3205.0322,N,03448.1611,E,1.1,26.4,051025,,,A*5E,1759653674000
NMEA,$GPGGA,084115.000,3205.0324,N,03448.1607,E,1,09,1.0,40.9,M,17.1,M,,*6D,1759653675000
NMEA,$PSAMSA,084115.000,3205.0324,N,03448.1607,E,0,M,,*6A,1759653675000
NMEA,$GPGLL,3205.0324,N,03448.1607,E,084115.000,A,A*5A,1759653675000
NMEA,$GPVTG,26.4,T,,M,0.9,N,1.6,K,A*33,1759653675000
NMEA,$GPGSV,5,1,17,01,23,177,39,03,58,105,28,04,56,022,31,06,33,300,33*70,1759653675000
NMEA,$GPGSV,5,2,17,07,37,214,36,09,50,306,37,16,23,095,32,26,15,056,38*77,1759653675000
NMEA,$GPGSV,5,3,17,30,06,218,26,31,07,040,25*75,1759653675000
NMEA,$GPGSV,5,4,17,01,23,177,21,04,56,022,29,06,33,300,30,09,50,306,33,8*6B,1759653675000
NMEA,$GPGSV,5,5,17,26,15,056,34,8*5F,1759653675000
NMEA,$GLGSV,2,1,08,67,16,076,35,68,45,027,34,69,33,319,31,77,09,028,23*66,1759653675000
NMEA,$GLGSV,2,2,08,78,47,080,42,79,34,153,36,83,28,226,35,84,33,291,27*66,1759653675000
NMEA,$GAGSV,4,1,16,107,29,054,41,112,19,319,19,119,34,275,25,121,06,165,23*64,1759653675000
NMEA,$GAGSV,4,2,16,126,37,186,33,127,22,116,28,129,63,342,45,130,14,065,24*66,1759653675000
