     4.01           OBSERVATION DATA    M                   RINEX VERSION / TYPE
GnssLogger          samsung 15          20251005 084104 UTC PGM / RUN BY / DATE
Google GnssLogger                                           MARKER NAME
Unknown                                                     MARKER NUMBER
Unknown             Unknown                                 OBSERVER / AGENCY
Unknown             GnssLogger          v3.1.1.1            REC # / TYPE / VERS
Unknown             Unknown                                 ANT # / TYPE
        0.0000        0.0000        0.0000                  ANTENNA: DELTA H/E/N
G    8 C1C L1C D1C S1C C5Q L5Q D5Q S5Q                      SYS / # / OBS TYPES
R    4 C1C L1C D1C S1C                                      SYS / # / OBS TYPES
C    8 C2I L2I D2I S2I C5P L5P D5P S5P                      SYS / # / OBS TYPES
E    8 C1C L1C D1C S1C C5Q L5Q D5Q S5Q                      SYS / # / OBS TYPES
  2025    10    05    08    41   04.0000000     GPS         TIME OF FIRST OBS
 9 R03  5 R04  6 R05  1 R13 -2 R14 -7 R15  0 R19  3 R20  2  GLONASS SLOT / FRQ #
   R21  4                                                   GLONASS SLOT / FRQ #
samsung SM-S711B (Android 15) HW Year: 2021 HW Model:       COMMENT
S.LSI,K040,SPOTNAV_4.6.2_7_E23                              COMMENT
                                                            END OF HEADER
> 2025 10 05 08 41 04.0000000  0 35                      
G07  22428546.44006    -93964.41606      1889.85706        41.00006                                                                
G04  21051019.28316     -6012.36016     -1508.33316        41.10016  21051043.26606    -12299.11006     -1125.74106        38.80006
G06  22739350.87506    -46687.12906       680.02706        37.80006  22739328.99025    -42605.55325       509.74925        33.20025
G03  20681207.59825     -4668.33225     -1981.94025        31.70025                                                                
G01  23304363.72525     65549.34425     -4140.41125        35.20025  23304193.44304     40872.84604     -3097.32004        26.90004
G26  23931951.95425       977.05425     -1814.20325        34.50025  23931965.44524  -1575436.97024     -1357.57624        24.60024
G16  23029111.67824    -90506.57424       870.77624        25.60024                                                                
G30  25094886.17224  -1051219.05924      2765.39224        24.60024                                                                
G31  24877652.06024    -42015.50324     -4321.33024        24.40024                                                                
G09  21056656.88006    -50816.09406       428.43506        37.40006  21056683.26225    -45573.84525       320.64225        32.70025
R14  20442484.96207 108980175.31407      -428.59907        46.50007
C22  23506240.36807      5380.90407     -1988.10307        45.10007  23506237.67006   2086318.45906     -1498.04406        39.10006
E29  23780555.26407  -1858017.05307      -861.76407        42.40007  23780562.75926  -1395186.76826      -645.78826        35.60026
E33  24026126.05906   -866368.99006     -1056.09806        40.80006  24026064.00225   2047721.54525      -788.42225        33.30025
R03  22862839.88506 122396841.23006     -2567.43306        40.10006
C21  22495607.91527    -40471.69727        -8.86527        44.90027  22495597.42226   2052081.51126        -4.06926        38.10026
R04  20511218.67906 109846918.84206      -982.14706        40.00006
R19  21817877.59806 116721195.54406     -4026.38206        36.70006
R05  21376302.19425 114278842.31225       974.46325        33.30025
C36  24661394.67215     20618.55115     -2649.62715        33.50015                                                                
R15  21332719.56605 114005837.27805      3017.84705        33.40005
C26  24218044.79625    -97836.93025      2475.87025        33.60025  24217987.53614   -810910.00014      1859.50914        23.90014
E19  24842429.44425  -1358099.10325       636.29525        33.60025  24842442.93525   -672083.33725       476.49825        32.10025
C09  37872140.56325  -1840426.63225     -1018.99625        33.30025                                                                
E26  25197709.58925     26195.77925     -3325.11825        31.60025  25197716.78424   -778466.98224     -2471.62424        26.90024
E07  25968270.64025      3443.42425     -2335.70025        31.50025  25968299.12124   -794772.97524     -1738.75224        28.20024
R20  21500080.80424 114980853.06924      -713.56224        25.60024
C16  39676834.19925     -7401.47925     -1429.91825        29.50025                                                                
C06  38288107.69524    -77908.69024     -1344.99224        28.60024                                                                
C13  40099206.09724    -20612.89124     -1277.62124        27.50024                                                                
E27  26846688.32424  -2029626.23524      1477.84824        27.90024  26846791.75323   -935617.81923      1100.51423        23.20023
E21  28374292.18624  -1577194.59824      1879.74324        24.80024                                                                
R21  24062647.37623 128774352.34623      2041.09723        23.40023
E12  26871488.05622  -1707807.75022      1546.58822        16.70022                                                                
C34  24788256.34725   -837563.90325     -2501.34625        34.20025  24788401.14724  -1574585.35324     -1893.76824        24.50024
> 2025 10 05 08 41 05.0000004  0 34                      
G07  22428199.58106    -95851.19106      1885.01606        41.10006                                                                
G04  21051326.87006     -4502.08906     -1510.27106        40.90006  21051348.15506    -11171.36806     -1128.93906        38.50006
G09  21056605.31506    -51241.77706       424.08406        37.40006  21056612.21125    -45894.58025       321.41925        32.50025
G06  22739200.07906    -47363.80206       674.86306        37.70006  22739210.87215    -43110.89215       503.37115        32.60015
G01  23305101.51425     69698.91625     -4153.15225        34.70025  23305129.99405     43971.94205     -3100.25905        34.00005
G03  20681613.51725     -2682.09825     -1987.72425        31.60025                                                                
G26  23932310.20625      2797.35725     -1822.88525        33.30025  23932313.50424  -1574080.55324     -1356.41624        24.00024
G30  25094313.26824  -1053984.52024      2764.77324        24.60024                                                                
G31  24878465.69724    -37692.83824     -4322.01024        24.30024                                                                
G16  23028972.27424    -91373.50224       864.82324        26.20024                                                                
R14  20442573.70107 108980595.57607      -433.54607        46.40007
C22  23506630.39807      7371.61107     -1992.26607        45.50007  23506630.99806   2087818.60706     -1501.32906        38.70006
E29  23780731.24207  -1857152.67207      -865.97507        43.00007  23780746.23226  -1394541.01026      -646.36526        35.50026
C21  22495609.71317    -40464.70317        -6.99417        44.10017  22495600.72026   2052087.26526        -6.83726        37.50026
E33  24026390.77606   -865309.93506     -1060.75906        40.80006  24026278.95325   2048512.86525      -792.91025        33.10025
R19  21818635.47306 116725197.80906     -4032.02506        36.70006
C26  24217574.42225   -100303.22725      2463.46325        34.10025  24217519.86014   -812769.05814      1857.83714        23.80014
R15  21332169.74605 114002846.18905      3012.31705        33.60005
C36  24661925.90425     23271.36725     -2654.39625        33.80025                                                                
E19  24842341.60525  -1358726.32325       624.20025        33.50025  24842338.00725   -672557.24025       473.33325        31.50025
C09  37872356.71325  -1839403.55325     -1024.72325        33.20025                                                                
R05  21376141.50525 114277929.07025       969.80625        33.70025
C34  24788771.09125   -835057.36025     -2508.96825        33.80025  24788889.50924  -1572689.89524     -1895.45724        24.30024
E07  25968778.18925      5782.81625     -2341.27825        31.60025  25968753.30624   -793029.98124     -1744.32624        27.80024
E26  25198336.45525     29525.22225     -3332.09225        31.60025  25198362.53724   -775995.94124     -2469.77524        26.60024
R03  22863344.73626 122399491.36726     -2572.59826        39.40026
R04  20511355.38426 109847596.93826      -985.53626        39.30026
C16  39677114.80525     -5964.32825     -1439.73525        29.50025                                                                
R20  21500233.39825 114981615.90625      -718.18725        29.80025
C06  38288364.91724    -76563.38924     -1346.09124        28.50024                                                                
C13  40099463.01924    -19332.14324     -1281.59624        27.40024                                                                
E27  26846489.26224  -2031104.75324      1479.21224        27.40024  26846525.53723   -936716.28823      1097.30723        22.80023
R21  24062330.19523 128772602.80123      2034.69923        23.30023
E12  26871189.16322  -1709334.95322      1517.50922        16.80022                                                                
> 2025 10 05 08 41 06.0000008  0 34                      
G07  22427834.73306    -97734.31106      1881.29106        41.40006                                                                
G04  21051614.37106     -2988.31406     -1515.52606        41.30006  21051617.66806    -10041.39406     -1131.09006        40.60006
G09  21056521.67306    -51665.11006       422.15906        37.50006  21056522.57325    -46211.00725       314.27425        32.30025
G06  22739090.05606    -48036.74506       671.07706        37.60006  22739075.96525    -43612.03825       499.04925        32.10025
G03  20681978.96425      -686.41625     -2000.40525        31.50025  20682002.34824  -1513606.34224     -1488.44924        26.50024
G26  23932654.66825      4619.04325     -1822.37725        32.50025                                                                
G16  23028810.38624    -92233.63124       856.72924        26.60024                                                                
G30  25093789.23124  -1056747.06624      2761.08724        24.50024                                                                
G19  25288992.49524  -2379705.84224     -2569.42224        23.60024                                                                
G31  24879293.12424    -33366.89824     -4327.57524        24.20024                                                                
G01  23305883.67225     73852.73025     -4155.93425        34.30025  23305914.55105     47073.62305     -3102.97305        33.70005
R14  20442649.54827 108981044.81227      -435.66427        46.20027
C21  22495595.62307    -40453.80907       -12.84507        44.40007  22495597.42226   2052096.45826       -10.91226        37.10026
C22  23506997.34407      9364.58907     -1994.11407        45.50007  23507005.73916   2089320.47716     -1502.73116        38.30016
E29  23780892.23107  -1856284.91607      -869.44407        43.50007  23780897.02825  -1393893.14625      -648.91625        34.90025
E33  24026612.92206   -864246.60306     -1065.47006        40.80006  24026472.31915   2049306.84415      -795.30815        33.00015
R19  21819378.65806 116729218.43706     -4034.14706        36.70006
R04  20511540.35626 109848633.61126      -989.70826        38.50026
R03  22863814.21126 122402048.81926     -2572.95426        38.70026
R15  21331597.14305 113999831.39005      3010.10605        34.10005
C26  24217084.86115   -102768.65315      2464.99015        34.10015  24217039.89214   -814625.67214      1855.39014        23.60014
C36  24662411.26825     25926.93125     -2656.93725        33.80025                                                                
C09  37872555.47515  -1838376.95115     -1028.36415        33.20015                                                                
E19  24842226.18525  -1359348.31225       619.37325        33.40025  24842210.89525   -673026.05925       466.27625        31.00025
R05  21375922.05715 114276800.90015       966.27315        33.40015
E07  25969185.30725      8125.00825     -2343.59125        31.60025  25969192.20224   -791286.60024     -1743.57424        27.40024
E26  25198975.01325     32857.86325     -3334.23925        31.50025  25198983.70724   -773520.25624     -2478.00724        26.20024
C16  39677386.41724     -4521.09724     -1446.27124        29.40024                                                                
C06  38288641.02524    -75214.29224     -1350.99524        28.50024                                                                
R20  21500356.91325 114982322.12225      -727.73725        29.70025
E27  26846207.45724  -2032578.22424      1470.94724        27.20024  26846244.63223   -937812.58423      1095.20823        22.50023
C13  40099683.66724    -18046.15424     -1288.60924        27.40024                                                                
R21  24061976.14123 128770753.70823      2032.72723        23.30023
C34  24789266.34825   -832547.98125     -2510.79625        33.50025  24789371.87524  -1570786.60724     -1907.20324        23.80024
> 2025 10 05 08 41 07.0000012  0 33                      
G07  22427492.07016    -99620.56516      1887.82116        41.40016                                                                
G04  21051916.86106     -1479.42606     -1506.44406        41.20006  21051907.86716     -8913.44616     -1126.93416        40.10016
G09  21056448.22406    -52093.61806       431.84406        37.70006  21056451.82225    -46532.61525       324.19925        32.20025
G06  22738979.73226    -48711.64626       675.88126        37.60026  22738955.44925    -44116.03925       505.42925        31.70025
G03  20682358.20125      1300.29025     -1982.21725        31.40025  20682392.67724  -1512121.01024     -1483.77324        26.00024
G26  23932983.54025      6433.16425     -1810.33725        31.80025                                                                
G16  23028636.80624    -93094.08024       860.60924        26.60024                                                                
G30  25093242.71024  -1059509.53324      2762.42724        24.50024                                                                
G31  24880128.34624    -29042.30624     -4323.91724        24.10024                                                                
G01  23306673.92525     78001.96625     -4146.94625        34.00025  23306572.89525     50172.94725     -3098.14525        31.70025
C21  22495607.91507    -40447.22807        -4.42307        46.00007  22495608.51416   2052101.41116        -2.83216        37.00016
C22  23507393.67017     11350.33017     -1982.12017        45.30017  23507396.96826   2090815.55726     -1491.68426        37.80026
E29  23781053.51907  -1855421.44207      -861.33307        43.50007  23781062.51316  -1393248.67416      -642.77616        37.90016
E33  24026675.57926  -2486866.04326     -1059.98326        40.30026  24026684.87205   2050099.33905      -791.75205        32.90005
R04  20511744.81516 109849672.58516      -984.53516        38.20016
R14  20442728.99327 108981413.96527      -426.96827        45.60027
R19  21820163.81526 116733363.06226     -4022.26726        36.70026
R03  22864292.68026 122404556.48726     -2558.64726        38.20026
R15  21331044.92525 113996826.53525      3014.52025        34.10025
C09  37872758.43525  -1837357.18425     -1016.34925        33.60025                                                                
C36  24662936.20525     28575.85125     -2645.59725        33.70025                                                                
C26  24216622.58125   -105238.19525      2471.60025        34.00025  24216577.01303   -816485.76603      1861.83403        23.40003
E19  24842093.97625  -1359974.35325       628.06725        33.20025  24842102.67025   -673497.71525       473.07325        30.40025
C34  24789752.91125   -830042.05125     -2504.20625        33.30025                                                                
R05  21375778.45715 114275979.43415       975.53215        33.20015
E26  25199617.76825     36182.13925     -3320.09225        31.50025  25199630.05924   -771039.81724     -2482.81524        25.90024
C16  39677679.61424     -3084.70124     -1432.97924        29.40024                                                                
C06  38288888.65424    -73869.50624     -1342.63024        28.40024                                                                
R20  21500498.41524 114983024.51424      -721.41224        29.40024
E27  26845957.43024  -2034056.24524      1480.29524        27.20024  26845966.12423   -938911.13823      1099.68323        22.20023
C13  40099945.38524    -16761.01324     -1284.71724        27.20024                                                                
R21  24061637.67523 128768887.77323      2040.50523        23.20023
E07  25969642.19115     10461.50115     -2332.89315        31.90015  25969647.58724   -789547.84924     -1736.43524        27.00024
> 2025 10 05 08 41 08.0000016  0 33                      
G07  22427135.01816   -101510.73816      1892.13216        41.30016                                                                
G04  21052195.66826        25.06526     -1502.29126        41.10026  21052205.86106     -7788.90106     -1122.84306        39.80006
G09  21056375.97426    -52527.99126       436.30626        37.90026  21056380.17125    -46856.40225       324.87525        32.00025
G06  22738849.02226    -49391.32426       682.06526        37.50026  22738838.23015    -44622.91315       508.31115        31.20015
G01  23307466.87625     82145.44625     -4140.59925        33.80025  23307366.74625     53262.19025     -3084.20025        30.00025
G03  20682752.42825      3283.04825     -1980.78425        31.30025  20682774.01324  -1510642.54024     -1475.03724        25.50024
G26  23933355.58325      8243.60525     -1808.60025        31.40025                                                                
G30  25092689.89224  -1062277.30724      2770.42724        24.50024                                                                
G31  24880965.66624    -24730.20124     -4305.85924        24.00024                                                                
G16  23028480.91424    -93961.17624       870.41924        26.50024                                                                
C21  22495618.70707    -40445.35007         0.47307        47.00007  22495619.90606   2052102.78406         0.41706        37.00006
E29  23781242.08927  -1854562.67927      -856.40727        43.50027  23781238.49106  -1392607.42806      -639.63206        37.70006
C22  23507782.50127     13330.78627     -1977.81427        44.90027  23507784.59926   2092308.07726     -1491.23926        36.30026
E33  24026877.03916  -2485808.91816     -1057.12516        40.30016  24026895.62605   2050888.66505      -787.74105        32.80005
R04  20511929.78606 109850610.41806      -978.09206        39.10006
R14  20442832.12217 108981910.48917      -422.94217        44.50017
R19  21820993.64016 116737749.55416     -4017.91416        36.60016
R03  22864783.74026 122407131.55826     -2559.42026        37.90026
R15  21330471.42225 113993709.27425      3025.45725        34.10025
C36  24663460.24225     31221.41825     -2643.89025        33.70025                                                                
C09  37872963.49325  -1836342.12825     -1012.70025        33.60025                                                                
C26  24216114.43325   -107711.64225      2475.39825        33.80025  24216113.53303   -818349.36103      1865.34503        23.20003
E07  25970094.27805     12792.54405     -2328.56605        32.50005  25970102.07224   -787817.12124     -1726.71624        26.60024
E19  24841992.04725  -1360604.36725       632.00125        33.10025  24841993.24625   -673970.24825       472.97225        29.90025
C34  24790250.86625   -827546.37325     -2490.55025        33.10025                                                                
R05  21375596.18325 114274952.22425       983.54225        33.00025
E26  25200255.12625     39504.24625     -3321.02025        31.50025  25200272.81424   -768559.20524     -2480.69724        25.60024
C16  39677974.61025     -1656.69925     -1423.80425        29.50025                                                                
C06  38289141.37924    -72532.10724     -1333.70524        28.40024                                                                
R20  21500663.30124 114983852.38524      -711.85024        29.10024
E27  26845677.72424  -2035536.06224      1480.71524        27.20024  26845691.21524   -940016.99924      1109.51424        23.70024
C13  40100201.70824    -15483.27524     -1274.03624        27.10024                                                                
R21  24061253.64123 128766779.88323      2052.24923        23.20023
> 2025 10 05 08 41 09.0000020  0 34                      
G07  22426753.38226   -103409.51926      1903.08426        41.20026                                                                
G04  21052476.27416      1521.05716     -1491.74216        40.90016  21052485.86726     -6671.06826     -1114.47726        39.60026
G09  21056277.04326    -52966.33226       440.57526        37.90026  21056287.53525    -47185.83025       332.24925        32.10025
G06  22738706.32126    -50080.62426       694.11226        37.40026  22738700.02625    -45136.76925       517.34525        30.70025
G03  20683125.97025      5257.63625     -1970.50225        31.20025                                                                
G26  23933696.14725     10045.45625     -1797.55525        31.10025                                                                
G16  23028330.11924    -94841.81124       887.40524        26.40024                                                                
G30  25092167.05424  -1065055.18724      2782.93224        24.40024                                                                
G31  24881790.09524    -20424.17624     -4302.98324        23.90024                                                                
G01  23308266.12325     86280.89825     -4131.43725        33.50025  23308147.10624     56344.12724     -3078.28424        28.50024
C21  22495603.11808    -40452.18208        11.18708        47.50008  22495610.61306   2052097.62906         8.41906        37.60006
E29  23781389.28717  -1853710.78217      -847.71417        43.50017  23781394.38306  -1391972.78706      -631.33806        37.40006
C22  23508154.84317     15303.42317     -1968.72717        44.40017  23508158.14126   2093794.86726     -1483.92526        35.90026
E33  24027081.19806  -2484760.33506     -1044.31106        41.00006  24027087.79325   2051673.22725      -782.18125        32.70025
R04  20512118.95606 109851666.23806      -967.28206        39.70006
R14  20442908.26927 108982358.95627      -411.47327        43.50027
R03  22865238.82516 122409611.64616     -2544.22816        37.60016
R19  21821770.70226 116741950.04926     -4013.07026        36.60026
C36  24663963.59325     33857.70125     -2631.64025        34.70025                                                                
R15  21329929.09725 113990854.26925      3036.43625        34.20025
C09  37873152.96225  -1835332.24425     -1007.29825        33.70025                                                                
E27  26845536.52225  -2681179.54925      1493.73925        30.40025  26845397.41824   -941128.09224      1113.70824        26.90024
E07  25970535.87225     15115.69925     -2319.21125        32.70025  25970544.56624   -786084.70024     -1733.26824        26.20024
C26  24215641.36025   -110196.62925      2490.75725        33.70025  24215630.56823   -820219.02323      1872.69523        22.90023
C34  24790789.29425   -825052.09725     -2493.57525        33.00025                                                                
E19  24841892.51625  -1361243.23825       643.29825        32.90025  24841862.23724   -674442.00624       471.37024        29.00024
E26  25200879.89425     42819.17125     -3311.33325        31.50025  25200899.08124   -766084.40324     -2471.89724        25.20024
R05  21375399.81925 114273945.65925       985.83325        32.70025
C16  39678222.53825      -237.28025     -1415.12625        29.50025                                                                
C06  38289391.10624    -71201.85024     -1326.68424        28.50024                                                                
R20  21500781.71924 114984529.52324      -704.20024        28.90024
C13  40100465.52524    -14213.31524     -1266.06924        27.00024                                                                
R21  24060888.19423 128764867.23523      2061.92523        23.10023
E21  28372239.50723  -2539418.84923      1888.21923        20.60023                                                                
> 2025 10 05 08 41 10.0000023  0 34                      
G07  22426377.74226   -105314.94626      1908.75026        41.20026                                                                
G04  21052745.78706      3010.73406     -1486.51906        40.80006  21052748.48516     -5557.93016     -1110.79116        39.60016
G09  21056182.30816    -53411.04616       447.90016        37.90016  21056184.40725    -47517.23025       332.38625        32.00025
G06  22738559.42326    -50776.03026       698.45926        37.30026  22738547.73125    -45654.29225       519.35625        30.00025
G26  23934001.03625     11839.10425     -1789.54625        31.00025                                                                
G01  23309071.66525     90410.05025     -4126.00125        33.40025  23308909.77824     59418.93324     -3071.24024        27.10024
G03  20683479.42525      7226.09425     -1965.39225        31.20025                                                                
G16  23028139.75124    -95729.93424       891.86724        26.40024                                                                
G31  24882611.52624    -16119.74024     -4303.64024        23.80024                                                                
G30  25091643.61724  -1067840.58724      2789.15824        24.40024                                                                
C21  22495584.83108    -40464.72008        15.39108        47.50008  22495586.62906   2052088.06706        11.76506        38.00006
E29  23781536.18507  -1852866.94207      -840.06007        43.40007  23781532.58806  -1391342.53606      -628.05606        40.20006
C22  23508511.59607     17269.49207     -1962.78307        44.10007  23508516.09326   2095276.70726     -1479.36326        35.60026
E33  24027256.27706  -2483717.22506     -1040.37306        41.30006  24027266.17025   2052452.66625      -776.87625        32.60025
R04  20512291.03616 109852696.01516      -962.77516        39.70016
R03  22865694.20906 122412156.08006     -2540.70306        37.60006
R14  20442951.13917 108982695.31317      -408.53717        42.50017
R19  21822435.04326 116745610.18026     -4007.32126        36.50026
C36  24664442.06225     36489.44925     -2629.48025        34.70025                                                                
R15  21329346.30115 113987847.12015      3033.93915        34.20015
C09  37873333.13725  -1834332.80725      -994.21425        33.80025                                                                
E07  25970984.06225     17430.70025     -2310.92425        32.80025  25970965.17524   -784357.56324     -1724.49424        25.90024
C26  24215145.50425   -112683.86325      2488.35625        33.50025  24215135.01123   -822093.36723      1876.68323        22.70023
C34  24791270.76025   -822566.50325     -2481.25125        32.90025                                                                
E19  24841709.64225  -1361895.37425       658.76925        32.80025  24841722.23424   -674920.28824       481.54424        28.60024
E26  25201485.47525     46123.82625     -3299.51825        31.50025  25201510.35724   -763613.61424     -2468.78124        24.90024
R05  21375159.98525 114272770.82425      1000.78425        32.50025
E27  26845225.03725  -2682676.22225      1496.67225        30.30025  26845096.72625   -942241.96125      1115.25825        31.40025
C16  39678478.86125      1179.33925     -1415.21925        29.50025                                                                
C06  38289636.93624    -69879.42024     -1318.51824        28.80024                                                                
R20  21500878.55224 114985153.87024      -704.90324        28.60024
C13  40100697.86524    -12953.52824     -1254.70124        26.90024                                                                
R21  24060461.28923 128762689.66823      2075.49923        23.10023
E21  28371829.69123  -2541313.38923      1894.53923        21.10023                                                                
> 2025 10 05 08 41 11.0000027  0 35                      
G07  22426040.77526   -107228.36626      1917.41626        41.10026                                                                
G04  21053026.69306      4494.70206     -1481.11306        40.60006  21053041.98206     -4449.22406     -1106.48906        39.30006
G06  22738428.41426    -51473.88526       699.07926        37.20026  22738416.12224    -46175.96224       523.74424        29.20024
G26  23934336.80326     13628.21926     -1786.84826        35.80026                                                                
G01  23309862.21825     94531.96425     -4118.29525        33.50025  23309697.93224     62484.13624     -3060.39924        25.90024
G03  20683865.25825      9187.23025     -1957.47425        31.10025                                                                
G16  23028034.22424    -96617.94824       887.95924        26.50024                                                                
G30  25091126.77424  -1070638.94424      2804.83524        24.40024                                                                
G31  24883452.74424    -11818.90024     -4299.04024        23.70024                                                                
G09  21056095.36926    -53861.00126       452.57626        37.80026  21056109.15925    -47855.49125       341.69225        31.90025
C21  22495593.22507    -40483.49207        21.88807        47.40007  22495594.42406   2052074.00906        16.30506        37.90006
C22  23508897.72907     19229.40807     -1956.84007        44.00007  23508901.32626   2096752.90226     -1473.37426        35.70026
E29  23781695.37507  -1852029.76007      -834.60407        43.40007  23781700.17206  -1390716.88206      -623.35406        40.10006
E33  24027461.03506  -2482679.87406     -1034.47206        41.30006  24027474.52625   2053226.27925      -770.70025        32.50025
R03  22866180.47326 122414705.11026     -2536.05726        40.40026
R04  20512458.32106 109853537.30606      -955.48406        39.60006
R14  20443040.17807 108983114.80307      -402.28307        41.80007
R19  21823136.25726 116749307.81326     -4003.31426        36.40026
C09  37873532.19925  -1833338.40825      -991.88025        34.10025                                                                
C36  24664969.39725     39116.35725     -2624.48725        34.70025                                                                
R15  21328779.69325 113984764.26725      3044.66325        34.20025
E07  25971406.46925     19739.77625     -2306.11225        32.80025  25971408.56824   -782634.13724     -1721.57024        25.60024
C26  24214694.61625   -115173.59325      2490.97725        33.40025  24214667.33523   -823971.61723      1880.20223        22.40023
C34  24791737.23725   -820092.38025     -2468.38725        32.80025                                                                
E19  24841600.81825  -1362550.08125       655.99225        32.60025  24841607.11324   -675399.89624       480.27024        28.10024
E26  25202133.32625     49425.74525     -3300.55025        31.40025  25202148.91524   -761154.52024     -2453.24624        24.70024
R05  21374999.89525 114271860.63725      1003.64525        32.20025
E27  26844951.92625  -2684173.37825      1497.39825        30.50025  26844818.51925   -943360.44925      1120.79725        31.40025
C16  39678789.44625      2591.00025     -1409.18225        29.50025                                                                
C06  38289916.04324    -68561.12524     -1316.22624        28.80024                                                                
R20  21501024.55024 114985881.50824      -694.39624        28.40024
C13  40100956.58524    -11696.95924     -1254.95924        26.80024                                                                
R21  24060076.05623 128760574.12723      2082.35923        23.00023
E12  26869621.84823  -2788534.37923      1528.16123        19.80023                                                                
E21  28371470.24023  -2543220.40723      1913.25623        21.70023                                                                
> 2025 10 05 08 41 12.0000031  0 35                      
G07  22425656.14126   -109146.61026      1920.65526        41.00026                                                                
G04  21053300.40306      5973.50006     -1476.21306        40.50006  21053315.39316     -3343.85616     -1103.69816        39.20016
G06  22738278.81716    -52175.71316       703.81316        37.20016  22738281.21525    -46700.51125       525.98825        30.00025
G26  23934665.37616     15414.87816     -1785.43016        36.00016                                                                
G01  23310610.20015     98649.72815     -4115.68615        33.60015  23310470.49724     65547.43524     -3062.34624        24.80024
G03  20684207.02125     11144.28325     -1955.01125        30.90025                                                                
G16  23027896.61924    -97509.39124       893.15824        26.80024                                                                
G30  25090589.24724  -1073440.00324      2802.40924        24.30024                                                                
G31  24884250.49224     -7515.51724     -4304.65324        23.70024                                                                
G09  21056012.02616    -54315.88916       457.35416        37.70016  21056012.32625    -48196.04325       341.69725        31.40025
C21  22495578.83508    -40507.02908        25.92108        47.60008  22495582.73206   2052056.22806        19.64406        37.90006
C22  23509261.67707     21185.05907     -1953.51707        44.40007  23509267.97225   2098226.35625     -1472.08225        35.30025
E29  23781848.86927  -1851195.74227      -832.18527        43.50027  23781850.96706  -1390094.82806      -620.25506        39.80006
E33  24027663.39506  -2481647.17906     -1030.36606        41.40006  24027659.79725   2053994.67425      -765.78625        32.40025
R03  22866656.54326 122417298.56126     -2532.47626        40.30026
R14  20443106.13206 108983511.41106      -399.64606        41.30006
R04  20512619.00906 109854442.19106      -952.73906        39.50006
R19  21823873.14726 116753293.99926     -3991.07726        36.30026
R15  21328183.70615 113981624.06915      3049.25315        34.40015
C09  37873706.97825  -1832349.39125      -986.32625        34.20025                                                                
C36  24665511.72225     41739.91025     -2621.87425        34.60025                                                                
E07  25971828.87725     22047.10825     -2306.45825        32.80025  25971843.26724   -780911.98824     -1721.50924        25.30024
C26  24214214.64815   -117670.11115      2499.91215        33.20015  24214182.27023   -825853.86023      1884.23923        22.20023
C34  24792218.70425   -817617.44125     -2475.34625        32.70025                                                                
E26  25202741.90525     52724.34925     -3296.94525        31.40025  25202765.28924   -758707.22924     -2441.38824        24.40024
R05  21374817.02225 114270928.27125      1004.92725        32.00025
E27  26844620.65625  -2685675.58025      1504.72425        30.40025  26844519.92625   -944481.50925      1122.34525        30.80025
C16  39679027.78125      3998.86725     -1405.96925        29.50025                                                                
C06  38290148.08224    -67248.83024     -1309.29424        28.80024                                                                
R20  21501171.74924 114986712.43824      -687.30124        28.20024
C13  40101183.82824    -10440.28324     -1256.73024        26.80024                                                                
R21  24059644.95423 128758311.57723      2078.03823        23.00023
E21  28371028.64623  -2545137.99123      1922.86723        22.60023                                                                
E12  26869311.86223  -2790072.30423      1537.92523        21.20023                                                                
E19  24841472.80625  -1363206.26425       656.92025        32.40025  24841475.80424   -675885.22924       488.19724        27.80024
> 2025 10 05 08 41 13.0000034  0 35                      
G07  22425287.39716   -111063.68616      1916.49216        40.90016                                                                
G04  21053595.99926      7449.40726     -1474.46126        40.40026  21053594.50006     -2239.98406     -1103.12406        39.10006
G06  22738131.61906    -52878.91006       704.63306        37.30006  22738140.61325    -47227.67325       528.46925        31.10025
G09  21055922.08806    -54773.74006       459.33206        37.70006  21055921.18925    -48537.37625       341.72425        31.60025
G26  23935017.03306     17200.56306     -1784.44806        36.20006                                                                
G01  23311365.97725    102762.78025     -4110.69625        33.60025  23311250.85724     68611.44724     -3064.36724        24.00024
G03  20684581.46225     13097.81625     -1951.77225        30.80025                                                                
G30  25090026.53624  -1076243.56024      2804.80524        24.30024                                                                
G31  24885059.93124     -3213.04324     -4302.01924        23.70024                                                                
G16  23027708.64924    -98407.30924       901.15524        27.00024                                                                
C21  22495569.54108    -40532.32708        26.17808        48.10008  22495575.83706   2052037.25206        19.57306        38.00006
C22  23509633.12007     23139.14607     -1953.30507        44.60007  23509642.11325   2099698.39525     -1471.33225        35.10025
E29  23781997.86517  -1850366.06117      -827.51317        43.50017  23782005.96006  -1389474.11106      -620.04706        39.70006
E33  24027854.36306  -2480616.28406     -1029.99406        41.40006  24027855.86225   2054763.49425      -769.03225        32.30025
R03  22867132.31426 122419854.48626     -2530.38926        40.20026
R14  20443184.37806 108983937.77206      -399.94206        41.10006
R04  20512794.98806 109855394.58306      -951.77506        39.50006
R19  21824619.63026 116757297.02526     -3997.14726        36.20026
R15  21327632.38705 113978688.02905      3047.03805        34.90005
C09  37873899.74525  -1831361.61525      -987.15625        34.20025                                                                
C36  24665980.29715     44360.22415     -2618.69415        34.40015                                                                
C26  24213687.91325   -120174.47725      2508.28825        33.10025  24213701.40323   -827738.18423      1885.36523        21.90023
E07  25972284.56225     24347.55125     -2296.99925        32.70025  25972280.06524   -779193.04724     -1717.33624        25.10024
C34  24792704.36825   -815147.21125     -2467.87525        32.60025                                                                
E26  25203375.96625     56017.58025     -3290.54525        31.40025  25203383.76024   -756260.12124     -2447.01624        24.10024
R05  21374642.84325 114270007.37825      1003.39325        31.80025
E19  24841341.49725  -3094297.11325       655.04325        31.60025  24841348.09324   -676376.06024       493.57824        27.60024
E27  26844364.03325  -2687184.45825      1512.21625        30.30025  26844237.22125   -945604.38025      1123.77725        30.10025
C16  39679289.20025      5402.23025     -1401.10925        29.50025                                                                
C06  38290370.82824    -65941.75424     -1304.46724        28.90024                                                                
R20  21501296.76224 114987391.10924      -685.16124        28.00024
C13  40101424.86124     -9193.86124     -1241.29424        26.70024                                                                
R21  24059188.37023 128755878.28223      2080.74323        23.00023
E21  28370691.07923  -2547064.90423      1931.57723        22.60023                                                                
E12  26869022.26323  -2791622.89023      1556.91623        21.60023                                                                
> 2025 10 05 08 41 14.0000038  0 36                      
G07  22424951.02926   -112985.43226      1924.07926        40.80026                                                                
G06  22738009.30406    -53585.29706       707.73106        37.70006  22738017.09825    -47756.68625       529.93825        31.90025
G09  21055833.94906    -55233.87206       461.27206        37.60006  21055847.14025    -48882.05225       346.34725        31.50025
G26  23935381.28026     18982.79426     -1781.50226        36.50026                                                                
G01  23312187.10925    106875.36325     -4112.34725        33.70025  23312053.70123     71681.98323     -3073.79823        23.20023
G03  20684986.48225     15050.96525     -1952.95625        30.60025                                                                
G16  23027535.36924    -99306.91424       900.44924        27.30024                                                                
G30  25089506.39624  -1079044.44624      2799.55024        24.40024                                                                
G31  24885893.65424      1087.26724     -4299.22624        23.90024                                                                
G04  21053887.69726      8923.69126     -1473.47226        40.20026  21053882.30106     -1138.42806     -1100.39806        38.90006
C21  22495571.94008    -40560.80908        30.07508        48.10008  22495577.93506   2052015.81906        22.66206        38.00006
C22  23510018.05307     25090.29007     -1949.67107        44.60007  23510025.84825   2101169.51425     -1470.65725        34.60025
E29  23782173.24407  -1849538.12307      -827.06507        43.50007  23782172.94406  -1388856.03506      -616.75606        39.20006
E33  24028048.92806  -2479588.22006     -1026.64806        41.40006  24028062.41925   2055531.24425      -767.21425        32.30025
R14  20443265.62206 108984316.83906      -397.95006        40.90006
R03  22867626.07226 122422444.11326     -2536.27926        40.20026
R04  20513003.34316 109856455.77316      -946.09916        39.40016
R19  21825351.42416 116761156.92316     -3992.12416        36.10016
R15  21327028.30605 113975406.38505      3050.54505        35.10005
C09  37874102.10525  -1830372.02325      -990.49825        34.20025                                                                
C36  24666459.36625     46976.70725     -2614.56525        34.30025                                                                
C34  24793209.51825   -812678.86125     -2467.40825        32.70025  24793206.82024  -1910031.46624     -1868.00124        23.80024
C26  24213239.12315   -122679.68015      2505.62215        33.00015  24213234.92623   -829623.85223      1886.33923        21.60023
E07  25972762.13125     26649.20325     -2302.25625        32.70025  25972718.96124   -777473.55424     -1719.76824        24.90024
R05  21374462.96725 114268990.87425      1007.05025        31.70025
E26  25204027.41525     59312.38825     -3295.59425        31.40025  25204019.02124   -753808.59724     -2453.73024        23.70024
E27  26844103.81425  -2688693.74025      1509.48425        30.20025  26843959.61325   -946731.02825      1128.53625        34.50025
C16  39679564.70925      6803.34725     -1399.99525        29.60025                                                                
C06  38290654.73124    -64633.30824     -1309.12924        29.00024                                                                
E19  24841227.57625  -3094958.58025       661.46725        31.10025  24841233.57224   -676871.08324       497.12024        27.40024
R20  21501367.51324 114987715.52624      -688.33924        27.80024
C13  40101706.06724     -7948.49324     -1244.84024        26.60024                                                                
R21  24058876.88623 128754157.06323      2080.37323        23.00023
E21  28370347.21723  -2548995.24623      1932.05623        22.60023                                                                
E12  26868717.37423  -2793182.60823      1564.28323        21.90023                                                                
R13  23642884.27223 126261909.11823     -3927.00523        17.60023
> 2025 10 05 08 41 15.0000042  0 37                      
G07  22424595.77526   -114907.78526      1922.65626        40.70026                                                                
G04  21054172.79926     10398.68626     -1475.35026        40.10026  21054173.69906       -37.59706     -1100.46806        38.80006
G06  22737878.59416    -54292.28416       706.53616        38.00016  22737893.88425    -48284.83725       527.72125        31.80025
G09  21055764.99706    -55695.98306       463.10006        37.50006  21055770.09425    -49225.55425       342.91425        31.30025
G26  23935750.62526     20763.60426     -1779.85026        36.40026                                                                
G01  23313007.04125    110986.27525     -4110.07525        33.90025  23312845.45323     74752.37023     -3070.31023        22.60023
G16  23027399.86324   -100207.57024       901.18024        27.60024                                                                
G30  25088991.05324  -1081844.11324      2799.05724        24.70024                                                                
G31  24886716.88424      5383.82724     -4294.68324        23.90024                                                                
G03  20685362.72125     17005.24925     -1954.85025        30.50025                                                                
C21  22495577.33608    -40590.29408        29.98608        48.00008  22495583.93106   2051993.36506        22.96506        38.10006
C22  23510406.88407     27040.10307     -1949.14807        44.80007  23510411.08125   2102635.55125     -1463.49625        34.50025
C05  37232745.60717  -3208071.32217      -609.75317        42.80017                                                                
E29  23782339.32907  -1848711.37607      -825.40307        43.70007  23782341.12806  -1388238.81006      -616.79906        38.90006
E33  24028254.88506  -2478560.61906     -1027.36906        41.40006  24028268.37625   2056298.39025      -766.84425        32.10025
R14  20443350.46306 108984717.26706      -396.91006        40.80006
R03  22868106.04026 122424959.43926     -2529.77326        40.10026
R04  20513194.01106 109857424.25906      -948.65806        39.40006
R19  21826123.38916 116765232.66516     -3992.37116        36.10016
R15  21326497.37315 113972516.22015      3052.59415        35.40015
C09  37874305.06425  -1829385.14025      -985.52925        34.10025                                                                
C36  24666977.70725     49592.63025     -2615.64325        34.30025  24667056.55224  -2431713.17624     -1982.12424        25.60024
C34  24793673.29715   -810213.08015     -2464.49615        32.90015  24793709.87224  -1908169.52624     -1861.94024        23.50024
C26  24212786.13725   -125186.90525      2508.23325        33.00025  24212756.15823   -831511.58523      1888.76523        21.20023
E07  25973194.43225     28950.01025     -2300.38325        32.60025  25973159.95624   -775752.49324     -1721.84524        24.60024
R05  21374267.80225 114267894.06325      1013.62725        31.70025
E26  25204659.97725     62604.24225     -3290.37625        31.40025  25204658.77823   -751352.39623     -2458.53923        23.40023
C06  38290928.44224    -63324.91024     -1308.37524        29.10024                                                                
R20  21501482.33424 114988276.37024      -689.29824        27.70024
C13  40101954.29524     -6701.74624     -1247.43624        26.50024                                                                
R21  24058526.72923 128752230.64523      2077.02723        22.90023
E21  28370000.95723  -2550921.83323      1924.70923        22.70023                                                                
E12  26868466.44823  -2794751.15623      1572.96423        21.80023                                                                
R13  23643598.37723 126265669.03323     -3925.75523        17.80023
E19  24841104.66125  -3258215.15825       664.77625        30.50025  24841113.35524   -677368.55324       498.69324        27.10024
C16  39679851.01125      8203.85325     -1400.19925        29.70025                                                                
E27                                                                  26843682.90525   -947858.60325      1128.03725        33.60025
> 2025 10 05 08 41 16.0000046  0 36                      
G07  22424209.04326   -116833.31026      1927.11026        40.60026                                                                
G04  21054447.70926     11868.55826     -1467.31026        39.90026  21054447.40926      1059.32426     -1094.96626        38.60026
G06  22737738.29106    -55002.96606       712.77906        38.30006  22737750.88325    -48817.21125       534.48525        31.40025
G09  21055687.65106    -56162.95806       469.40706        37.40006  21055674.46025    -49572.88425       349.24425        31.20025
G26  23936069.00426     22542.14926     -1777.41226        36.20026                                                                
G01  23313754.42425    115094.32725     -4106.62125        33.90025  23313628.51123     77825.98123     -3075.22223        22.00023
G03  20685734.16425     18956.19225     -1949.27225        30.30025                                                                
G16  23027248.46824   -101111.04224       904.88124        28.10024                                                                
G31  24887503.24024      9676.05724     -4290.06424        23.90024                                                                
G30  25088496.99524  -1084647.82824      2805.73924        24.80024                                                                
C21  22495558.44908    -40625.28808        37.74908        47.90008  22495570.44116   2051967.13916        28.11116        38.10016
C22  23510769.33307     28983.35107     -1939.96407        44.90007  23510775.32925   2104099.24525     -1462.52125        34.40025
E29  23782486.22707  -1847890.04807      -818.86707        44.00007  23782489.82506  -1387625.40106      -611.50106        38.70006
C05  37232852.03307  -3207467.98707      -603.33407        42.70007                                                                
E33  24028440.15706  -2477537.56206     -1020.78506        41.40006  24028456.04625   2057067.56525      -770.18925        32.00025
R14  20443423.61206 108985149.72006      -389.29006        40.80006
R03  22868546.73516 122427362.93616     -2513.77416        40.00016
R04  20513352.60106 109858316.11506      -940.54006        39.40006
R19  21826854.88326 116769189.00026     -3991.92926        36.00026
R15  21325898.98706 113969360.73106      3060.34206        35.50006
C09  37874473.84715  -1828403.43915      -979.10915        34.10015                                                                
C34  24794166.45625   -807755.79425     -2453.03825        33.00025  24794339.43624  -1906314.54224     -1851.50524        27.70024
C26  24212306.46925   -127696.80325      2511.23525        32.90025  24212263.29923   -833402.27623      1892.17023        21.00023
E07  25973609.64425     31241.24925     -2286.45525        32.50025  25973603.04924   -774036.33324     -1713.70924        25.40024
R05  21374068.74025 114266874.49625      1018.79625        31.60025
E26  25205270.95425     65892.85825     -3286.99625        31.30025  25205282.04623   -748892.41423     -2461.87223        23.00023
C16  39680099.23925      9600.06725     -1394.06825        30.10025                                                                
E19  24840958.36225  -3258884.69525       669.53725        30.30025  24840982.04624   -677867.07524       499.04824        27.00024
C06  38291186.26324    -62018.99724     -1304.66924        29.20024                                                                
R20  21501632.53024 114989121.83724      -692.49724        27.50024
C13  40102203.42224     -5456.16024     -1245.00624        26.40024                                                                
R21  24058166.37823 128750344.80023      2080.31323        22.90023
E12  26868175.64923  -2796327.78123      1580.66223        21.70023                                                                
R13  23644333.46923 126269636.76823     -3923.37423        17.80023
E21  28369590.84123  -2552845.59423      1922.34623        22.70023                                                                
E27                                                                  26843387.01025   -948989.07225      1131.91525        33.40025
> 2025 10 05 08 41 17.0000049  0 35                      
G07  22423843.89616   -118761.17316      1929.03116        40.50016                                                                
G04  21054732.21226     13333.08226     -1461.84826        39.70026  21054725.91726      2154.38326     -1094.12726        38.40026
G01  23314479.92125    119199.93425     -4104.38325        33.80025  23314393.88123     80895.27823     -3067.14023        21.50023
G26  23936398.47625     24315.11425     -1770.17425        35.30025                                                                
G16  23027063.19624   -102021.09724       913.34524        28.30024                                                                
G30  25087900.70824  -1087458.54724      2814.21924        24.90024                                                                
G31  24888304.88524     13961.75524     -4282.43124        24.00024                                                                
G06  22737609.68006    -55716.38606       714.78906        38.70006  22737612.97825    -49350.81725       534.22225        31.20025
R03  22869012.31207 122429864.47807     -2516.82707        42.50007
C21  22495559.64808    -40663.00408        39.07708        47.80008  22495559.94806   2051938.82806        29.35506        38.60006
C22  23511141.07617     30924.54317     -1940.16417        44.80017  23511147.07225   2105561.99725     -1462.28125        34.20025
E29  23782635.82407  -1847071.01607      -817.88507        44.00007  23782645.11706  -1387013.83806      -610.64006        38.60006
C05  37232965.65407  -3206867.16807      -599.56107        42.60007                                                                
E33  24028634.42306  -2476516.39206     -1020.22606        41.40006  24028647.31425   2057834.54825      -765.88725        31.30025
R14  20443490.16606 108985514.29806      -390.36406        40.80006
R04  20513528.28006 109859266.20706      -939.51106        39.50006
R15  21325314.99216 113966249.59416      3061.10416        35.70016
R19  21827601.96626 116773195.85226     -3981.77326        35.90026
C09  37874656.72105  -1827425.14905      -976.58505        34.00005                                                                
C34  24794728.56715   -805298.85515     -2456.76315        33.10015  24794811.30925  -1904465.42425     -1846.18525        31.20025
C26  24211799.52025   -130207.35525      2510.87825        32.90025  24211778.23523   -835292.11723      1889.41523        20.70023
E07  25974033.25125     33529.30425     -2286.46225        32.40025  25974034.75024   -772325.17024     -1708.66524        25.20024
R05  21373855.88725 114265744.79225      1017.24425        31.60025
E26  25205885.52925     69176.85625     -3281.68825        31.40025  25205903.51623   -746437.37623     -2452.56523        22.70023
C16  39680355.26225     10991.45425     -1388.97325        30.40025                                                                
C06  38291418.60324    -60718.80224     -1297.33624        29.20024                                                                
E27  26843046.44624  -3432142.29324      1520.11024        26.60024  26843096.51125   -950122.06325      1134.25225        33.20025
R20  21501787.82224 114989962.71524      -687.62724        27.30024
C13  40102426.46824     -4213.43724     -1241.29024        26.30024                                                                
E21  28369243.68123  -2554772.13823      1927.93623        23.20023                                                                
R21  24057724.18423 128747988.07323      2083.28123        22.80023
E12  26867865.96323  -2797910.93123      1586.41223        21.50023                                                                
R13  23645040.97923 126273424.95223     -3927.79823        18.00023
G09                                                                  21055583.62325    -49923.78925       352.69425        31.10025
E19                                                                  24840853.43524   -678367.48324       501.35024        26.90024
> 2025 10 05 08 41 18.0000053  0 36                      
G07  22423504.83106   -120688.81106      1927.52506        40.30006                                                                
G06  22737491.86216    -56428.88816       712.04316        38.70016  22737489.76325    -49880.37425       527.53125        31.00025
G26  23936741.43925     26091.83925     -1778.60525        34.90025                                                                
G04  21055038.00126     14803.40326     -1473.22026        38.30026  21055008.32126      3248.49126     -1093.63326        37.10026
G09  21055521.56625    -57103.21725       471.52325        33.60025  21055502.97925    -50273.19625       348.65725        30.60025
G16  23026918.69624   -102931.06924       909.93224        28.60024                                                                
G03  20686496.53624     22838.28624     -1942.10024        27.00024                                                                
