NMEA,$GAGSV,4,4,13,129,63,348,43,133,56,258,39,1*77,1759654111000
NMEA,$BDGSV,5,1,15,205,49,138,33,206,31,043,35,209,46,047,36,213,12,128,30*6B,1759654111000
NMEA,$BDGSV,5,2,15,216,23,041,41,221,61,003,47,222,35,083,43,226,34,181,36*6D,1759654111000
NMEA,$BDGSV,5,3,15,234,18,247,36,236,21,046,30*67,1759654111000
NMEA,$BDGSV,5,4,15,221,61,003,41,222,35,083,34,226,34,181,28,234,18,247,37,5*76,1759654111000
NMEA,$BDGSV,5,5,15,236,21,046,28,5*79,1759654111000
NMEA,$GPGSA,A,3,03,07,16,26,,,,,,,,,1.2,0.4,1.0*33,1759654111000
NMEA,$GNGSA,A,3,67,68,69,78,79,,,,,,,,1.2,0.4,1.0*2B,1759654111000
NMEA,$GAGSA,A,3,107,119,126,129,133,,,,,,,,1.2,0.4,1.0*14,1759654111000
NMEA,$BDGSA,A,3,206,209,213,216,221,222,226,236,,,,,1.2,0.4,1.0*2D,1759654111000
NMEA,$PSSGR,GSA,A,3,01,04,06,09,,,,,,,,,1.2,0.4,1.0,1,8*49,1759654111000
NMEA,$PSSGR,GSA,A,3,121,,,,,,,,,,,,1.2,0.4,1.0,3,1*7A,1759654111000
NMEA,$GPRMC,084831.000,A,3205.0263,N,03448.1566,E,0.1,75.8,051025,,,A*5C,1759654111000
NMEA,$GPGGA,084832.000,3205.0251,N,03448.1572,E,1,26,0.4,46.7,M,17.1,M,,*63,1759654112000
NMEA,$PSAMSA,084832.000,3205.0251,N,03448.1572,E,0,M,,*64,1759654112000
NMEA,$GPGLL,3205.0251,N,03448.1572,E,084832.000,A,A*54,1759654112000
NMEA,$GPVTG,75.8,T,,M,0.3,N,0.6,K,A*32,1759654112000
NMEA,$GPGSV,4,1,14,01,19,177,36,03,56,111,27,04,54,027,46,06,35,296,34*78,1759654112000
NMEA,$GPGSV,4,2,14,07,40,216,43,09,52,311,33,16,24,091,31,26,14,053,31*78,1759654112000
NMEA,$GPGSV,4,3,14,30,09,219,26*4F,1759654112000
NMEA,$GPGSV,4,4,14,01,19,177,33,04,54,027,36,06,35,296,40,09,52,311,28,8*6B,1759654112000
NMEA,$GLGSV,2,1,07,67,15,079,46,68,44,033,41,69,35,323,33,78,47,073,45*61,1759654112000
NMEA,$GLGSV,2,2,07,79,38,151,38,83,24,223,38,85,08,331,22*58,1759654112000
NMEA,$GAGSV,4,1,13,107,28,056,32,119,35,278,37,121,08,163,25,126,34,185,28*6A,1759654112000
NMEA,$GAGSV,4,2,13,127,23,113,28,129,63,348,44,133,56,258,43*6A,1759654112000
NMEA,$GAGSV,4,3,13,107,28,056,33,119,35,278,30,121,08,163,25,127,23,113,27,1*74,1759654112000
NMEA,$GAGSV,4,4,13,129,63,348,42,133,56,258,38,1*77,1759654112000
NMEA,$BDGSV,5,1,15,205,49,138,34,206,31,043,35,209,46,047,35,213,12,128,30*6F,1759654112000
NMEA,$BDGSV,5,2,15,216,23,041,41,221,61,003,47,222,35,083,42,226,34,181,36*6C,1759654112000
NMEA,$BDGSV,5,3,15,234,18,247,36,236,21,046,30*67,1759654112000
NMEA,$BDGSV,5,4,15,221,61,003,41,222,35,083,33,226,34,181,28,234,18,247,36,5*70,1759654112000
NMEA,$BDGSV,5,5,15,236,21,046,27,5*76,1759654112000
NMEA,$GPGSA,A,3,03,04,07,16,26,,,,,,,,1.0,0.4,1.0*35,1759654112000
NMEA,$GNGSA,A,3,67,68,69,78,79,,,,,,,,1.0,0.4,1.0*29,1759654112000
NMEA,$GAGSA,A,3,119,126,129,133,,,,,,,,,1.0,0.4,1.0*20,1759654112000
NMEA,$BDGSA,A,3,206,213,216,221,222,226,,,,,,,1.0,0.4,1.0*23,1759654112000
NMEA,$PSSGR,GSA,A,3,01,06,09,,,,,,,,,,1.0,0.4,1.0,1,8*4F,1759654112000
NMEA,$PSSGR,GSA,A,3,107,121,,,,,,,,,,,1.0,0.4,1.0,3,1*4E,1759654112000
NMEA,$PSSGR,GSA,A,3,234,,,,,,,,,,,,1.0,0.4,1.0,4,5*7C,1759654112000
NMEA,$GPRMC,084832.000,A,3205.0251,N,03448.1572,E,0.3,75.8,051025,,,A*59,1759654112000
NMEA,$GPGGA,084833.000,3205.0249,N,03448.1566,E,1,26,0.4,44.6,M,17.1,M,,*6D,1759654113000
NMEA,$PSAMSA,084833.000,3205.0249,N,03448.1566,E,0,M,,*69,1759654113000
NMEA,$GPGLL,3205.0249,N,03448.1566,E,084833.000,A,A*59,1759654113000
NMEA,$GPVTG,75.8,T,,M,0.2,N,0.3,K,A*36,1759654113000
NMEA,$GPGSV,4,1,14,01,19,177,36,03,56,111,28,04,54,027,46,06,35,296,34*77,1759654113000
NMEA,$GPGSV,4,2,14,07,40,216,42,09,52,311,33,16,24,091,31,26,14,053,31*79,1759654113000
NMEA,$GPGSV,4,3,14,30,09,219,27*4E,1759654113000
NMEA,$GPGSV,4,4,14,01,19,177,32,04,54,027,36,06,35,296,39,09,52,311,28,8*64,1759654113000
NMEA,$GLGSV,2,1,08,67,15,079,46,68,44,033,41,69,35,323,33,77,07,026,24*62,1759654113000
NMEA,$GLGSV,2,2,08,78,47,073,45,79,38,151,38,83,24,223,38,85,08,331,22*6E,1759654113000
NMEA,$GAGSV,4,1,13,107,28,056,31,119,35,278,37,121,08,163,25,126,34,185,28*69,1759654113000
NMEA,$GAGSV,4,2,13,127,23,113,28,129,63,348,44,133,56,258,43*6A,1759654113000
NMEA,$GAGSV,4,3,13,107,28,056,32,119,35,278,30,121,08,163,25,127,23,113,26,1*74,1759654113000
NMEA,$GAGSV,4,4,13,129,63,348,41,133,56,258,38,1*74,1759654113000
NMEA,$BDGSV,5,1,16,205,49,138,34,206,31,043,35,209,46,047,32,211,24,285,37*6F,1759654113000
NMEA,$BDGSV,5,2,16,213,12,128,30,216,23,041,41,221,61,003,47,222,35,083,42*68,1759654113000
NMEA,$BDGSV,5,3,16,226,34,181,36,234,18,247,36,236,21,046,30*68,1759654113000
NMEA,$BDGSV,5,4,16,221,61,003,41,222,35,083,32,226,34,181,31,234,18,247,37,5*7B,1759654113000
NMEA,$BDGSV,5,5,16,236,21,046,26,5*74,1759654113000
NMEA,$GPGSA,A,3,03,07,16,,,,,,,,,,1.2,0.4,1.0*37,1759654113000
NMEA,$GNGSA,A,3,67,68,69,78,79,,,,,,,,1.2,0.4,1.0*2B,1759654113000
NMEA,$GAGSA,A,3,119,126,129,,,,,,,,,,1.2,0.4,1.0*13,1759654113000
NMEA,$BDGSA,A,3,206,213,216,221,222,226,236,,,,,,1.2,0.4,1.0*16,1759654113000
NMEA,$PSSGR,GSA,A,3,01,04,06,09,,,,,,,,,1.2,0.4,1.0,1,8*49,1759654113000
NMEA,$PSSGR,GSA,A,3,107,121,133,,,,,,,,,,1.2,0.4,1.0,3,1*7D,1759654113000
NMEA,$PSSGR,GSA,A,3,234,,,,,,,,,,,,1.2,0.4,1.0,4,5*7E,1759654113000
NMEA,$GPRMC,084833.000,A,3205.0249,N,03448.1566,E,0.2,75.8,051025,,,A*55,1759654113000
NMEA,$GPGGA,084834.000,3205.0265,N,03448.1556,E,1,28,0.4,42.2,M,17.1,M,,*6B,1759654114000
NMEA,$PSAMSA,084834.000,3205.0265,N,03448.1556,E,0,M,,*63,1759654114000
NMEA,$GPGLL,3205.0265,N,03448.1556,E,084834.000,A,A*53,1759654114000
NMEA,$GPVTG,75.8,T,,M,0.1,N,0.1,K,A*37,1759654114000
NMEA,$GPGSV,4,1,14,01,19,177,36,03,56,111,29,04,54,027,46,06,35,296,34*76,1759654114000
NMEA,$GPGSV,4,2,14,07,40,216,42,09,52,311,33,16,24,091,31,26,14,053,30*78,1759654114000
NMEA,$GPGSV,4,3,14,30,09,219,27*4E,1759654114000
NMEA,$GPGSV,4,4,14,01,19,177,31,04,54,027,36,06,35,296,38,09,52,311,27,8*69,1759654114000
NMEA,$GLGSV,2,1,08,67,15,079,46,68,44,033,41,69,35,323,33,77,07,026,24*62,1759654114000
NMEA,$GLGSV,2,2,08,78,47,073,44,79,38,151,39,83,24,223,38,85,08,331,22*6E,1759654114000
NMEA,$GAGSV,4,1,13,107,28,056,28,119,35,278,36,121,08,163,25,126,34,185,28*60,1759654114000
NMEA,$GAGSV,4,2,13,127,23,113,27,129,63,348,45,133,56,258,42*65,1759654114000
NMEA,$GAGSV,4,3,13,107,28,056,31,119,35,278,30,121,08,163,25,127,23,113,26,1*77,1759654114000
NMEA,$GAGSV,4,4,13,129,63,348,40,133,56,258,37,1*7A,1759654114000
NMEA,$BDGSV,5,1,16,205,49,138,34,206,31,043,34,209,46,047,29,211,24,285,36*65,1759654114000
NMEA,$BDGSV,5,2,16,213,12,128,31,216,23,041,42,221,61,003,48,222,35,083,41*66,1759654114000
NMEA,$BDGSV,5,3,16,226,34,181,37,234,18,247,36,236,21,046,30*69,1759654114000
NMEA,$BDGSV,5,4,16,221,61,003,40,222,35,083,31,226,34,181,30,234,18,247,37,5*78,1759654114000
NMEA,$BDGSV,5,5,16,236,21,046,26,5*74,1759654114000
NMEA,$GPGSA,A,3,03,07,,,,,,,,,,,0.8,0.4,0.8*32,1759654114000
NMEA,$GNGSA,A,3,67,68,69,77,78,79,83,85,,,,,0.8,0.4,0.8*2F,1759654114000
NMEA,$GAGSA,A,3,119,126,129,,,,,,,,,,0.8,0.4,0.8*11,1759654114000
NMEA,$BDGSA,A,3,206,213,216,221,222,226,236,,,,,,0.8,0.4,0.8*14,1759654114000
NMEA,$PSSGR,GSA,A,3,01,04,06,09,,,,,,,,,0.8,0.4,0.8,1,8*4B,1759654114000
NMEA,$PSSGR,GSA,A,3,107,121,133,,,,,,,,,,0.8,0.4,0.8,3,1*7F,1759654114000
NMEA,$PSSGR,GSA,A,3,234,,,,,,,,,,,,0.8,0.4,0.8,4,5*7C,1759654114000
NMEA,$GPRMC,084834.000,A,3205.0265,N,03448.1556,E,0.1,75.8,051025,,,A*5C,1759654114000
NMEA,$GPGGA,084835.000,3205.0259,N,03448.1554,E,1,24,0.4,43.2,M,17.1,M,,*6A,1759654115000
NMEA,$PSAMSA,084835.000,3205.0259,N,03448.1554,E,0,M,,*6F,1759654115000
NMEA,$GPGLL,3205.0259,N,03448.1554,E,084835.000,A,A*5F,1759654115000
NMEA,$GPVTG,75.8,T,,M,0.2,N,0.4,K,A*31,1759654115000
NMEA,$GPGSV,4,1,14,01,19,177,35,03,56,111,29,04,54,027,46,06,35,296,34*75,1759654115000
NMEA,$GPGSV,4,2,14,07,40,216,42,09,52,311,33,16,24,091,31,26,14,053,30*78,1759654115000
NMEA,$GPGSV,4,3,14,30,09,219,27*4E,1759654115000
NMEA,$GPGSV,4,4,14,01,19,177,31,04,54,027,35,06,35,296,37,09,52,311,27,8*65,1759654115000
NMEA,$GLGSV,2,1,08,67,15,079,46,68,44,033,41,69,35,323,33,77,07,026,24*62,1759654115000
NMEA,$GLGSV,2,2,08,78,47,073,43,79,38,151,39,83,24,223,37,85,08,331,23*67,1759654115000
NMEA,$GAGSV,4,1,13,107,28,056,25,119,35,278,36,121,08,163,24,126,34,185,32*67,1759654115000
NMEA,$GAGSV,4,2,13,127,23,113,27,129,63,348,45,133,56,258,40*67,1759654115000
NMEA,$GAGSV,4,3,13,107,28,056,31,119,35,278,30,121,08,163,24,127,23,113,25,1*75,1759654115000
NMEA,$GAGSV,4,4,13,129,63,348,40,133,56,258,37,1*7A,1759654115000
NMEA,$BDGSV,5,1,16,205,49,138,34,206,31,043,34,209,46,047,26,211,24,285,35*69,1759654115000
NMEA,$BDGSV,5,2,16,213,12,128,29,216,23,041,42,221,61,003,49,222,35,083,41*6E,1759654115000
NMEA,$BDGSV,5,3,16,226,34,181,38,234,18,247,36,236,21,046,30*66,1759654115000
NMEA,$BDGSV,5,4,16,221,61,003,40,222,35,083,30,226,34,181,30,234,18,247,37,5*79,1759654115000
NMEA,$BDGSV,5,5,16,236,21,046,25,5*77,1759654115000
NMEA,$GPGSA,A,3,03,07,26,,,,,,,,,,1.0,0.4,0.8*3F,1759654115000
NMEA,$GNGSA,A,3,67,68,69,77,78,79,85,,,,,,1.0,0.4,0.8*2D,1759654115000
NMEA,$GAGSA,A,3,119,126,129,,,,,,,,,,1.0,0.4,0.8*18,1759654115000
NMEA,$BDGSA,A,3,206,216,221,222,226,,,,,,,,1.0,0.4,0.8*1A,1759654115000
NMEA,$PSSGR,GSA,A,3,01,04,06,,,,,,,,,,1.0,0.4,0.8,1,8*4B,1759654115000
NMEA,$PSSGR,GSA,A,3,107,133,,,,,,,,,,,1.0,0.4,0.8,3,1*44,1759654115000
NMEA,$PSSGR,GSA,A,3,234,,,,,,,,,,,,1.0,0.4,0.8,4,5*75,1759654115000
NMEA,$GPRMC,084835.000,A,3205.0259,N,03448.1554,E,0.2,75.8,051025,,,A*53,1759654115000
NMEA,$GPGGA,084836.000,3205.0263,N,03448.1550,E,1,24,0.4,44.5,M,17.1,M,,*64,1759654116000
NMEA,$PSAMSA,084836.000,3205.0263,N,03448.1550,E,0,M,,*61,1759654116000
NMEA,$GPGLL,3205.0263,N,03448.1550,E,084836.000,A,A*51,1759654116000
NMEA,$GPVTG,75.8,T,,M,0.0,N,0.0,K,A*37,1759654116000
NMEA,$GPGSV,4,1,13,01,19,177,35,03,56,111,29,04,54,027,46,06,35,296,34*72,1759654116000
NMEA,$GPGSV,4,2,13,07,40,216,42,09,52,311,33,16,24,091,31,26,14,053,30*7F,1759654116000
NMEA,$GPGSV,4,3,13,30,09,219,27*49,1759654116000
NMEA,$GPGSV,4,4,13,01,19,177,30,04,54,027,35,06,35,296,37,09,52,311,26,8*62,1759654116000
NMEA,$GLGSV,2,1,08,67,15,079,46,68,44,033,40,69,35,323,33,77,07,026,23*64,1759654116000
NMEA,$GLGSV,2,2,08,78,47,073,42,79,38,151,39,83,24,223,37,85,08,331,23*66,1759654116000
NMEA,$GAGSV,4,1,13,107,28,056,33,119,35,278,36,121,08,163,24,126,34,185,32*60,1759654116000
NMEA,$GAGSV,4,2,13,127,23,113,27,129,63,348,46,133,56,258,39*6A,1759654116000
NMEA,$GAGSV,4,3,13,107,28,056,31,119,35,278,30,121,08,163,23,127,23,113,25,1*72,1759654116000
NMEA,$GAGSV,4,4,13,129,63,348,39,133,56,258,37,1*74,1759654116000
NMEA,$BDGSV,5,1,16,205,49,138,34,206,31,043,34,209,46,047,23,211,24,285,34*6D,1759654116000
NMEA,$BDGSV,5,2,16,213,12,128,27,216,23,041,42,221,61,003,49,222,35,083,40*61,1759654116000
NMEA,$BDGSV,5,3,16,226,34,181,38,234,18,247,36,236,21,046,29*6E,1759654116000
NMEA,$BDGSV,5,4,16,221,61,003,40,222,35,083,30,226,34,181,30,234,18,247,37,5*79,1759654116000
NMEA,$BDGSV,5,5,16,236,21,046,24,5*76,1759654116000
NMEA,$GPGSA,A,3,03,04,07,16,26,,,,,,,,1.0,0.4,0.8*3C,1759654116000
NMEA,$GNGSA,A,3,67,68,69,77,78,85,,,,,,,1.0,0.4,0.8*23,1759654116000
NMEA,$GAGSA,A,3,107,119,129,,,,,,,,,,1.0,0.4,0.8*1B,1759654116000
NMEA,$BDGSA,A,3,206,216,221,222,226,,,,,,,,1.0,0.4,0.8*1A,1759654116000
NMEA,$PSSGR,GSA,A,3,01,06,09,,,,,,,,,,1.0,0.4,0.8,1,8*46,1759654116000
NMEA,$PSSGR,GSA,A,3,234,,,,,,,,,,,,1.0,0.4,0.8,4,5*75,1759654116000
NMEA,$GPRMC,084836.000,A,3205.0263,N,03448.1550,E,0.0,75.8,051025,,,A*5F,1759654116000
NMEA,$GPGGA,084837.000,3205.0273,N,03448.1550,E,1,24,0.4,43.2,M,17.1,M,,*64,1759654117000
NMEA,$PSAMSA,084837.000,3205.0273,N,03448.1550,E,0,M,,*61,1759654117000
NMEA,$GPGLL,3205.0273,N,03448.1550,E,084837.000,A,A*51,1759654117000
NMEA,$GPVTG,75.8,T,,M,0.0,N,0.0,K,A*37,1759654117000
NMEA,$GPGSV,4,1,12,01,19,177,35,03,56,111,29,04,54,027,46,06,35,296,34*73,1759654117000
NMEA,$GPGSV,4,2,12,07,40,216,42,09,52,311,33,16,24,091,31,26,14,053,30*7E,1759654117000
NMEA,$GPGSV,4,3,12,30,09,219,27*48,1759654117000
NMEA,$GPGSV,4,4,12,01,19,177,29,04,54,027,38,06,35,296,36,8*5E,1759654117000
NMEA,$GLGSV,2,1,08,67,15,079,46,68,44,033,40,69,35,323,32,77,07,026,23*65,1759654117000
NMEA,$GLGSV,2,2,08,78,47,073,42,79,38,151,39,83,24,223,37,85,08,331,23*66,1759654117000
NMEA,$GAGSV,5,1,15,107,28,056,34,112,21,317,24,119,35,278,36,121,08,163,21*68,1759654117000
NMEA,$GAGSV,5,2,15,126,34,185,32,127,23,113,27,129,63,348,46,133,56,258,38*63,1759654117000
NMEA,$GAGSV,5,3,15*6A,1759654117000
NMEA,$GAGSV,5,4,15,107,28,056,30,119,35,278,30,121,08,163,23,127,23,113,25,1*73,1759654117000
NMEA,$GAGSV,5,5,15,129,63,348,39,133,56,258,37,1*72,1759654117000
NMEA,$BDGSV,5,1,16,205,49,138,34,206,31,043,34,209,46,047,20,211,24,285,34*6E,1759654117000
NMEA,$BDGSV,5,2,16,213,12,128,26,216,23,041,43,221,61,003,49,222,35,083,40*61,1759654117000
NMEA,$BDGSV,5,3,16,226,34,181,38,234,18,247,36,236,21,046,30*66,1759654117000
NMEA,$BDGSV,5,4,16,221,61,003,42,222,35,083,29,226,34,181,29,234,18,247,37,5*7B,1759654117000
NMEA,$BDGSV,5,5,16,236,21,046,24,5*76,1759654117000
NMEA,$GPGSA,A,3,03,07,09,16,,,,,,,,,1.0,0.4,0.8*35,1759654117000
NMEA,$GNGSA,A,3,67,68,69,77,78,83,85,,,,,,1.0,0.4,0.8*28,1759654117000
NMEA,$GAGSA,A,3,119,126,129,,,,,,,,,,1.0,0.4,0.8*18,1759654117000
NMEA,$BDGSA,A,3,216,221,222,226,236,,,,,,,,1.0,0.4,0.8*19,1759654117000
NMEA,$PSSGR,GSA,A,3,01,04,06,,,,,,,,,,1.0,0.4,0.8,1,8*4B,1759654117000
NMEA,$PSSGR,GSA,A,3,234,,,,,,,,,,,,1.0,0.4,0.8,4,5*75,1759654117000
NMEA,$GPRMC,084837.000,A,3205.0273,N,03448.1550,E,0.0,75.8,051025,,,A*5F,1759654117000
NMEA,$GPGGA,084838.000,3205.0273,N,03448.1551,E,1,26,0.4,43.2,M,17.1,M,,*68,1759654118000
NMEA,$PSAMSA,084838.000,3205.0273,N,03448.1551,E,1,M,,*6E,1759654118000
NMEA,$GPGLL,3205.0273,N,03448.1551,E,084838.000,A,A*5F,1759654118000
NMEA,$GPVTG,75.8,T,,M,0.0,N,0.0,K,A*37,1759654118000
NMEA,$GPGSV,4,1,13,01,19,177,35,03,56,111,29,04,54,027,46,06,35,296,34*72,1759654118000
NMEA,$GPGSV,4,2,13,07,40,216,42,09,52,311,33,16,24,091,31,30,09,219,27*7E,1759654118000
NMEA,$GPGSV,4,3,13*7C,1759654118000
NMEA,$GPGSV,4,4,13,01,19,177,29,04,54,027,38,06,35,296,36,09,52,311,30,8*61,1759654118000
NMEA,$GLGSV,2,1,08,67,15,079,45,68,44,033,40,69,35,323,32,77,07,026,23*66,1759654118000
NMEA,$GLGSV,2,2,08,78,47,073,42,79,38,151,39,83,24,223,36,85,08,331,23*67,1759654118000
NMEA,$GAGSV,4,1,15,107,28,056,36,112,21,317,24,119,35,278,36,121,08,163,29*63,1759654118000
NMEA,$GAGSV,4,2,15,126,34,185,32,127,23,113,26,129,63,348,45,133,56,258,41*6E,1759654118000
NMEA,$GAGSV,4,3,15,107,28,056,29,112,21,317,24,119,35,278,30,121,08,163,19,1*77,1759654118000
NMEA,$GAGSV,4,4,15,127,23,113,24,129,63,348,39,133,56,258,36,1*73,1759654118000
NMEA,$BDGSV,5,1,16,205,49,138,34,206,31,043,34,209,46,047,17,211,24,285,33*6D,1759654118000
NMEA,$BDGSV,5,2,16,213,12,128,26,216,23,041,43,221,61,003,49,222,35,083,40*61,1759654118000
NMEA,$BDGSV,5,3,16,226,34,181,38,234,18,247,36,236,21,046,31*67,1759654118000
NMEA,$BDGSV,5,4,16,221,61,003,41,222,35,083,28,226,34,181,29,234,18,247,36,5*78,1759654118000
NMEA,$BDGSV,5,5,16,236,21,046,25,5*77,1759654118000
NMEA,$GPGSA,A,3,03,07,16,,,,,,,,,,1.0,0.4,0.8*3C,1759654118000
NMEA,$GNGSA,A,3,67,68,69,77,78,79,83,,,,,,1.0,0.4,0.8*2B,1759654118000
NMEA,$GAGSA,A,3,107,119,121,126,133,,,,,,,,1.0,0.4,0.8*17,1759654118000
NMEA,$BDGSA,A,3,206,213,221,222,226,236,,,,,,,1.0,0.4,0.8*28,1759654118000
NMEA,$PSSGR,GSA,A,3,04,06,09,,,,,,,,,,1.0,0.4,0.8,1,8*43,1759654118000
NMEA,$PSSGR,GSA,A,3,129,,,,,,,,,,,,1.0,0.4,0.8,3,1*79,1759654118000
NMEA,$PSSGR,GSA,A,3,234,,,,,,,,,,,,1.0,0.4,0.8,4,5*75,1759654118000
NMEA,$GPRMC,084838.000,A,3205.0273,N,03448.1551,E,0.0,,051025,,,A*45,1759654118000
NMEA,$GPGGA,084839.000,3205.0281,N,03448.1549,E,1,26,0.4,41.9,M,17.1,M,,*64,1759654119000
NMEA,$PSAMSA,084839.000,3205.0281,N,03448.1549,E,0,M,,*6A,1759654119000
NMEA,$GPGLL,3205.0281,N,03448.1549,E,084839.000,A,A*5A,1759654119000
NMEA,$GPVTG,75.8,T,,M,0.2,N,0.4,K,A*31,1759654119000
NMEA,$GPGSV,5,1,14,01,19,177,39,03,56,111,29,04,54,027,46,06,35,296,34*78,1759654119000
NMEA,$GPGSV,5,2,14,07,40,216,42,09,52,311,33,16,24,091,31,26,14,053,26*7E,1759654119000
NMEA,$GPGSV,5,3,14,30,09,219,27*4F,1759654119000
NMEA,$GPGSV,5,4,14,01,19,177,28,03,56,111,23,04,54,027,37,06,35,296,36,8*67,1759654119000
NMEA,$GPGSV,5,5,14,09,52,311,31,8*57,1759654119000
NMEA,$GLGSV,2,1,08,67,15,079,44,68,44,033,40,69,35,323,31,77,07,026,23*64,1759654119000
NMEA,$GLGSV,2,2,08,78,47,073,41,79,38,151,38,83,24,223,36,85,08,331,23*65,1759654119000
NMEA,$GAGSV,4,1,15,107,28,056,37,119,35,278,36,121,08,163,30,126,34,185,32*67,1759654119000
NMEA,$GAGSV,4,2,15,127,23,113,30,129,63,348,44,130,15,062,16,133,56,258,41*62,1759654119000
NMEA,$GAGSV,4,3,15,107,28,056,29,112,21,317,24,119,35,278,30,127,23,113,24,1*71,1759654119000
NMEA,$GAGSV,4,4,15,129,63,348,39,133,56,258,36,1*73,1759654119000
NMEA,$BDGSV,5,1,16,205,49,138,34,206,31,043,34,209,46,047,14,211,24,285,32*6F,1759654119000
NMEA,$BDGSV,5,2,16,213,12,128,26,216,23,041,43,221,61,003,50,222,35,083,39*67,1759654119000
NMEA,$BDGSV,5,3,16,226,34,181,38,234,18,247,37,236,21,046,32*65,1759654119000
NMEA,$BDGSV,5,4,16,221,61,003,42,222,35,083,27,226,34,181,28,234,18,247,36,5*75,1759654119000
NMEA,$BDGSV,5,5,16,236,21,046,25,5*77,1759654119000
NMEA,$GPGSA,A,3,01,07,16,,,,,,,,,,1.0,0.4,0.8*3E,1759654119000
NMEA,$GNGSA,A,3,67,68,69,77,78,79,,,,,,,1.0,0.4,0.8*20,1759654119000
NMEA,$GAGSA,A,3,119,121,126,,,,,,,,,,1.0,0.4,0.8*10,1759654119000
NMEA,$BDGSA,A,3,206,213,216,221,222,226,,,,,,,1.0,0.4,0.8*2A,1759654119000
NMEA,$PSSGR,GSA,A,3,03,04,06,09,,,,,,,,,1.0,0.4,0.8,1,8*40,1759654119000
NMEA,$PSSGR,GSA,A,3,112,129,133,,,,,,,,,,1.0,0.4,0.8,3,1*7A,1759654119000
NMEA,$PSSGR,GSA,A,3,234,,,,,,,,,,,,1.0,0.4,0.8,4,5*75,1759654119000
NMEA,$GPRMC,084839.000,A,3205.0281,N,03448.1549,E,0.2,75.8,051025,,,A*56,1759654119000
NMEA,$GPGGA,084840.000,3205.0277,N,03448.1550,E,1,14,0.8,40.7,M,17.1,M,,*69,1759654120000
NMEA,$PSAMSA,084840.000,3205.0277,N,03448.1550,E,0,M,,*65,1759654120000
NMEA,$GPGLL,3205.0277,N,03448.1550,E,084840.000,A,A*55,1759654120000
NMEA,$GPVTG,75.8,T,,M,0.5,N,0.9,K,A*3B,1759654120000
NMEA,$GPGSV,5,1,14,01,19,177,40,03,56,111,29,04,54,027,46,06,35,296,34*76,1759654120000
NMEA,$GPGSV,5,2,14,07,40,216,42,09,52,311,33,16,24,091,31,26,14,053,28*70,1759654120000
NMEA,$GPGSV,5,3,14,30,09,219,28*40,1759654120000
NMEA,$GPGSV,5,4,14,01,19,177,28,04,54,027,37,06,35,296,35,09,52,311,30,8*6A,1759654120000
NMEA,$GPGSV,5,5,14,26,14,053,24,8*59,1759654120000
NMEA,$GLGSV,2,1,08,67,15,079,43,68,44,033,39,69,35,323,31,77,07,026,22*6C,1759654120000
NMEA,$GLGSV,2,2,08,78,47,073,41,79,38,151,38,83,24,223,36,85,08,331,23*65,1759654120000
NMEA,$GAGSV,5,1,15,107,28,056,36,119,35,278,36,121,08,163,30,126,34,185,32*67,1759654120000
NMEA,$GAGSV,5,2,15,127,23,113,30,129,63,348,43,130,15,062,16,133,56,258,41*64,1759654120000
NMEA,$GAGSV,5,3,15*6A,1759654120000
NMEA,$GAGSV,5,4,15,112,21,317,20,119,35,278,30,127,23,113,24,129,63,348,39,1*7D,1759654120000
NMEA,$GAGSV,5,5,15,133,56,258,36,1*79,1759654120000
NMEA,$BDGSV,5,1,16,205,49,138,34,206,31,043,34,209,46,047,12,211,24,285,32*69,1759654120000
NMEA,$BDGSV,5,2,16,213,12,128,26,216,23,041,43,221,61,003,50,222,35,083,39*67,1759654120000
NMEA,$BDGSV,5,3,16,226,34,181,38,234,18,247,37,236,21,046,33*64,1759654120000
NMEA,$BDGSV,5,4,16,221,61,003,42,222,35,083,27,226,34,181,28,234,18,247,36,5*75,1759654120000
NMEA,$BDGSV,5,5,16,236,21,046,25,5*77,1759654120000
NMEA,$GPGSA,A,3,03,,,,,,,,,,,,1.6,0.8,1.4*3B,1759654120000
NMEA,$GNGSA,A,3,67,78,,,,,,,,,,,1.6,0.8,1.4*28,1759654120000
NMEA,$GAGSA,A,3,119,121,,,,,,,,,,,1.6,0.8,1.4*22,1759654120000
NMEA,$BDGSA,A,3,206,221,222,,,,,,,,,,1.6,0.8,1.4*1E,1759654120000
NMEA,$PSSGR,GSA,A,3,04,06,09,,,,,,,,,,1.6,0.8,1.4,1,8*44,1759654120000
NMEA,$PSSGR,GSA,A,3,129,133,,,,,,,,,,,1.6,0.8,1.4,3,1*4F,1759654120000
NMEA,$PSSGR,GSA,A,3,234,,,,,,,,,,,,1.6,0.8,1.4,4,5*72,1759654120000
NMEA,$GPRMC,084840.000,A,3205.0277,N,03448.1550,E,0.5,75.8,051025,,,A*5E,1759654120000
NMEA,$GPGGA,084841.000,3205.0285,N,03448.1549,E,1,15,0.6,40.6,M,17.1,M,,*63,1759654121000
NMEA,$PSAMSA,084841.000,3205.0285,N,03448.1549,E,0,M,,*61,1759654121000
NMEA,$GPGLL,3205.0285,N,03448.1549,E,084841.000,A,A*51,1759654121000
NMEA,$GPVTG,75.8,T,,M,0.4,N,0.7,K,A*34,1759654121000
NMEA,$GPGSV,4,1,14,01,19,177,40,03,56,111,29,04,54,027,46,06,35,296,33*70,1759654121000
NMEA,$GPGSV,4,2,14,07,40,216,42,09,52,311,34,16,24,091,32,26,14,053,29*74,1759654121000
NMEA,$GPGSV,4,3,14,30,09,219,28*41,1759654121000
NMEA,$GPGSV,4,4,14,01,19,177,31,04,54,027,36,06,35,296,34,09,52,311,30,8*63,1759654121000
NMEA,$GLGSV,3,1,09,67,15,079,42,68,44,033,39,69,35,323,30,77,07,026,22*6C,1759654121000
NMEA,$GLGSV,3,2,09,78,47,073,42,79,38,151,38,83,24,223,36,84,33,286,22*63,1759654121000
NMEA,$GLGSV,3,3,09,85,08,330,23*58,1759654121000
NMEA,$GAGSV,4,1,15,107,28,056,33,112,21,317,20,119,35,278,36,121,08,163,30*6A,1759654121000
NMEA,$GAGSV,4,2,15,126,34,185,32,127,23,113,30,129,63,348,43,130,15,062,14*60,1759654121000
NMEA,$GAGSV,4,3,15,133,56,258,40*62,1759654121000
NMEA,$GAGSV,4,4,15,119,35,278,31,127,23,113,24,129,63,348,38,133,56,258,36,1*72,1759654121000
NMEA,$BDGSV,5,1,15,205,49,138,35,206,31,043,34,211,24,285,31,213,12,128,26*6D,1759654121000
NMEA,$BDGSV,5,2,15,216,23,041,43,221,61,003,50,222,35,083,39,226,34,181,38*6A,1759654121000
NMEA,$BDGSV,5,3,15,234,18,247,37,236,21,046,33*65,1759654121000
NMEA,$BDGSV,5,4,15,221,61,003,41,222,35,083,26,226,34,181,28,234,18,247,39,5*7B,1759654121000
NMEA,$BDGSV,5,5,15,236,21,046,25,5*74,1759654121000
NMEA,$GPGSA,A,3,03,04,07,,,,,,,,,,1.6,0.6,1.4*36,1759654121000
NMEA,$GNGSA,A,3,68,78,,,,,,,,,,,1.6,0.6,1.4*29,1759654121000
NMEA,$GAGSA,A,3,121,129,,,,,,,,,,,1.6,0.6,1.4*2F,1759654121000
NMEA,$BDGSA,A,3,216,221,,,,,,,,,,,1.6,0.6,1.4*23,1759654121000
NMEA,$PSSGR,GSA,A,3,01,06,09,,,,,,,,,,1.6,0.6,1.4,1,8*4F,1759654121000
NMEA,$PSSGR,GSA,A,3,119,133,,,,,,,,,,,1.6,0.6,1.4,3,1*42,1759654121000
NMEA,$PSSGR,GSA,A,3,234,,,,,,,,,,,,1.6,0.6,1.4,4,5*7C,1759654121000
NMEA,$GPRMC,084841.000,A,3205.0285,N,03448.1549,E,0.4,75.8,051025,,,A*5B,1759654121000
NMEA,$GPGGA,084842.000,3205.0282,N,03448.1549,E,1,13,0.8,40.5,M,17.1,M,,*6C,1759654122000
NMEA,$PSAMSA,084842.000,3205.0282,N,03448.1549,E,0,M,,*65,1759654122000
NMEA,$GPGLL,3205.0282,N,03448.1549,E,084842.000,A,A*55,1759654122000
NMEA,$GPVTG,75.8,T,,M,0.5,N,0.9,K,A*3B,1759654122000
NMEA,$GPGSV,4,1,15,01,19,177,40,03,56,111,29,04,54,027,46,06,35,296,33*71,1759654122000
NMEA,$GPGSV,4,2,15,07,40,216,42,09,52,311,34,16,24,091,32,26,14,053,29*75,1759654122000
NMEA,$GPGSV,4,3,15,30,09,219,28*40,1759654122000
NMEA,$GPGSV,4,4,15,01,19,177,30,04,54,027,36,06,35,296,34,09,52,311,29,8*6B,1759654122000
NMEA,$GLGSV,3,1,09,67,15,079,41,68,44,033,39,69,35,323,30,77,07,026,22*6F,1759654122000
NMEA,$GLGSV,3,2,09,78,47,073,42,79,38,151,38,83,24,223,35,84,33,286,23*61,1759654122000
NMEA,$GLGSV,3,3,09,85,08,330,23*58,1759654122000
NMEA,$GAGSV,5,1,16,107,28,056,34,112,21,317,22,119,35,278,35,121,08,163,30*6E,1759654122000
NMEA,$GAGSV,5,2,16,126,34,185,32,127,23,113,30,129,63,348,44,130,15,062,13*62,1759654122000
NMEA,$GAGSV,5,3,16,133,56,258,40*60,1759654122000
NMEA,$GAGSV,5,4,16,107,28,056,29,119,35,278,31,127,23,113,23,129,63,348,39,1*7A,1759654122000
NMEA,$GAGSV,5,5,16,133,56,258,36,1*7A,1759654122000
NMEA,$BDGSV,5,1,15,205,49,138,35,206,31,043,34,211,24,285,31,213,12,128,26*6D,1759654122000
NMEA,$BDGSV,5,2,15,216,23,041,43,221,61,003,50,222,35,083,39,226,34,181,38*6A,1759654122000
NMEA,$BDGSV,5,3,15,234,18,247,37,236,21,046,31*67,1759654122000
NMEA,$BDGSV,5,4,15,221,61,003,41,222,35,083,26,226,34,181,27,234,18,247,40,5*7A,1759654122000
NMEA,$BDGSV,5,5,15,236,21,046,24,5*75,1759654122000
NMEA,$GPGSA,A,3,03,07,26,,,,,,,,,,1.6,0.8,1.2*3E,1759654122000
NMEA,$GNGSA,A,3,68,78,,,,,,,,,,,1.6,0.8,1.2*21,1759654122000
NMEA,$GAGSA,A,3,121,,,,,,,,,,,,1.6,0.8,1.2*1D,1759654122000
NMEA,$BDGSA,A,3,221,,,,,,,,,,,,1.6,0.8,1.2*1E,1759654122000
NMEA,$PSSGR,GSA,A,3,04,06,09,,,,,,,,,,1.6,0.8,1.2,1,8*42,1759654122000
NMEA,$PSSGR,GSA,A,3,119,129,133,,,,,,,,,,1.6,0.8,1.2,3,1*70,1759654122000
NMEA,$GPRMC,084842.000,A,3205.0282,N,03448.1549,E,0.5,75.8,051025,,,A*5E,1759654122000
NMEA,$GPGGA,084843.000,3205.0281,N,03448.1545,E,1,15,0.8,40.8,M,17.1,M,,*69,1759654123000
NMEA,$PSAMSA,084843.000,3205.0281,N,03448.1545,E,0,M,,*6B,1759654123000
NMEA,$GPGLL,3205.0281,N,03448.1545,E,084843.000,A,A*5B,1759654123000
NMEA,$GPVTG,75.8,T,,M,1.0,N,1.8,K,A*3F,1759654123000
NMEA,$GPGSV,4,1,15,01,19,177,40,03,56,111,29,04,54,027,47,06,35,296,34*77,1759654123000
NMEA,$GPGSV,4,2,15,07,40,216,42,09,52,311,34,16,24,091,32,26,14,053,29*75,1759654123000
NMEA,$GPGSV,4,3,15,30,09,219,28*40,1759654123000
NMEA,$GPGSV,4,4,15,01,19,177,29,04,54,027,36,06,35,296,34,09,52,311,29,8*63,1759654123000
NMEA,$GLGSV,3,1,09,67,15,079,41,68,44,033,39,69,35,323,30,77,07,026,22*6F,1759654123000
NMEA,$GLGSV,3,2,09,78,47,073,42,79,38,151,38,83,24,223,35,84,33,286,23*61,1759654123000
NMEA,$GLGSV,3,3,09,85,08,330,23*58,1759654123000
NMEA,$GAGSV,5,1,14,107,28,056,35,112,21,317,22,119,35,278,34,121,08,163,29*64,1759654123000
NMEA,$GAGSV,5,2,14,126,34,185,32,127,23,113,29,129,63,348,44,133,56,258,40*61,1759654123000
NMEA,$GAGSV,5,3,14*6B,1759654123000
NMEA,$GAGSV,5,4,14,107,28,056,29,119,35,278,30,121,08,163,25,129,63,348,39,1*77,1759654123000
NMEA,$GAGSV,5,5,14,133,56,258,36,1*78,1759654123000
NMEA,$BDGSV,5,1,15,205,49,138,35,206,31,043,34,211,24,285,30,213,12,128,26*6C,1759654123000
NMEA,$BDGSV,5,2,15,216,23,041,43,221,61,003,50,222,35,083,39,226,34,181,38*6A,1759654123000
NMEA,$BDGSV,5,3,15,234,18,247,37,236,21,046,29*6E,1759654123000
NMEA,$BDGSV,5,4,15,221,61,003,41,222,35,083,25,226,34,181,27,234,18,247,40,5*79,1759654123000
NMEA,$BDGSV,5,5,15,236,21,046,24,5*75,1759654123000
NMEA,$GPGSA,A,3,03,07,,,,,,,,,,,1.6,0.8,1.4*3C,1759654123000
NMEA,$GNGSA,A,3,68,77,78,,,,,,,,,,1.6,0.8,1.4*27,1759654123000
NMEA,$GAGSA,A,3,129,,,,,,,,,,,,1.6,0.8,1.4*13,1759654123000
NMEA,$BDGSA,A,3,206,221,222,,,,,,,,,,1.6,0.8,1.4*1E,1759654123000
NMEA,$PSSGR,GSA,A,3,04,06,09,,,,,,,,,,1.6,0.8,1.4,1,8*44,1759654123000
NMEA,$PSSGR,GSA,A,3,119,133,,,,,,,,,,,1.6,0.8,1.4,3,1*4C,1759654123000
NMEA,$PSSGR,GSA,A,3,236,,,,,,,,,,,,1.6,0.8,1.4,4,5*70,1759654123000
NMEA,$GPRMC,084843.000,A,3205.0281,N,03448.1545,E,1.0,75.8,051025,,,A*54,1759654123000
NMEA,$GPGGA,084844.000,3205.0282,N,03448.1545,E,1,12,1.2,38.5,M,17.1,M,,*63,1759654124000
NMEA,$PSAMSA,084844.000,3205.0282,N,03448.1545,E,0,M,,*6F,1759654124000
NMEA,$GPGLL,3205.0282,N,03448.1545,E,084844.000,A,A*5F,1759654124000
NMEA,$GPVTG,75.8,T,,M,1.5,N,2.8,K,A*39,1759654124000
NMEA,$GPGSV,5,1,16,01,19,177,40,03,56,111,29,04,54,027,47,06,35,296,34*75,1759654124000
NMEA,$GPGSV,5,2,16,07,40,216,42,09,52,311,34,16,24,091,34,26,14,053,29*71,1759654124000
NMEA,$GPGSV,5,3,16,30,09,219,29*43,1759654124000
NMEA,$GPGSV,5,4,16,01,19,177,28,04,54,027,36,06,35,296,33,09,52,311,29,8*67,1759654124000
NMEA,$GPGSV,5,5,16,30,09,219,20,8*58,1759654124000
NMEA,$GLGSV,3,1,09,67,15,079,40,68,44,033,39,69,35,323,29,77,07,026,22*66,1759654124000
NMEA,$GLGSV,3,2,09,78,47,073,42,79,38,151,38,83,24,223,35,84,33,286,23*61,1759654124000
NMEA,$GLGSV,3,3,09,85,08,330,23*58,1759654124000
NMEA,$GAGSV,5,1,14,107,28,056,35,112,21,317,22,119,35,278,34,121,08,163,29*64,1759654124000
NMEA,$GAGSV,5,2,14,126,34,185,32,127,00,000,21,129,63,348,44,133,56,258,39*65,1759654124000
NMEA,$GAGSV,5,3,14*6B,1759654124000
NMEA,$GAGSV,5,4,14,107,28,056,29,119,35,278,30,127,23,113,28,129,63,348,39,1*72,1759654124000
NMEA,$GAGSV,5,5,14,133,56,258,35,1*7B,1759654124000
NMEA,$BDGSV,5,1,15,205,49,138,35,206,31,043,34,211,24,285,30,213,12,128,26*6C,1759654124000
NMEA,$BDGSV,5,2,15,216,23,041,43,221,61,003,50,222,35,083,39,226,34,181,38*6A,1759654124000
NMEA,$BDGSV,5,3,15,234,18,247,37,236,21,046,31*67,1759654124000
NMEA,$BDGSV,5,4,15,221,61,003,41,222,35,083,25,226,34,181,26,234,18,247,40,5*78,1759654124000
NMEA,$BDGSV,5,5,15,236,21,046,23,5*72,1759654124000
NMEA,$GPGSA,A,3,,,,,,,,,,,,,2.6,1.2,2.2*35,1759654124000
NMEA,$GNGSA,A,3,68,78,,,,,,,,,,,2.6,1.2,2.2*2A,1759654124000
NMEA,$GAGSA,A,3,121,129,,,,,,,,,,,2.6,1.2,2.2*2C,1759654124000
NMEA,$BDGSA,A,3,221,222,,,,,,,,,,,2.6,1.2,2.2*27,1759654124000
NMEA,$PSSGR,GSA,A,3,04,06,09,,,,,,,,,,2.6,1.2,2.2,1,8*49,1759654124000
NMEA,$PSSGR,GSA,A,3,119,133,,,,,,,,,,,2.6,1.2,2.2,3,1*41,1759654124000
NMEA,$PSSGR,GSA,A,3,234,,,,,,,,,,,,2.6,1.2,2.2,4,5*7F,1759654124000
NMEA,$GPRMC,084844.000,A,3205.0282,N,03448.1545,E,1.5,75.8,051025,,,A*55,1759654124000
NMEA,$GPGGA,084845.000,3205.0294,N,03448.1544,E,1,17,0.6,36.1,M,17.1,M,,*6E,1759654125000
NMEA,$PSAMSA,084845.000,3205.0294,N,03448.1544,E,0,M,,*68,1759654125000
NMEA,$GPGLL,3205.0294,N,03448.1544,E,084845.000,A,A*58,1759654125000
NMEA,$GPVTG,75.8,T,,M,1.7,N,3.2,K,A*30,1759654125000
NMEA,$GPGSV,5,1,16,01,19,177,39,03,56,111,29,04,54,027,47,06,35,296,34*7B,1759654125000
NMEA,$GPGSV,5,2,16,07,40,216,42,09,52,311,34,16,24,091,38,26,14,053,29*7D,1759654125000
NMEA,$GPGSV,5,3,16,30,09,219,29*43,1759654125000
NMEA,$GPGSV,5,4,16,01,19,177,28,04,54,027,35,06,35,296,33,09,52,311,29,8*64,1759654125000
NMEA,$GPGSV,5,5,16,30,09,219,20,8*58,1759654125000
NMEA,$GLGSV,3,1,09,67,15,079,40,68,44,033,39,69,35,323,29,77,07,026,21*65,1759654125000
NMEA,$GLGSV,3,2,09,78,47,073,42,79,38,151,38,83,24,223,35,84,33,286,24*66,1759654125000
NMEA,$GLGSV,3,3,09,85,08,330,23*58,1759654125000
NMEA,$GAGSV,4,1,15,107,28,056,36,112,21,317,22,119,35,278,33,121,08,163,29*60,1759654125000
NMEA,$GAGSV,4,2,15,126,34,185,32,127,23,113,26,129,63,348,44,133,56,258,39*60,1759654125000
NMEA,$GAGSV,4,3,15*6B,1759654125000
NMEA,$GAGSV,4,4,15,107,28,056,29,119,35,278,30,129,63,348,39,133,56,258,35,1*75,1759654125000
NMEA,$BDGSV,5,1,15,205,49,138,35,206,31,043,34,211,24,285,29,213,12,128,26*64,1759654125000
NMEA,$BDGSV,5,2,15,216,23,041,43,221,61,003,49,222,35,083,39,226,34,181,38*62,1759654125000
NMEA,$BDGSV,5,3,15,234,18,247,37,236,21,046,33*65,1759654125000
NMEA,$BDGSV,5,4,15,221,61,003,40,222,35,083,24,226,34,181,26,234,18,247,39,5*76,1759654125000
NMEA,$BDGSV,5,5,15,236,21,046,23,5*72,1759654125000
NMEA,$GPGSA,A,3,03,04,07,,,,,,,,,,1.4,0.6,1.2*32,1759654125000
NMEA,$GNGSA,A,3,67,68,78,79,,,,,,,,,1.4,0.6,1.2*22,1759654125000
NMEA,$GAGSA,A,3,121,126,129,,,,,,,,,,1.4,0.6,1.2*1E,1759654125000
NMEA,$BDGSA,A,3,206,221,222,,,,,,,,,,1.4,0.6,1.2*14,1759654125000
NMEA,$PSSGR,GSA,A,3,06,,,,,,,,,,,,1.4,0.6,1.2,1,8*43,1759654125000
NMEA,$PSSGR,GSA,A,3,119,133,,,,,,,,,,,1.4,0.6,1.2,3,1*46,1759654125000
NMEA,$PSSGR,GSA,A,3,234,,,,,,,,,,,,1.4,0.6,1.2,4,5*78,1759654125000
NMEA,$GPRMC,084845.000,A,3205.0294,N,03448.1544,E,1.7,75.8,051025,,,A*50,1759654125000
NMEA,$GPGGA,084846.000,3205.0294,N,03448.1542,E,1,15,0.8,34.5,M,17.1,M,,*61,1759654126000
NMEA,$PSAMSA,084846.000,3205.0294,N,03448.1542,E,0,M,,*6D,1759654126000
NMEA,$GPGLL,3205.0294,N,03448.1542,E,084846.000,A,A*5D,1759654126000
NMEA,$GPVTG,75.8,T,,M,2.1,N,3.8,K,A*3F,1759654126000
NMEA,$GPGSV,5,1,16,01,19,177,39,03,56,111,29,04,54,027,47,06,35,296,34*7B,1759654126000
NMEA,$GPGSV,5,2,16,07,40,216,42,09,52,311,34,16,24,091,38,26,14,053,29*7D,1759654126000
NMEA,$GPGSV,5,3,16,30,09,219,30*4B,1759654126000
NMEA,$GPGSV,5,4,16,01,19,177,27,04,54,027,35,06,35,296,33,09,52,311,32,8*61,1759654126000
NMEA,$GPGSV,5,5,16,30,09,219,20,8*58,1759654126000
NMEA,$GLGSV,3,1,09,67,15,079,40,68,44,033,39,69,35,323,29,77,07,026,21*65,1759654126000
NMEA,$GLGSV,3,2,09,78,47,073,41,79,38,151,38,83,24,223,35,84,33,286,24*65,1759654126000
NMEA,$GLGSV,3,3,09,85,08,330,23*58,1759654126000
NMEA,$GAGSV,5,1,16,107,28,056,36,112,21,317,22,119,35,278,33,121,08,163,28*63,1759654126000
NMEA,$GAGSV,5,2,16,126,34,185,32,127,23,113,29,129,63,348,44,130,15,062,21*6B,1759654126000
NMEA,$GAGSV,5,3,16,133,56,258,39*6E,1759654126000
NMEA,$GAGSV,5,4,16,107,28,056,31,119,35,278,30,127,23,113,26,129,63,348,39,1*77,1759654126000
NMEA,$GAGSV,5,5,16,133,56,258,35,1*79,1759654126000
NMEA,$BDGSV,5,1,15,205,49,138,34,206,31,043,34,211,24,285,29,213,12,128,26*65,1759654126000
NMEA,$BDGSV,5,2,15,216,23,041,42,221,61,003,49,222,35,083,39,226,34,181,38*63,1759654126000
NMEA,$BDGSV,5,3,15,234,18,247,37,236,21,046,33*65,1759654126000
NMEA,$BDGSV,5,4,15,221,61,003,40,222,35,083,24,226,34,181,26,234,18,247,39,5*76,1759654126000
NMEA,$BDGSV,5,5,15,236,21,046,23,5*72,1759654126000
NMEA,$GPGSA,A,3,04,07,,,,,,,,,,,1.6,0.8,1.4*3B,1759654126000
NMEA,$GNGSA,A,3,67,68,78,,,,,,,,,,1.6,0.8,1.4*26,1759654126000
NMEA,$GAGSA,A,3,121,126,129,,,,,,,,,,1.6,0.8,1.4*14,1759654126000
NMEA,$BDGSA,A,3,221,222,,,,,,,,,,,1.6,0.8,1.4*2A,1759654126000
NMEA,$PSSGR,GSA,A,3,06,09,,,,,,,,,,,1.6,0.8,1.4,1,8*40,1759654126000
NMEA,$PSSGR,GSA,A,3,119,133,,,,,,,,,,,1.6,0.8,1.4,3,1*4C,1759654126000
NMEA,$PSSGR,GSA,A,3,234,,,,,,,,,,,,1.6,0.8,1.4,4,5*72,1759654126000
NMEA,$GPRMC,084846.000,A,3205.0294,N,03448.1542,E,2.1,75.8,051025,,,A*50,1759654126000
NMEA,$GPGGA,084847.000,3205.0293,N,03448.1535,E,1,14,1.0,34.3,M,17.1,M,,*69,1759654127000
NMEA,$PSAMSA,084847.000,3205.0293,N,03448.1535,E,0,M,,*6B,1759654127000
NMEA,$GPGLL,3205.0293,N,03448.1535,E,084847.000,A,A*5B,1759654127000
NMEA,$GPVTG,75.8,T,,M,1.5,N,2.8,K,A*39,1759654127000
NMEA,$GPGSV,5,1,16,01,19,177,39,03,56,111,29,04,54,027,47,06,35,296,34*7B,1759654127000
NMEA,$GPGSV,5,2,16,07,40,216,42,09,52,311,37,16,24,091,38,26,14,053,29*7E,1759654127000
NMEA,$GPGSV,5,3,16,30,09,219,37*4C,1759654127000
NMEA,$GPGSV,5,4,16,01,19,177,27,03,56,111,19,04,54,027,35,06,35,296,33,8*64,1759654127000
NMEA,$GPGSV,5,5,16,09,52,311,36,30,09,219,20,8*60,1759654127000
NMEA,$GLGSV,3,1,09,67,15,079,40,68,44,033,38,69,35,323,29,77,07,026,21*64,1759654127000
NMEA,$GLGSV,3,2,09,78,47,073,40,79,38,151,37,83,24,223,34,84,33,286,24*6A,1759654127000
NMEA,$GLGSV,3,3,09,85,08,330,23*58,1759654127000
NMEA,$GAGSV,5,1,16,107,28,056,35,112,21,317,20,119,35,278,31,121,08,163,28*60,1759654127000
NMEA,$GAGSV,5,2,16,126,34,185,30,127,23,113,29,129,63,348,44,130,15,062,22*6A,1759654127000
NMEA,$GAGSV,5,3,16,133,56,258,39*6E,1759654127000
NMEA,$GAGSV,5,4,16,112,21,317,19,119,35,278,29,127,23,113,28,129,63,348,38,1*71,1759654127000
NMEA,$GAGSV,5,5,16,133,56,258,35,1*79,1759654127000
NMEA,$BDGSV,5,1,15,205,49,138,34,206,31,043,35,211,24,285,29,213,12,128,27*65,1759654127000
NMEA,$BDGSV,5,2,15,216,23,041,42,221,61,003,49,222,35,083,39,226,34,181,37*6C,1759654127000
NMEA,$BDGSV,5,3,15,234,18,247,37,236,21,046,33*65,1759654127000
NMEA,$BDGSV,5,4,15,221,61,003,39,222,35,083,24,226,34,181,26,234,18,247,38,5*79,1759654127000
NMEA,$BDGSV,5,5,15,236,21,046,22,5*73,1759654127000
NMEA,$GPGSA,A,3,04,07,,,,,,,,,,,1.8,1.0,1.4*3C,1759654127000
NMEA,$GNGSA,A,3,67,68,78,,,,,,,,,,1.8,1.0,1.4*21,1759654127000
NMEA,$GAGSA,A,3,129,,,,,,,,,,,,1.8,1.0,1.4*14,1759654127000
NMEA,$BDGSA,A,3,206,221,222,,,,,,,,,,1.8,1.0,1.4*19,1759654127000
NMEA,$PSSGR,GSA,A,3,06,09,,,,,,,,,,,1.8,1.0,1.4,1,8*47,1759654127000
NMEA,$PSSGR,GSA,A,3,119,133,,,,,,,,,,,1.8,1.0,1.4,3,1*4B,1759654127000
NMEA,$PSSGR,GSA,A,3,234,,,,,,,,,,,,1.8,1.0,1.4,4,5*75,1759654127000
NMEA,$GPRMC,084847.000,A,3205.0293,N,03448.1535,E,1.5,75.8,051025,,,A*51,1759654127000
NMEA,$GPGGA,084848.000,3205.0291,N,03448.1541,E,1,10,1.6,33.7,M,17.1,M,,*66,1759654128000
NMEA,$PSAMSA,084848.000,3205.0291,N,03448.1541,E,0,M,,*65,1759654128000
NMEA,$GPGLL,3205.0291,N,03448.1541,E,084848.000,A,A*55,1759654128000
NMEA,$GPVTG,75.8,T,,M,3.2,N,5.9,K,A*3A,1759654128000
NMEA,$GPGSV,5,1,16,01,19,177,38,03,56,111,29,04,54,027,47,06,35,296,34*7A,1759654128000
NMEA,$GPGSV,5,2,16,07,40,216,41,09,52,311,39,16,24,091,38,26,14,053,30*7B,1759654128000
NMEA,$GPGSV,5,3,16,30,09,219,39*42,1759654128000
NMEA,$GPGSV,5,4,16,01,19,177,26,03,56,111,19,04,54,027,35,06,35,296,32,8*64,1759654128000
NMEA,$GPGSV,5,5,16,09,52,311,35,26,14,053,20,30,09,219,21,8*57,1759654128000
NMEA,$GLGSV,3,1,09,67,15,079,40,68,44,033,38,69,35,323,29,77,07,026,21*64,1759654128000
NMEA,$GLGSV,3,2,09,78,47,073,39,79,38,151,36,83,24,223,34,84,33,286,24*65,1759654128000
NMEA,$GLGSV,3,3,09,85,08,330,23*58,1759654128000
NMEA,$GAGSV,5,1,17,107,28,056,32,112,21,317,17,119,35,278,29,121,08,163,28*6B,1759654128000
NMEA,$GAGSV,5,2,17,126,34,185,29,127,23,113,31,129,63,348,44,130,15,062,23*6B,1759654128000
NMEA,$GAGSV,5,3,17,133,56,258,38*6E,1759654128000
NMEA,$GAGSV,5,4,17,112,21,317,19,119,35,278,28,126,34,185,28,127,23,113,28,1*7E,1759654128000
NMEA,$GAGSV,5,5,17,129,63,348,38,133,56,258,35,1*73,1759654128000
NMEA,$BDGSV,5,1,15,205,49,138,34,206,31,043,36,211,24,285,29,213,12,128,27*66,1759654128000
NMEA,$BDGSV,5,2,15,216,23,041,42,221,61,003,49,222,35,083,40,226,34,181,37*62,1759654128000
NMEA,$BDGSV,5,3,15,234,18,247,37,236,21,046,33*65,1759654128000
NMEA,$BDGSV,5,4,15,221,61,003,38,222,35,083,23,226,34,181,25,234,18,247,38,5*7C,1759654128000
NMEA,$BDGSV,5,5,15,236,21,046,22,5*73,1759654128000
NMEA,$GPGSA,A,3,,,,,,,,,,,,,3.0,1.6,2.4*30,1759654128000
NMEA,$GNGSA,A,3,78,,,,,,,,,,,,3.0,1.6,2.4*21,1759654128000
NMEA,$GAGSA,A,3,129,,,,,,,,,,,,3.0,1.6,2.4*1B,1759654128000
NMEA,$BDGSA,A,3,221,222,,,,,,,,,,,3.0,1.6,2.4*22,1759654128000
NMEA,$PSSGR,GSA,A,3,04,06,09,,,,,,,,,,3.0,1.6,2.4,1,8*4C,1759654128000
NMEA,$PSSGR,GSA,A,3,119,133,,,,,,,,,,,3.0,1.6,2.4,3,1*44,1759654128000
NMEA,$PSSGR,GSA,A,3,234,,,,,,,,,,,,3.0,1.6,2.4,4,5*7A,1759654128000
NMEA,$GPRMC,084848.000,A,3205.0291,N,03448.1541,E,3.2,75.8,051025,,,A*5A,1759654128000
NMEA,$GPGGA,084849.000,3205.0283,N,03448.1552,E,1,14,0.8,32.8,M,17.1,M,,*63,1759654129000
NMEA,$PSAMSA,084849.000,3205.0283,N,03448.1552,E,0,M,,*65,1759654129000
NMEA,$GPGLL,3205.0283,N,03448.1552,E,084849.000,A,A*55,1759654129000
NMEA,$GPVTG,75.8,T,,M,2.4,N,4.4,K,A*31,1759654129000
NMEA,$GPGSV,5,1,16,01,19,177,38,03,56,111,29,04,54,027,47,06,35,296,34*7A,1759654129000
NMEA,$GPGSV,5,2,16,07,40,216,41,09,52,311,39,16,24,091,37,26,14,053,30*74,1759654129000
NMEA,$GPGSV,5,3,16,30,09,219,39*42,1759654129000
NMEA,$GPGSV,5,4,16,01,19,177,26,03,56,111,19,04,54,027,35,06,35,296,32,8*64,1759654129000
NMEA,$GPGSV,5,5,16,09,52,311,35,26,14,053,20,30,09,219,22,8*54,1759654129000
NMEA,$GLGSV,3,1,09,67,15,079,40,68,44,033,37,69,35,323,29,77,07,026,21*6B,1759654129000
NMEA,$GLGSV,3,2,09,78,47,073,38,79,38,151,36,83,24,223,34,84,33,286,24*64,1759654129000
NMEA,$GLGSV,3,3,09,85,08,330,23*58,1759654129000
NMEA,$GAGSV,5,1,17,107,28,056,29,112,21,317,14,119,35,278,29,121,08,163,28*62,1759654129000
NMEA,$GAGSV,5,2,17,126,34,185,30,127,23,113,31,129,63,348,44,130,15,062,23*63,1759654129000
NMEA,$GAGSV,5,3,17,133,56,258,38*6E,1759654129000
NMEA,$GAGSV,5,4,17,112,21,317,18,119,35,278,28,126,34,185,27,127,23,113,28,1*70,1759654129000
NMEA,$GAGSV,5,5,17,129,63,348,38,133,56,258,35,1*73,1759654129000
NMEA,$BDGSV,5,1,15,205,49,138,34,206,31,043,37,211,24,285,29,213,12,128,27*67,1759654129000
NMEA,$BDGSV,5,2,15,216,23,041,42,221,61,003,48,222,35,083,40,226,34,181,37*63,1759654129000
NMEA,$BDGSV,5,3,15,234,18,247,36,236,21,046,33*64,1759654129000
NMEA,$BDGSV,5,4,15,221,61,003,37,222,35,083,23,226,34,181,25,234,18,247,37,5*7C,1759654129000
NMEA,$BDGSV,5,5,15,236,21,046,22,5*73,1759654129000
NMEA,$GPGSA,A,3,07,26,,,,,,,,,,,1.6,0.8,1.4*3B,1759654129000
NMEA,$GNGSA,A,3,78,,,,,,,,,,,,1.6,0.8,1.4*29,1759654129000
NMEA,$GAGSA,A,3,126,129,,,,,,,,,,,1.6,0.8,1.4*26,1759654129000
NMEA,$BDGSA,A,3,206,221,222,,,,,,,,,,1.6,0.8,1.4*1E,1759654129000
NMEA,$PSSGR,GSA,A,3,04,06,09,,,,,,,,,,1.6,0.8,1.4,1,8*44,1759654129000
NMEA,$PSSGR,GSA,A,3,119,133,,,,,,,,,,,1.6,0.8,1.4,3,1*4C,1759654129000
NMEA,$PSSGR,GSA,A,3,234,,,,,,,,,,,,1.6,0.8,1.4,4,5*72,1759654129000
NMEA,$GPRMC,084849.000,A,3205.0283,N,03448.1552,E,2.4,75.8,051025,,,A*5D,1759654129000
NMEA,$GPGGA,084850.000,3205.0276,N,03448.1558,E,1,21,0.6,32.1,M,17.1,M,,*6A,1759654130000
NMEA,$PSAMSA,084850.000,3205.0276,N,03448.1558,E,0,M,,*6D,1759654130000
NMEA,$GPGLL,3205.0276,N,03448.1558,E,084850.000,A,A*5D,1759654130000
NMEA,$GPVTG,75.8,T,,M,2.0,N,3.7,K,A*31,1759654130000
NMEA,$GPGSV,5,1,16,01,19,177,37,03,56,111,29,04,54,027,46,06,35,296,34*74,1759654130000
NMEA,$GPGSV,5,2,16,07,40,216,41,09,52,311,38,16,24,091,37,26,14,053,30*75,1759654130000
NMEA,$GPGSV,5,3,16,30,09,219,39*42,1759654130000
NMEA,$GPGSV,5,4,16,01,19,177,26,03,56,111,19,04,54,027,36,06,35,296,32,8*67,1759654130000
NMEA,$GPGSV,5,5,16,09,52,311,34,26,14,053,20,30,09,219,24,8*53,1759654130000
NMEA,$GLGSV,3,1,09,67,15,079,39,68,44,033,36,69,35,323,29,77,07,026,21*64,1759654130000
NMEA,$GLGSV,3,2,09,78,47,073,37,79,38,151,36,83,24,223,34,84,33,286,24*6B,1759654130000
NMEA,$GLGSV,3,3,09,85,08,330,23*58,1759654130000
NMEA,$GAGSV,5,1,17,107,28,056,26,112,21,317,13,119,35,278,29,121,08,163,27*65,1759654130000
NMEA,$GAGSV,5,2,17,126,34,185,31,127,23,113,31,129,63,349,44,130,15,062,24*64,1759654130000
NMEA,$GAGSV,5,3,17,133,56,258,38*6E,1759654130000
NMEA,$GAGSV,5,4,17,112,21,317,16,119,35,278,28,126,34,185,27,127,23,113,28,1*7E,1759654130000
NMEA,$GAGSV,5,5,17,129,63,349,37,133,56,258,37,1*7F,1759654130000
NMEA,$BDGSV,5,1,15,205,49,138,34,206,31,043,38,211,24,285,29,213,12,128,27*68,1759654130000
NMEA,$BDGSV,5,2,15,216,23,041,41,221,61,003,48,222,35,083,40,226,34,181,37*60,1759654130000
NMEA,$BDGSV,5,3,15,234,18,247,35,236,21,046,33*67,1759654130000
NMEA,$BDGSV,5,4,15,221,61,003,36,222,35,083,23,226,34,181,25,234,18,247,36,5*7C,1759654130000
NMEA,$BDGSV,5,5,15,236,21,046,28,5*79,1759654130000
NMEA,$GPGSA,A,3,03,07,16,26,,,,,,,,,1.2,0.6,1.0*31,1759654130000
NMEA,$GNGSA,A,3,68,77,78,,,,,,,,,,1.2,0.6,1.0*29,1759654130000
NMEA,$GAGSA,A,3,129,,,,,,,,,,,,1.2,0.6,1.0*1D,1759654130000
NMEA,$BDGSA,A,3,206,221,222,226,236,,,,,,,,1.2,0.6,1.0*11,1759654130000
NMEA,$PSSGR,GSA,A,3,01,04,06,09,,,,,,,,,1.2,0.6,1.0,1,8*4B,1759654130000
NMEA,$PSSGR,GSA,A,3,119,126,133,,,,,,,,,,1.2,0.6,1.0,3,1*77,1759654130000
NMEA,$PSSGR,GSA,A,3,234,,,,,,,,,,,,1.2,0.6,1.0,4,5*7C,1759654130000
NMEA,$GPRMC,084850.000,A,3205.0276,N,03448.1558,E,2.0,75.8,051025,,,A*51,1759654130000
NMEA,$GPGGA,084851.000,3205.0280,N,03448.1558,E,1,13,0.8,32.7,M,17.1,M,,*6B,1759654131000
NMEA,$PSAMSA,084851.000,3205.0280,N,03448.1558,E,0,M,,*65,1759654131000
NMEA,$GPGLL,3205.0280,N,03448.1558,E,084851.000,A,A*55,1759654131000
NMEA,$GPVTG,75.8,T,,M,1.1,N,2.1,K,A*34,1759654131000
NMEA,$GPGSV,5,1,16,01,19,177,37,03,56,111,29,04,54,027,46,06,35,296,34*74,1759654131000
NMEA,$GPGSV,5,2,16,07,40,216,41,09,52,311,38,16,24,091,36,26,14,053,30*74,1759654131000
NMEA,$GPGSV,5,3,16,30,09,219,39*42,1759654131000
NMEA,$GPGSV,5,4,16,01,19,177,26,03,56,111,19,04,54,027,40,06,35,296,32,8*66,1759654131000
NMEA,$GPGSV,5,5,16,09,52,311,33,26,14,053,18,30,09,219,25,8*5E,1759654131000
NMEA,$GLGSV,3,1,09,67,15,079,39,68,44,033,35,69,35,323,29,77,07,026,21*67,1759654131000
NMEA,$GLGSV,3,2,09,78,47,073,37,79,38,151,35,83,24,223,34,84,33,286,24*68,1759654131000
NMEA,$GLGSV,3,3,09,85,08,330,23*58,1759654131000
NMEA,$GAGSV,5,1,17,107,28,056,23,112,21,317,23,119,35,278,27,121,00,000,26*60,1759654131000
NMEA,$GAGSV,5,2,17,126,34,185,31,127,23,113,32,129,63,349,44,130,15,062,24*67,1759654131000
NMEA,$GAGSV,5,3,17,133,56,258,38*6E,1759654131000
NMEA,$GAGSV,5,4,17,112,21,317,15,121,08,163,19,126,34,185,28,127,23,113,28,1*7C,1759654131000
NMEA,$GAGSV,5,5,17,129,63,349,37,133,56,258,38,1*70,1759654131000
NMEA,$BDGSV,5,1,15,205,49,138,34,206,31,043,39,211,24,285,29,213,12,128,27*69,1759654131000
NMEA,$BDGSV,5,2,15,216,23,041,40,221,61,003,47,222,35,083,40,226,34,181,37*6E,1759654131000
NMEA,$BDGSV,5,3,15,234,18,247,34,236,21,046,34*61,1759654131000
NMEA,$BDGSV,5,4,15,221,61,003,35,222,35,083,23,226,34,181,26,234,18,247,36,5*7C,1759654131000
NMEA,$BDGSV,5,5,15,236,21,046,27,5*76,1759654131000
NMEA,$GPGSA,A,3,07,26,,,,,,,,,,,1.6,0.8,1.4*3B,1759654131000
NMEA,$GNGSA,A,3,68,78,79,,,,,,,,,,1.6,0.8,1.4*29,1759654131000
NMEA,$GAGSA,A,3,129,,,,,,,,,,,,1.6,0.8,1.4*13,1759654131000
NMEA,$BDGSA,A,3,206,221,226,236,,,,,,,,,1.6,0.8,1.4*2D,1759654131000
NMEA,$PSSGR,GSA,A,3,04,,,,,,,,,,,,1.6,0.8,1.4,1,8*4B,1759654131000
NMEA,$PSSGR,GSA,A,3,234,,,,,,,,,,,,1.6,0.8,1.4,4,5*72,1759654131000
NMEA,$GPRMC,084851.000,A,3205.0280,N,03448.1558,E,1.1,75.8,051025,,,A*5B,1759654131000
NMEA,$GPGGA,084852.000,3205.0278,N,03448.1558,E,1,13,0.8,33.0,M,17.1,M,,*69,1759654132000
NMEA,$PSAMSA,084852.000,3205.0278,N,03448.1558,E,0,M,,*61,1759654132000
NMEA,$GPGLL,3205.0278,N,03448.1558,E,084852.000,A,A*51,1759654132000
NMEA,$GPVTG,75.8,T,,M,0.6,N,1.1,K,A*31,1759654132000
NMEA,$GPGSV,5,1,15,01,19,177,37,03,56,111,29,04,54,027,46,06,35,296,34*77,1759654132000
NMEA,$GPGSV,5,2,15,07,40,216,41,09,52,311,38,16,24,091,36,26,14,053,30*77,1759654132000
NMEA,$GPGSV,5,3,15,30,09,219,39*41,1759654132000
NMEA,$GPGSV,5,4,15,01,19,177,25,04,54,027,40,06,35,296,32,09,52,311,32,8*63,1759654132000
NMEA,$GPGSV,5,5,15,26,14,053,15,30,09,219,26,8*6E,1759654132000
NMEA,$GLGSV,3,1,09,67,15,079,39,68,44,033,36,69,35,323,29,77,07,026,22*67,1759654132000
NMEA,$GLGSV,3,2,09,78,47,073,36,79,38,151,35,83,24,223,34,84,33,286,24*69,1759654132000
NMEA,$GLGSV,3,3,09,85,08,330,23*58,1759654132000
NMEA,$GAGSV,5,1,18,107,28,056,20,112,21,317,23,119,35,278,25,121,00,000,24*6C,1759654132000
NMEA,$GAGSV,5,2,18,126,34,185,31,127,23,113,32,129,63,349,44,130,15,062,24*68,1759654132000
NMEA,$GAGSV,5,3,18,133,56,258,38*61,1759654132000
NMEA,$GAGSV,5,4,18,112,21,317,15,121,08,163,19,126,34,185,28,127,23,113,27,1*7C,1759654132000
NMEA,$GAGSV,5,5,18,129,63,349,36,133,56,258,38,1*7E,1759654132000
NMEA,$BDGSV,5,1,15,205,49,138,34,206,31,043,40,211,24,285,29,213,12,128,28*68,1759654132000
NMEA,$BDGSV,5,2,15,216,23,041,38,221,61,003,46,222,35,083,39,226,34,181,37*6E,1759654132000
NMEA,$BDGSV,5,3,15,234,18,247,34,236,21,046,34*61,1759654132000
NMEA,$BDGSV,5,4,15,221,61,003,34,222,35,083,23,226,34,181,26,234,18,247,36,5*7D,1759654132000
NMEA,$BDGSV,5,5,15,236,21,046,27,5*76,1759654132000
NMEA,$GPGSA,A,3,07,26,,,,,,,,,,,1.8,0.8,1.6*37,1759654132000
NMEA,$GNGSA,A,3,68,78,79,,,,,,,,,,1.8,0.8,1.6*25,1759654132000
NMEA,$GAGSA,A,3,129,,,,,,,,,,,,1.8,0.8,1.6*1F,1759654132000
NMEA,$BDGSA,A,3,206,221,236,,,,,,,,,,1.8,0.8,1.6*17,1759654132000
NMEA,$PSSGR,GSA,A,3,04,06,09,,,,,,,,,,1.8,0.8,1.6,1,8*48,1759654132000
NMEA,$GPRMC,084852.000,A,3205.0278,N,03448.1558,E,0.6,75.8,051025,,,A*59,1759654132000
NMEA,$GPGGA,084853.000,3205.0278,N,03448.1555,E,1,10,1.0,32.1,M,17.1,M,,*6F,1759654133000
NMEA,$PSAMSA,084853.000,3205.0278,N,03448.1555,E,0,M,,*6D,1759654133000
NMEA,$GPGLL,3205.0278,N,03448.1555,E,084853.000,A,A*5D,1759654133000
NMEA,$GPVTG,75.8,T,,M,1.4,N,2.5,K,A*35,1759654133000
NMEA,$GPGSV,5,1,15,01,19,177,37,03,56,111,29,04,54,027,46,06,35,296,34*77,1759654133000
NMEA,$GPGSV,5,2,15,07,40,216,41,09,52,311,38,16,24,091,35,26,14,053,30*74,1759654133000
NMEA,$GPGSV,5,3,15,30,09,219,39*41,1759654133000
NMEA,$GPGSV,5,4,15,01,19,177,25,04,54,027,40,06,35,296,32,09,52,311,31,8*60,1759654133000
NMEA,$GPGSV,5,5,15,30,09,219,26,8*5D,1759654133000
NMEA,$GLGSV,3,1,09,67,15,079,39,68,44,033,36,69,35,323,30,77,07,026,22*6F,1759654133000
NMEA,$GLGSV,3,2,09,78,47,073,35,79,38,151,35,83,24,223,33,84,33,286,24*6D,1759654133000
NMEA,$GLGSV,3,3,09,85,08,330,23*58,1759654133000
NMEA,$GAGSV,5,1,19,107,28,056,17,112,21,317,23,119,35,278,25,121,00,000,23*6E,1759654133000
NMEA,$GAGSV,5,2,19,126,34,185,31,127,23,113,32,129,63,349,44,130,15,062,24*69,1759654133000
NMEA,$GAGSV,5,3,19,133,56,258,39*61,1759654133000
NMEA,$GAGSV,5,4,19,112,21,317,15,121,08,163,19,126,34,185,28,127,23,113,27,1*7D,1759654133000
NMEA,$GAGSV,5,5,19,129,63,349,36,130,15,062,19,133,56,258,38,1*75,1759654133000
NMEA,$BDGSV,5,1,15,205,49,138,34,206,31,043,40,211,24,285,29,213,12,128,28*68,1759654133000
NMEA,$BDGSV,5,2,15,216,23,041,37,221,61,003,46,222,35,083,37,226,34,181,36*6E,1759654133000
NMEA,$BDGSV,5,3,15,234,18,247,33,236,21,046,34*66,1759654133000
NMEA,$BDGSV,5,4,15,221,61,003,33,222,35,083,23,226,34,181,26,234,18,247,35,5*79,1759654133000
NMEA,$BDGSV,5,5,15,236,21,046,29,5*78,1759654133000
NMEA,$GPGSA,A,3,,,,,,,,,,,,,2.6,1.0,2.4*31,1759654133000
NMEA,$GNGSA,A,3,68,,,,,,,,,,,,2.6,1.0,2.4*21,1759654133000
NMEA,$GAGSA,A,3,119,126,129,,,,,,,,,,2.6,1.0,2.4*16,1759654133000
NMEA,$BDGSA,A,3,206,221,,,,,,,,,,,2.6,1.0,2.4*25,1759654133000
NMEA,$PSSGR,GSA,A,3,04,06,09,,,,,,,,,,2.6,1.0,2.4,1,8*4D,1759654133000
NMEA,$GPRMC,084853.000,A,3205.0278,N,03448.1555,E,1.4,75.8,051025,,,A*56,1759654133000
NMEA,$GPGGA,084854.000,3205.0283,N,03448.1552,E,1,09,1.2,30.8,M,17.1,M,,*6A,1759654134000
NMEA,$PSAMSA,084854.000,3205.0283,N,03448.1552,E,0,M,,*69,1759654134000
NMEA,$GPGLL,3205.0283,N,03448.1552,E,084854.000,A,A*59,1759654134000
NMEA,$GPVTG,75.8,T,,M,0.8,N,1.5,K,A*3B,1759654134000
NMEA,$GPGSV,5,1,16,01,19,177,36,03,56,111,29,04,54,027,46,06,35,296,34*75,1759654134000
NMEA,$GPGSV,5,2,16,07,40,216,40,09,52,311,37,16,24,091,35,26,14,053,30*79,1759654134000
NMEA,$GPGSV,5,3,16,30,09,219,39*42,1759654134000
NMEA,$GPGSV,5,4,16,01,19,177,25,04,54,027,40,06,35,296,32,09,52,311,31,8*63,1759654134000
NMEA,$GPGSV,5,5,16,26,14,053,28,30,09,219,25,8*60,1759654134000
NMEA,$GLGSV,3,1,09,67,15,079,39,68,44,033,37,69,35,323,30,77,07,026,22*6E,1759654134000
NMEA,$GLGSV,3,2,09,78,47,073,35,79,38,151,34,83,24,223,33,84,33,286,24*6C,1759654134000
NMEA,$GLGSV,3,3,09,85,08,330,23*58,1759654134000
NMEA,$GAGSV,5,1,16,107,28,056,14,112,21,317,23,119,35,278,25,121,08,163,23*6E,1759654134000
NMEA,$GAGSV,5,2,16,126,34,185,31,127,23,113,32,129,63,349,44,130,15,062,24*66,1759654134000
NMEA,$GAGSV,5,3,16,133,56,258,39*6E,1759654134000
NMEA,$GAGSV,5,4,16,126,34,185,26,127,23,113,27,129,63,349,35,130,15,062,19,1*77,1759654134000
NMEA,$GAGSV,5,5,16,133,56,258,37,1*7B,1759654134000
NMEA,$BDGSV,5,1,15,205,49,138,34,206,31,043,40,213,12,128,28,216,23,041,37*6D,1759654134000
NMEA,$BDGSV,5,2,15,221,61,003,45,222,35,083,36,226,34,181,36,234,18,247,32*65,1759654134000
NMEA,$BDGSV,5,3,15,236,21,046,34*6B,1759654134000
NMEA,$BDGSV,5,4,15,211,24,285,27,221,61,003,33,222,35,083,22,226,34,181,26,5*7D,1759654134000
NMEA,$BDGSV,5,5,15,234,18,247,34,236,21,046,29,5*72,1759654134000
NMEA,$GPGSA,A,3,07,,,,,,,,,,,,3.0,1.2,2.6*31,1759654134000
NMEA,$GNGSA,A,3,68,,,,,,,,,,,,3.0,1.2,2.6*26,1759654134000
NMEA,$GAGSA,A,3,119,126,129,,,,,,,,,,3.0,1.2,2.6*11,1759654134000
NMEA,$BDGSA,A,3,206,221,,,,,,,,,,,3.0,1.2,2.6*22,1759654134000
NMEA,$PSSGR,GSA,A,3,04,,,,,,,,,,,,3.0,1.2,2.6,1,8*45,1759654134000
NMEA,$GPRMC,084854.000,A,3205.0283,N,03448.1552,E,0.8,75.8,051025,,,A*5F,1759654134000
NMEA,$GPGGA,084855.000,3205.0286,N,03448.1549,E,1,15,0.6,30.1,M,17.1,M,,*65,1759654135000
NMEA,$PSAMSA,084855.000,3205.0286,N,03448.1549,E,0,M,,*67,1759654135000
NMEA,$GPGLL,3205.0286,N,03448.1549,E,084855.000,A,A*57,1759654135000
NMEA,$GPVTG,75.8,T,,M,1.4,N,2.5,K,A*35,1759654135000
NMEA,$GPGSV,5,1,16,01,19,177,36,03,56,111,29,04,54,027,46,06,35,296,34*75,1759654135000
NMEA,$GPGSV,5,2,16,07,40,216,39,09,52,311,37,16,24,091,35,26,14,053,30*77,1759654135000
NMEA,$GPGSV,5,3,16,30,09,219,39*42,1759654135000
NMEA,$GPGSV,5,4,16,01,19,177,25,04,54,027,39,06,35,296,31,09,52,311,31,8*6E,1759654135000
NMEA,$GPGSV,5,5,16,26,14,053,27,30,09,219,25,8*6F,1759654135000
NMEA,$GLGSV,3,1,09,67,15,079,39,68,44,033,38,69,35,323,30,77,07,026,22*61,1759654135000
NMEA,$GLGSV,3,2,09,78,47,073,35,79,38,151,34,83,24,223,33,84,33,286,24*6C,1759654135000
NMEA,$GLGSV,3,3,09,85,08,330,23*58,1759654135000
NMEA,$GAGSV,6,1,18,107,28,056,12,112,21,317,23,119,35,278,25,121,08,163,23*65,1759654135000
NMEA,$GAGSV,6,2,18,126,34,185,32,127,23,113,32,129,63,349,44,130,15,062,24*68,1759654135000
NMEA,$GAGSV,6,3,18,133,56,258,39*63,1759654135000
NMEA,$GAGSV,6,4,18*63,1759654135000
NMEA,$GAGSV,6,5,18,126,34,185,25,127,23,113,26,129,63,349,35,130,15,062,20,1*73,1759654135000
NMEA,$GAGSV,6,6,18,133,56,258,37,1*75,1759654135000
NMEA,$BDGSV,5,1,15,205,49,138,34,206,31,043,40,211,24,285,24,213,12,128,28*65,1759654135000
NMEA,$BDGSV,5,2,15,216,23,041,36,221,61,003,45,222,35,083,35,226,34,181,36*6E,1759654135000
NMEA,$BDGSV,5,3,15,234,18,247,32,236,21,046,34*67,1759654135000
NMEA,$BDGSV,5,4,15,221,61,003,33,222,35,083,22,226,34,181,26,234,18,247,34,5*79,1759654135000
NMEA,$BDGSV,5,5,15,236,21,046,28,5*79,1759654135000
NMEA,$GPGSA,A,3,03,07,16,,,,,,,,,,1.4,0.6,1.2*31,1759654135000
NMEA,$GNGSA,A,3,68,77,78,79,,,,,,,,,1.4,0.6,1.2*23,1759654135000
NMEA,$GAGSA,A,3,119,126,129,,,,,,,,,,1.4,0.6,1.2*15,1759654135000
NMEA,$BDGSA,A,3,206,221,236,,,,,,,,,,1.4,0.6,1.2*11,1759654135000
NMEA,$PSSGR,GSA,A,3,04,,,,,,,,,,,,1.4,0.6,1.2,1,8*41,1759654135000
NMEA,$GPRMC,084855.000,A,3205.0286,N,03448.1549,E,1.4,75.8,051025,,,A*5C,1759654135000
NMEA,$GPGGA,084856.000,3205.0287,N,03448.1548,E,1,16,0.6,29.9,M,17.1,M,,*65,1759654136000
NMEA,$PSAMSA,084856.000,3205.0287,N,03448.1548,E,0,M,,*64,1759654136000
NMEA,$GPGLL,3205.0287,N,03448.1548,E,084856.000,A,A*54,1759654136000
NMEA,$GPVTG,75.8,T,,M,1.2,N,2.2,K,A*34,1759654136000
NMEA,$GPGSV,5,1,15,01,19,177,36,03,56,111,29,04,54,027,46,06,35,296,35*77,1759654136000
NMEA,$GPGSV,5,2,15,07,40,216,39,09,52,311,36,16,24,091,35,26,14,053,30*75,1759654136000
NMEA,$GPGSV,5,3,15,30,09,219,38*40,1759654136000
NMEA,$GPGSV,5,4,15,01,19,177,24,04,54,027,39,06,35,296,31,09,52,311,30,8*6D,1759654136000
NMEA,$GPGSV,5,5,15,26,14,053,27,8*5B,1759654136000
NMEA,$GLGSV,3,1,09,67,15,079,38,68,44,033,38,69,35,323,30,77,07,026,22*60,1759654136000
NMEA,$GLGSV,3,2,09,78,47,073,34,79,38,151,34,83,24,223,33,84,33,286,24*6D,1759654136000
NMEA,$GLGSV,3,3,09,85,08,330,23*58,1759654136000
NMEA,$GAGSV,5,1,17,107,00,000,16,112,21,317,23,119,35,278,25,121,08,163,23*64,1759654136000
NMEA,$GAGSV,5,2,17,126,34,185,32,127,23,113,32,129,63,349,44,130,15,062,24*64,1759654136000
NMEA,$GAGSV,5,3,17,133,56,258,40*61,1759654136000
NMEA,$GAGSV,5,4,17,112,21,317,24,126,34,185,24,127,23,113,26,129,63,349,35,1*7D,1759654136000
NMEA,$GAGSV,5,5,17,130,15,062,20,133,56,258,37,1*7A,1759654136000
NMEA,$BDGSV,5,1,15,205,49,138,33,206,31,043,40,213,12,128,28,216,23,041,35*68,1759654136000
NMEA,$BDGSV,5,2,15,221,61,003,44,222,35,083,39,226,34,181,36,234,18,247,31*68,1759654136000
NMEA,$BDGSV,5,3,15,236,21,046,34*6B,1759654136000
NMEA,$BDGSV,5,4,15,211,24,285,21,221,61,003,32,222,35,083,22,226,34,181,26,5*7A,1759654136000
NMEA,$BDGSV,5,5,15,234,18,247,33,236,21,046,28,5*74,1759654136000
NMEA,$GPGSA,A,3,03,07,16,,,,,,,,,,1.6,0.6,1.4*35,1759654136000
NMEA,$GNGSA,A,3,68,78,79,,,,,,,,,,1.6,0.6,1.4*27,1759654136000
NMEA,$GAGSA,A,3,126,129,,,,,,,,,,,1.6,0.6,1.4*28,1759654136000
NMEA,$BDGSA,A,3,206,221,,,,,,,,,,,1.6,0.6,1.4*22,1759654136000
NMEA,$PSSGR,GSA,A,3,04,06,09,,,,,,,,,,1.6,0.6,1.4,1,8*4A,1759654136000
NMEA,$PSSGR,GSA,A,3,234,236,,,,,,,,,,,1.6,0.6,1.4,4,5*4B,1759654136000
NMEA,$GPRMC,084856.000,A,3205.0287,N,03448.1548,E,1.2,75.8,051025,,,A*59,1759654136000
NMEA,$GPGGA,084857.000,3205.0296,N,03448.1542,E,1,13,0.6,30.1,M,17.1,M,,*6B,1759654137000
NMEA,$PSAMSA,084857.000,3205.0296,N,03448.1542,E,0,M,,*6F,1759654137000
NMEA,$GPGLL,3205.0296,N,03448.1542,E,084857.000,A,A*5F,1759654137000
NMEA,$GPVTG,75.8,T,,M,1.2,N,2.2,K,A*34,1759654137000
NMEA,$GPGSV,5,1,16,01,19,177,36,03,56,111,29,04,54,027,47,06,35,296,35*75,1759654137000
NMEA,$GPGSV,5,2,16,07,40,216,38,09,52,311,35,16,24,091,34,26,14,053,30*75,1759654137000
NMEA,$GPGSV,5,3,16*78,1759654137000
NMEA,$GPGSV,5,4,16,01,19,177,30,04,54,027,39,06,35,296,31,09,52,311,30,8*6B,1759654137000
NMEA,$GPGSV,5,5,16,26,14,053,28,8*57,1759654137000
NMEA,$GLGSV,3,1,09,67,15,079,38,68,44,033,38,69,35,323,30,77,07,026,22*60,1759654137000
NMEA,$GLGSV,3,2,09,78,47,073,36,79,38,151,34,83,24,223,33,84,33,286,24*6F,1759654137000
NMEA,$GLGSV,3,3,09,85,08,330,23*58,1759654137000
NMEA,$GAGSV,5,1,17,107,28,056,14,112,21,317,24,119,35,278,26,121,08,163,23*6B,1759654137000
NMEA,$GAGSV,5,2,17,126,34,185,32,127,23,113,32,129,63,349,44,130,15,062,24*64,1759654137000
NMEA,$GAGSV,5,3,17,133,56,258,41*60,1759654137000
NMEA,$GAGSV,5,4,17,112,21,317,24,126,34,185,29,127,23,113,25,129,63,349,35,1*73,1759654137000
NMEA,$GAGSV,5,5,17,130,15,062,20,133,56,258,37,1*7A,1759654137000
NMEA,$BDGSV,5,1,15,205,49,138,33,206,31,043,40,211,24,285,18,213,12,128,30*64,1759654137000
NMEA,$BDGSV,5,2,15,216,23,041,34,221,61,003,44,222,35,083,39,226,34,181,37*60,1759654137000
NMEA,$BDGSV,5,3,15,234,18,247,31,236,21,046,33*63,1759654137000
NMEA,$BDGSV,5,4,15,221,61,003,32,222,35,083,21,226,34,181,26,234,18,247,33,5*7C,1759654137000
NMEA,$BDGSV,5,5,15,236,21,046,28,5*79,1759654137000
NMEA,$GPGSA,A,3,03,07,,,,,,,,,,,1.2,0.6,1.0*32,1759654137000
NMEA,$GNGSA,A,3,68,77,78,,,,,,,,,,1.2,0.6,1.0*29,1759654137000
NMEA,$GAGSA,A,3,119,129,,,,,,,,,,,1.2,0.6,1.0*24,1759654137000
NMEA,$BDGSA,A,3,213,221,,,,,,,,,,,1.2,0.6,1.0*26,1759654137000
NMEA,$PSSGR,GSA,A,3,01,04,,,,,,,,,,,1.2,0.6,1.0,1,8*44,1759654137000
NMEA,$PSSGR,GSA,A,3,234,,,,,,,,,,,,1.2,0.6,1.0,4,5*7C,1759654137000
NMEA,$GPRMC,084857.000,A,3205.0296,N,03448.1542,E,1.2,75.8,051025,,,A*52,1759654137000
NMEA,$GPGGA,084858.000,3205.0297,N,03448.1537,E,1,13,0.8,30.6,M,17.1,M,,*6E,1759654138000
NMEA,$PSAMSA,084858.000,3205.0297,N,03448.1537,E,0,M,,*63,1759654138000
NMEA,$GPGLL,3205.0297,N,03448.1537,E,084858.000,A,A*53,1759654138000
NMEA,$GPVTG,75.8,T,,M,1.3,N,2.3,K,A*34,1759654138000
NMEA,$GPGSV,5,1,16,01,19,177,36,03,56,111,29,04,54,027,47,06,35,296,36*76,1759654138000
NMEA,$GPGSV,5,2,16,07,40,216,38,09,52,311,34,16,24,091,34,26,14,053,30*74,1759654138000
NMEA,$GPGSV,5,3,16,30,09,219,35*4E,1759654138000
NMEA,$GPGSV,5,4,16,01,19,177,30,04,54,027,39,06,35,296,34,09,52,311,29,8*66,1759654138000
NMEA,$GPGSV,5,5,16,26,14,053,28,8*57,1759654138000
NMEA,$GLGSV,3,1,09,67,15,079,38,68,44,033,38,69,35,323,30,77,07,026,22*60,1759654138000
NMEA,$GLGSV,3,2,09,78,47,073,43,79,38,151,34,83,24,223,32,84,33,286,24*6C,1759654138000
NMEA,$GLGSV,3,3,09,85,08,330,23*58,1759654138000
NMEA,$GAGSV,5,1,17,107,28,056,13,112,21,317,25,119,35,278,26,121,08,163,23*6D,1759654138000
NMEA,$GAGSV,5,2,17,126,34,185,32,127,23,113,32,129,63,349,44,130,15,062,24*64,1759654138000
NMEA,$GAGSV,5,3,17,133,56,258,41*60,1759654138000
NMEA,$GAGSV,5,4,17,112,21,317,27,126,34,185,28,127,23,113,25,129,63,349,35,1*71,1759654138000
NMEA,$GAGSV,5,5,17,130,15,062,20,133,56,258,37,1*7A,1759654138000
NMEA,$BDGSV,5,1,14,205,49,138,33,206,31,043,39,213,12,128,39,216,23,041,34*66,1759654138000
NMEA,$BDGSV,5,2,14,221,61,003,44,222,35,083,39,226,34,181,37,234,18,247,31*68,1759654138000
NMEA,$BDGSV,5,3,14,236,21,046,32*6C,1759654138000
NMEA,$BDGSV,5,4,14,211,24,285,15,221,61,003,33,222,35,083,21,226,34,181,26,5*7E,1759654138000
NMEA,$BDGSV,5,5,14,236,21,046,28,5*78,1759654138000
NMEA,$GPGSA,A,3,03,07,,,,,,,,,,,2.0,0.8,1.8*35,1759654138000
NMEA,$GNGSA,A,3,68,78,,,,,,,,,,,2.0,0.8,1.8*2E,1759654138000
NMEA,$GAGSA,A,3,119,129,,,,,,,,,,,2.0,0.8,1.8*23,1759654138000
NMEA,$BDGSA,A,3,206,213,221,,,,,,,,,,2.0,0.8,1.8*15,1759654138000
NMEA,$PSSGR,GSA,A,3,01,04,09,,,,,,,,,,2.0,0.8,1.8,1,8*4A,1759654138000
NMEA,$GPRMC,084858.000,A,3205.0297,N,03448.1537,E,1.3,75.8,051025,,,A*5F,1759654138000
NMEA,$GPGGA,084859.000,3205.0300,N,03448.1535,E,1,17,0.6,32.5,M,17.1,M,,*69,1759654139000
NMEA,$PSAMSA,084859.000,3205.0300,N,03448.1535,E,0,M,,*6F,1759654139000
NMEA,$GPGLL,3205.0300,N,03448.1535,E,084859.000,A,A*5F,1759654139000
NMEA,$GPVTG,15.5,T,,M,0.9,N,1.6,K,A*32,1759654139000
NMEA,$GPGSV,5,1,15,01,19,177,36,03,56,111,29,04,54,027,47,06,35,296,42*76,1759654139000
NMEA,$GPGSV,5,2,15,07,40,216,37,09,52,311,34,16,24,091,34,26,14,053,30*78,1759654139000
NMEA,$GPGSV,5,3,15,30,09,219,33*4B,1759654139000
NMEA,$GPGSV,5,4,15,01,19,177,29,04,54,027,38,06,35,296,35,09,52,311,29,8*6D,1759654139000
NMEA,$GPGSV,5,5,15,26,14,053,27,8*5B,1759654139000
NMEA,$GLGSV,3,1,09,67,15,079,37,68,44,033,38,69,35,323,30,77,07,026,22*6F,1759654139000
NMEA,$GLGSV,3,2,09,78,47,073,43,79,38,151,34,83,24,223,32,84,33,286,25*6D,1759654139000
NMEA,$GLGSV,3,3,09,85,08,330,23*58,1759654139000
NMEA,$GAGSV,5,1,15,112,21,317,25,119,35,278,26,121,08,163,23,126,34,185,32*6D,1759654139000
NMEA,$GAGSV,5,2,15,127,23,113,32,129,63,349,44,130,15,062,24,133,56,258,41*61,1759654139000
NMEA,$GAGSV,5,3,15*6A,1759654139000
NMEA,$GAGSV,5,4,15,112,21,317,26,126,34,185,29,127,23,113,24,129,63,349,35,1*72,1759654139000
NMEA,$GAGSV,5,5,15,133,56,258,37,1*78,1759654139000
NMEA,$BDGSV,5,1,15,205,49,138,33,206,31,043,38,213,12,128,39,216,23,041,33*61,1759654139000
NMEA,$BDGSV,5,2,15,221,61,003,43,222,35,083,38,226,34,181,37,234,18,247,31*6F,1759654139000
NMEA,$BDGSV,5,3,15,236,21,046,31*6E,1759654139000
NMEA,$BDGSV,5,4,15,211,24,285,13,221,61,003,34,222,35,083,27,226,34,181,26,5*78,1759654139000
NMEA,$BDGSV,5,5,15,236,21,046,27,5*76,1759654139000
NMEA,$GPGSA,A,3,01,03,07,,,,,,,,,,1.8,0.6,1.6*3F,1759654139000
