     4.01           OBSERVATION DATA    M                   RINEX VERSION / TYPE
GnssLogger          samsung 15          20251005 084850 UTC PGM / RUN BY / DATE
Google GnssLogger                                           MARKER NAME
Unknown                                                     MARKER NUMBER
Unknown             Unknown                                 OBSERVER / AGENCY
Unknown             GnssLogger          v3.1.1.1            REC # / TYPE / VERS
Unknown             Unknown                                 ANT # / TYPE
        0.0000        0.0000        0.0000                  ANTENNA: DELTA H/E/N
G    8 C1C L1C D1C S1C C5Q L5Q D5Q S5Q                      SYS / # / OBS TYPES
R    4 C1C L1C D1C S1C                                      SYS / # / OBS TYPES
C    8 C2I L2I D2I S2I C5P L5P D5P S5P                      SYS / # / OBS TYPES
E    8 C1C L1C D1C S1C C5Q L5Q D5Q S5Q                      SYS / # / OBS TYPES
  2025    10    05    08    48   50.0000000     GPS         TIME OF FIRST OBS
 9 R03  5 R04  6 R05  1 R13 -2 R14 -7 R15  0 R19  3 R20  2  GLONASS SLOT / FRQ #
   R21  4                                                   GLONASS SLOT / FRQ #
samsung SM-S711B (Android 15) HW Year: 2021 HW Model:       COMMENT
S.LSI,K040,SPOTNAV_4.6.2_7_E23                              COMMENT
                                                            END OF HEADER
> 2025 10 05 08 48 50.0000000  0 31                      
G04  21133153.72207    -27739.18707     -1765.16707        45.70007  21133163.31526    -28394.72326     -1318.67326        35.60026
G07  22213456.44427    -48771.66727      1540.93827        42.50027                                                                
G01  23619255.23026    -11136.48926     -4372.64826        35.80026  23619135.61325   2073647.30525     -3263.83525        32.70025
G06  22636797.27115    -40345.41415       208.84015        33.60015  22636806.56506   2052537.41506       156.48206        39.20006
G09  20967746.23125    -39939.76925       155.63625        33.10025  20967763.32024    -37429.14324       105.84624        28.10024
G03  20811734.83624   -218758.31324     -2381.27524        27.30024                                                                
G16  22908045.59025    -80063.95725       440.95725        30.80025                                                                
G30  24797073.54324   -168096.32324      2522.48824        26.10024                                                                
G26  24050232.37125   -347440.41425     -2272.08425        30.80025                                                                
C21  22444014.83207    -37072.73107      -251.61807        47.00007  22444021.72706   2054645.03706      -189.66106        40.70006
R03  23033685.31107 123303524.47507     -2806.91707        46.20007
R14  20443145.70527 108975863.55427     -1026.35827        45.00027
E29  23804185.20507    -51121.60107     -1091.72407        43.70007  23804183.70706   2029075.28406      -815.20506        41.20006
E33  24074992.52927   -183650.98027     -1467.26327        43.10027  24074990.13106   -144951.55806     -1096.25506        37.90006
C16  39751029.83506    -27662.25106     -1631.47906        41.30006                                                                
R04  20544695.00426 110018312.68126     -1241.61226        41.20026
R15  21023630.84306 112346307.39406      2621.07006        38.00006
R19  22120941.39116 118334521.87616     -4376.37416        37.70016
C22  23632546.22927    -24368.47827     -2241.83127        42.00027  23632537.23525   2056629.80225     -1691.01925        32.40025
C26  23946290.12806    -52012.79406      2193.41806        35.80006  23946214.58104   2036309.30304      1652.61804        27.60004
E19  24734129.71806    -50901.66606       392.41406        36.60006  24734133.61625   2037103.98525       292.16525        30.20025
C34  24962171.94826    -20246.64426     -2787.81226        35.70026  24962166.25226   2059092.67726     -2103.63726        35.80026
R05  21237539.05805 113529217.45205       763.16505        33.10005
C06  38354684.40525    -28109.60125     -1551.95725        34.70025                                                                
C13  40161394.44525    -38589.52025     -1521.36125        30.20025                                                                
C36  24852035.99325    -29224.51625     -3015.18125        29.80025  24851943.95724   2044954.62324     -2270.99424        26.50024
E26  25442363.91824    -25822.10324     -3604.16424        27.60024                                                                
E27  26664848.60924   -196638.38324      1204.65524        27.60024  26664792.24824   -218483.05824       897.77124        26.40024
E21  28149320.73124    -68865.82924      1763.23224        24.50024  28149130.06324   2016838.35124      1315.38024        24.90024
R21  23842587.12023 127588901.66323      1553.01923        21.70023
E07  26120277.70825    -32727.09125     -2511.47125        32.20025  26120303.79025   2042594.94525     -1874.68325        32.20025
> 2025 10 05 08 48 51.0000005  0 33                      
G04  21133472.40107    -25976.79807     -1758.54807        46.30007  21133487.39126    -27076.39226     -1316.44526        35.60026
G07  22213158.15117    -50312.56717      1543.76017        42.20017                                                                
G01  23620079.35916     -6766.30716     -4366.47916        35.70016  23619952.54715   2076910.70215     -3261.07915        31.90015
G09  20967718.05125    -40096.56825       159.92825        33.10025  20967722.84824    -37543.78724       119.25524        27.70024
G06  22636771.18925    -40557.57125       215.81625        33.50025  22636747.20606   2052378.52506       161.69306        38.70006
G16  22907971.84125    -80506.94525       446.80025        30.80025                                                                
G26  24050751.31125   -345169.29325     -2268.41025        30.60025                                                                
G03  20812180.32724   -216379.52424     -2375.62224        28.30024                                                                
G30  24796596.57324   -170623.46324      2530.44624        26.60024                                                                
C21  22444052.60607    -36823.79607      -245.17407        47.40007  22444054.70406   2054832.70706      -184.87206        40.30006
R03  23034186.26507 123306286.43207     -2800.71107        46.10007
E29  23804376.47307    -50032.65507     -1085.08807        44.40007  23804374.97406   2029888.60106      -810.53206        40.00006
C16  39751331.12606    -26033.66606     -1624.66606        41.20006                                                                
R04  20544880.87516 110019389.18916     -1230.43616        41.00016
R15  21023097.21306 112343535.72706      2627.36506        38.30006
C22  23632958.74326    -22126.74026     -2238.98626        41.30026  23632953.94625   2058321.60325     -1690.37525        31.50025
R14  20443346.26617 108977012.19417     -1025.25317        44.10017
C11  24443964.19626   -645263.46726     -1927.95526        36.50026                                                                
R19  22121765.82006 118339012.45406     -4364.55606        37.60006
C26  23945848.23406    -54208.60506      2199.42706        36.40006  23945769.98805   2034654.36605      1657.83405        30.50005
E19  24734028.08906    -51297.33306       399.70506        36.50006  24734039.78125   2036810.24625       295.97025        30.10025
C34  24962689.69016    -17460.38716     -2782.84916        35.70016  24962685.79226   2061192.26126     -2096.05226        36.60026
R05  21237350.48825 113528289.66925       772.71425        33.20025
C06  38354969.20725    -26559.83925     -1546.26425        34.40025                                                                
E33  24075268.93827   -182183.52527     -1465.13227        42.30027  24075251.55006   -143857.67706     -1090.96906        37.30006
C13  40161700.83325    -37072.04325     -1512.90925        30.40025                                                                
C36  24852623.88625    -26212.07925     -3009.15925        29.70025  24852507.56724   2047226.46024     -2270.37124        25.90024
E26  25443038.15124    -22217.55124     -3600.83224        27.60024                                                                
E27  26664541.02224   -197843.15424      1206.84624        27.50024  26664547.91824   -219384.43024       904.51224        26.00024
R13  23937594.34824 127827895.26324     -4366.51424        24.00024
E21  28148980.76624    -70630.38124      1766.53024        24.50024  28148775.70824   2015522.52024      1317.92324        24.80024
R21  23842254.05123 127587199.57223      1562.55823        21.70023
E07                                                                  26120767.86925   2044469.60125     -1872.54525        31.40025
> 2025 10 05 08 48 52.0000010  0 33                      
G04  21133808.46907    -24222.20107     -1750.70007        46.40007  21133826.45626    -25765.61026     -1307.00726        35.50026
G07  22212882.04207    -51860.64407      1551.66507        42.00007                                                                
G01  23621004.51926     -2407.41626     -4353.24526        35.50026  23620782.97205   2080168.18405     -3254.52305        31.00005
G06  22636755.00115    -40777.37715       223.63015        33.50015  22636706.73416   2052214.25316       166.96316        37.50016
G09  20967656.59325    -40262.72525       170.83725        33.10025  20967696.46624    -37667.74824       128.61924        27.20024
G16  22907913.08225    -80957.26525       453.98625        30.70025                                                                
G26  24051133.84725   -342905.70825     -2259.81725        30.30025                                                                
G03  20812651.00224   -214010.63024     -2363.94624        28.70024                                                                
G30  24796122.00224   -173159.79724      2540.92924        26.60024                                                                
C21  22444101.77208    -36582.51808      -237.44908        47.90008  22444106.56806   2055014.45306      -178.78306        40.10006
R03  23034724.39207 123309148.72907     -2792.44507        46.00007
E29  23804589.02607    -48951.41107     -1077.39307        44.80007  23804587.22706   2030695.91906      -804.31706        39.70006
C16  39751654.60207    -24412.87807     -1616.88907        41.90007                                                                
R04  20545103.02106 110020559.94706     -1221.88406        40.80006
R15  21022592.66206 112340822.94206      2634.59506        38.60006
C22  23633380.85126    -19891.98726     -2231.26026        40.80026  23633385.34825   2060004.63325     -1678.64225        30.60025
R14  20443559.41807 108978130.32707     -1015.59307        43.10007
C26  23945466.59806    -56412.20406      2207.49306        36.80006  23945352.67705   2032993.71305      1663.51005        30.40005
R19  22122587.55116 118343389.75916     -4355.53816        37.40016
E19  24733955.23926    -51700.20626       406.47626        36.30026  24733964.53325   2036509.29125       304.56425        29.90025
C34  24963209.23016    -14682.04416     -2774.38516        35.60016  24963222.42126   2063283.25726     -2086.70226        37.20026
C06  38355211.14015    -25019.28015     -1535.95715        34.20015                                                                
R05  21237271.34325 113527849.10925       786.75025        33.10025
C13  40161973.34425    -35564.67925     -1502.30725        30.50025                                                                
C11  24444344.93226   -643329.86426     -1933.60226        35.60026                                                                
C36  24853177.00425    -23209.27425     -2997.98825        29.60025  24853088.56524   2049490.24024     -2259.75124        25.20024
E26  25443701.29224    -18619.61224     -3594.63024        27.50024                                                                
E27  26664340.16124   -199058.10124      1220.03624        27.40024  26664312.28124   -220293.81924       913.39624        25.60024
E21  28148666.58424    -72402.39324      1775.74224        24.40024  28148437.24224   2014199.38224      1326.79224        24.60024
R21  23841802.26423 127584765.51223      1581.29123        21.90023
R13  23938426.57224 127832322.19424     -4356.38124        23.70024
E33  24075526.76026   -180726.73326     -1451.45926        40.90026  24075533.95506   -142769.10506     -1085.91706        37.00006
E07                                                                  26121249.03625   2046337.69425     -1864.81125        31.30025
> 2025 10 05 08 48 53.0000015  0 32                      
G04  21134143.03707    -22473.53507     -1745.70007        46.40007  21134160.72525    -24460.75325     -1301.89325        35.40025
G07  22212596.34007    -53414.58907      1556.87807        41.90007                                                                
G01  23621824.75125      1947.89925     -4353.52425        35.30025  23621616.69515   2083421.11715     -3250.65715        30.30015
G09  20967615.22225    -40435.25925       175.72225        33.10025  20967676.67924    -37750.44524        62.06524        26.70024
G16  22907770.38125    -81412.63125       457.88925        30.70025                                                                
G26  24051531.97125   -340648.75725     -2253.63225        30.20025                                                                
G03  20813131.56924   -211645.93324     -2362.59724        28.70024                                                                
G30  24795634.83924   -175706.75924      2552.27524        26.60024                                                                
G06  22636728.61905    -41003.01005       228.54605        33.50005  22636665.66206   2052045.77606       170.57906        36.60006
C21  22444150.03808    -36347.20908      -232.32508        48.50008  22444155.73406   2055191.69406      -174.99006        39.90006
R03  23035237.93707 123311880.81807     -2786.79507        45.90007
E29  23804796.78207    -47876.33607     -1071.99107        45.20007  23804795.58306   2031498.70406      -800.51906        39.50006
C16  39751962.48907    -22798.13807     -1611.71407        42.30007                                                                
R04  20545354.24706 110021888.54306     -1216.84106        40.50006
R15  21022099.50306 112338169.03106      2639.82606        38.60006
C22  23633822.44516    -17664.68916     -2223.56816        40.40016  23633818.24825   2061683.32825     -1676.52725        29.90025
C26  23945045.99006    -58621.69506      2212.43606        37.50006  23944933.26805   2031328.88505      1666.91505        30.00005
R14  20443732.09907 108979034.14107     -1012.14307        42.30007
R19  22123422.77306 118347840.54206     -4352.53806        37.10006
C34  24963753.05306    -11909.91206     -2769.02606        35.60006  24963757.85016   2065372.06116     -2087.70616        36.90016
E19  24733894.98116    -52110.22916       412.84816        36.10016  24733890.18425   2036204.64125       306.49725        29.70025
E26  25444264.60225   -891782.51425     -3590.83825        32.20025                                                                
C06  38355500.73905    -23484.79905     -1531.44105        34.10005                                                                
R05  21237093.56625 113526881.56025       780.24025        33.10025
E33  24075806.16626   -179278.75626     -1443.57026        39.50026  24075813.96106   -141684.87706     -1082.05606        36.70006
C11  24444702.28525   -641397.30925     -1932.03025        34.70025                                                                
C36  24853792.77725    -20210.75225     -2996.37925        29.50025  24853665.96524   2051748.88924     -2256.08124        24.60024
E27  26664172.57724   -200279.92924      1225.26724        27.30024  26664090.13524   -221206.24224       913.94124        25.20024
E21  28148323.62124    -74182.58924      1784.28624        24.40024  28148016.93324   2012869.61224      1333.08524        23.70024
R21  23841515.96223 127583215.79923      1583.64823        23.00023
R13  23939214.12723 127836509.21423     -4336.85223        23.40023
E07                                                                  26121727.20525   2048201.74825     -1862.03425        31.00025
> 2025 10 05 08 48 54.0000020  0 33                      
G04  21134477.90507    -20729.84407     -1741.20107        46.30007  21134488.69815    -23158.80915     -1300.48615        35.10015
G07  22212292.35007    -54973.65407      1561.62507        41.80007                                                                
G01  23622610.20715      6299.23415     -4349.34215        35.10015  23622448.31915   2086670.12415     -3247.04415        29.80015
G06  22636703.43605    -41231.84205       230.43205        33.80005  22636629.98706   2051874.41006       172.81006        36.40006
G09  20967647.60025    -40614.41825       182.47225        33.00025  20967670.68424    -37803.86724        38.78424        26.20024
G16  22907710.72225    -81871.58825       460.75225        30.60025                                                                
G26  24051968.46925   -338397.58025     -2248.29025        30.10025                                                                
G30  24795142.88024   -178256.04724      2550.45024        26.80024                                                                
G03  20813571.36424   -209284.61424     -2359.62824        28.80024                                                                
C21  22444198.60508    -36116.73108      -228.06208        48.70008  22444203.40106   2055365.29606      -171.78206        39.80006
E29  23804980.85507    -46806.24607     -1067.59707        45.50007  23805004.53806   2032297.81506      -797.27306        39.20006
R03  23035763.47307 123314674.18207     -2783.66307        45.80007
C16  39752279.66907    -21188.65507     -1606.85407        42.40007                                                                
R14  20443910.77507 108979966.93907     -1008.66907        41.80007
C26  23944636.17306    -60836.20306      2217.01506        38.00006  23944513.25805   2029659.96105      1670.97105        29.70005
R04  20545568.29906 110023015.62906     -1212.00706        40.20006
R15  21021656.41006 112335782.72706      2644.02006        38.60006
C22  23634260.44226    -15440.99626     -2221.89026        40.00026  23634247.25114   2063358.09714     -1672.80614        29.20014
E19  24733807.14206    -52524.63506       416.84806        36.00006  24733818.23425   2035896.17825       310.37025        29.70025
R19  22124186.34506 118351905.56606     -4348.68906        36.80006
C34  24964255.50626     -9141.98626     -2765.82126        35.50026  24964293.27906   2067457.89906     -2084.35506        36.60006
E07  26122238.05125  -1028102.10725     -2488.98625        33.20025  26122199.07825   2050061.36225     -1857.39225        30.00025
C06  38355803.83005    -21955.80805     -1526.24505        34.10005                                                                
E33  24076072.38216   -177832.55616     -1446.06016        38.40016  24076092.76806   -140604.02506     -1079.16306        36.50006
C11  24445063.83425   -639471.36225     -1922.64225        34.00025                                                                
R05  21236994.03525 113526330.09525       787.20925        32.70025
C36  24854338.10024    -17212.67824     -2997.84924        29.30024  24854244.86424   2054004.62124     -2254.27324        24.10024
E27  26664002.89524   -201507.92624      1231.08224        27.20024  26663860.79324   -222118.11824       911.60224        24.90024
E21  28148011.53724    -75968.35224      1788.54524        24.20024  28147676.96923   2011535.19123      1336.74523        23.00023
C13  40162554.04224    -32580.25824     -1490.90724        26.70024                                                                
R21  23841259.93923 127581826.11423      1582.10923        23.10023
R13  23939974.40123 127840551.06423     -4347.78023        23.20023
E26  25444998.79425   -888197.70325     -3584.80925        32.00025                                                                
> 2025 10 05 08 48 55.0000025  0 34                      
G04  21134816.07107    -18991.94707     -1734.99907        46.20007  21134825.96406    -21861.00106     -1295.74106        37.80006
G07  22212014.14307    -56537.46207      1566.17807        41.80007                                                                
G01  23623381.87305     10643.98505     -4341.45705        35.00005  23623274.54724   2089913.04424     -3239.87324        29.00024
G06  22636661.76525    -41466.26925       237.22325        33.80025  22636590.11516   2051698.67316       177.92316        36.10016
G09  20967620.31915    -40797.32115       184.77515        33.00015                                                                
G16  22907614.18925    -82336.79625       468.33525        30.60025                                                                
G26  24052374.98725   -336153.80025     -2240.07925        29.90025                                                                
G30  24794637.72924   -180809.00124      2554.78524        26.90024                                                                
G03  20813983.87924   -206927.24524     -2355.39324        28.80024                                                                
C21  22444248.37008    -35892.10708      -221.69608        48.90008  22444247.17107   2055534.62307      -167.19007        41.60007
E29  23805182.91507    -45742.02107     -1061.29107        45.40007  23805211.69506   2033092.62306      -792.65706        39.00006
R03  23036273.12007 123317385.59107     -2776.24107        45.70007
C16  39752590.85407    -19584.89407     -1600.90007        42.60007                                                                
E33  24076373.37406   -176390.58606     -1439.60506        38.10006  24076370.97506   -139527.06306     -1075.01606        36.40006
R14  20444099.34507 108980954.65107     -1002.55907        41.50007
R15  21021187.23506 112333258.79606      2650.42406        38.50006
R04  20545811.43106 110024299.78406     -1205.69006        39.90006
C26  23944196.37806    -63056.34506      2222.95806        38.30006  23944074.96204   2027986.94104      1675.06804        29.00004
C22  23634676.55416    -13223.12316     -2214.96116        39.60016  23634675.35504   2065028.51104     -1668.23504        28.40004
C34  24964829.00915     -6380.94715     -2757.59415        35.40015  24964827.21006   2069539.54106     -2079.54206        36.40006
E07  26122779.17625  -1025618.34925     -2481.44325        33.50025  26122677.84624   2051916.76924     -1853.30324        29.30024
E19  24733736.69006    -52944.51406       422.61506        35.90006  24733742.98625   2035582.43725       316.38025        29.90025
R19  22124998.18206 118356231.58906     -4340.37006        36.50006
C06  38356096.42715    -20432.38115     -1520.64515        34.30015                                                                
E26  25445694.31225   -884615.56425     -3580.80225        31.90025                                                                
C36  24854910.10425    -14224.20625     -2983.66925        29.80025  24854822.56424   2056256.23424     -2249.55324        23.70024
C11  24445424.48525   -637549.73025     -1919.47425        33.20025                                                                
R05  21236873.21925 113525665.43025       789.97425        32.20025
E12  26687880.16524  -1096858.24224      1198.92924        24.30024                                                                
E27  26663747.17224   -202738.85224      1232.38924        27.10024  26663629.05424   -223038.30524       924.34224        24.60024
C13  40162846.94024    -31090.49324     -1489.76424        26.10024                                                                
R21  23841025.80123 127580555.10523      1584.04023        23.10023
R13  23940807.52423 127844981.81823     -4347.25423        23.00023
E21                                                                  28147336.40423   2010189.08423      1351.95123        19.50023
> 2025 10 05 08 48 56.0000030  0 33                      
G04  21135135.05007    -17256.57707     -1734.10607        46.10007  21135141.04606    -20565.10206     -1294.94306        37.40006
G07  22211712.85107    -58104.05007      1567.97707        41.70007                                                                
G01  23624165.83005     14986.47605     -4341.36005        35.10005  23624086.38524   2093151.98824     -3236.95624        28.40024
G06  22636615.89725    -41704.59925       240.28225        33.70025  22636532.25506   2051521.42006       178.01106        35.70006
G09  20967557.66225    -40983.51925       187.84525        33.10025  20967549.86725   -861824.66125       137.97725        29.60025
G03  20814382.30324   -204571.49424     -2354.94224        28.80024                                                                
G30  24794127.78324   -183365.70024      2558.57124        26.90024                                                                
G16  22907483.77925    -82804.56625       469.04925        30.60025                                                                
C21  22444278.94908    -35670.20108      -220.54808        49.40008  22444277.15006   2055701.92406      -166.28706        41.30006
C16  39752881.65307    -17983.54207     -1600.14607        42.90007                                                                
R14  20444273.22406 108981961.42906     -1001.51106        41.40006
E33  24076629.99606   -174950.91606     -1438.52006        40.90006  24076630.29606   -138451.97706     -1074.14806        36.30006
C22  23635090.86706    -11008.82106     -2212.51506        39.40006  23635083.97214   2066697.35614     -1668.06014        27.80014
R04  20546015.58906 110025472.84006     -1205.16806        39.60006
C26  23943747.28906    -65278.72606      2223.49906        38.20006  23943633.06804   2026311.98604      1675.92004        28.20004
R15  21020623.32526 112330324.28226      2652.61126        38.40026
E07  26123246.55316  -1023136.99616     -2481.35116        36.30016  26123136.52914   2053769.79014     -1851.82514        29.20014
C34  24965353.04606     -3621.51806     -2758.62306        36.00006  24965342.55306   2071619.06406     -2078.46406        36.30006
R03  23036754.58707 123320041.85007     -2774.61107        44.10007
E19  24733640.15706    -53367.24106       424.15206        35.80006  24733648.25225   2035266.00925       317.77025        30.00025
R19  22125787.53606 118360533.88306     -4340.83406        36.30006
E29  23805362.49007    -44680.49407     -1060.17807        44.50007  23805396.36706   2033885.32306      -791.64406        38.80006
C06  38356370.73725    -18911.69525     -1519.31325        34.30025                                                                
C36  24855449.73025    -11239.41525     -2982.94925        31.30025  24855378.97914   2058506.38914     -2249.42414        25.40014
E21  28146983.84924  -1145918.78824      1803.95024        29.10024  28146977.85323   2008839.09923      1351.92323        19.40023
C11  24445783.63625   -635630.69425     -1917.73625        32.50025                                                                
R05  21236671.15825 113524665.75225       801.71825        31.70025
C13  40163120.95024    -29601.06624     -1489.25724        25.90024                                                                
R21  23840762.58423 127579226.66623      1589.19123        23.10023
E12  26687612.75024  -1098060.14524      1201.90224        24.10024  26687636.43424   -826941.45324       896.15224        23.80024
R13  23941586.38523 127849221.55423     -4345.57523        22.70023
E26  25446387.73225   -881037.03025     -3576.73125        31.80025                                                                
E27                                                                  26663379.32724   -223963.61424       927.87024        24.30024
> 2025 10 05 08 48 57.0000035  0 35                      
G04  21135466.32107    -15524.83507     -1729.92807        46.10007  21135474.41606    -19272.01806     -1291.67606        37.10006
G07  22211408.26207    -59673.88807      1571.46207        42.00007                                                                
G01  23625004.94906     19324.98706     -4336.51806        39.30006  23624921.30724   2096386.66224     -3232.53624        28.10024
G06  22636578.12325    -41940.92925       235.33025        33.60025  22636492.38225   2051342.49125       179.76725        35.40025
G16  22907418.12425    -83273.21625       469.09025        30.90025                                                                
G03  20814819.40024   -202218.01724     -2352.33824        28.70024  20814892.25023   -910355.60723     -1768.11523        22.90023
G30  24793671.19924   -185924.23524      2559.45124        27.10024                                                                
G26  24053231.19524   -331685.16924     -2235.45424        25.80024                                                                
G09  20967518.08925    -41171.33625       188.62625        33.10025  20967523.78525   -861963.07625       138.41525        30.50025
C21  22444321.81908    -35451.76908      -216.69608        49.80008  22444321.81907   2055866.44007      -163.12407        41.70007
C16  39753192.83707    -16386.08207     -1595.51407        43.00007                                                                
R14  20444479.18206 108983042.19506      -998.45706        41.30006
E33  24076915.39806   -173514.34506     -1435.02006        40.80006  24076906.40506   -137379.20606     -1071.61406        36.30006
C22  23635520.76906     -8798.17606     -2208.81506        39.30006  23635513.27504   2068363.01204     -1664.06104        27.10004
R15  21020138.26116 112327715.48016      2653.92616        38.30016
R04  20546254.52406 110026734.01206     -1200.67506        39.30006
C26  23943324.58106    -67504.97206      2228.17706        38.10006  23943209.16104   2024634.38104      1678.93104        27.80004
C34  24965894.77106      -865.41006     -2754.44606        36.80006  24965874.98406   2073696.06806     -2075.74206        36.20006
E07  26123700.73806  -1020659.63606     -2475.36206        37.10006  26123609.90104   2055619.74304     -1848.42004        29.00004
R03  23037259.13707 123322724.92007     -2770.67207        43.00007
E29  23805601.12507    -43622.77607     -1055.81307        43.10007  23805597.82806   2034675.22706      -788.50606        38.60006
E19  24733561.61206    -53793.46206       427.96706        35.70006  24733570.90515   2034947.55415       319.46915        30.10015
R19  22126630.25326 118365023.70126     -4336.12426        36.10026
C06  38356655.54025    -17393.35225     -1517.17225        34.20025                                                                
C36  24856016.63825     -8255.50425     -2983.47025        32.10025  24855955.78004   2060753.76204     -2245.98104        24.90004
E27  26663140.09225  -1241666.55525      1240.73625        30.00025  26663146.38824   -224886.12424       921.11024        24.00024
E26  25447116.82825   -877462.91025     -3571.91125        31.70025                                                                
E21  28146683.75625  -1147722.53125      1803.74325        30.30025                                                                
C11  24446153.58025   -633716.62025     -1911.59325        31.90025                                                                
R05  21236508.67125 113523780.04425       795.52025        31.00025
C13  40163424.04024    -28111.32624     -1489.89524        25.90024                                                                
R21  23840351.26823 127577007.76023      1594.90723        23.00023
R13  23942369.74223 127853387.18123     -4345.59123        22.40023
E30  27366005.30922   -851594.00922      -712.52822        15.90022                                                                
E12                                                                  26687408.89124   -827849.42524       907.97124        24.30024
> 2025 10 05 08 48 58.0000040  0 33                      
G04  21135793.99407    -13794.52607     -1729.59107        46.10007  21135806.28606    -17979.63206     -1292.03606        36.60006
G01  23625860.85706     23662.05306     -4336.34206        39.80006  23625745.13724   2099625.08524     -3240.29624        28.40024
G09  20967495.60515    -41361.27115       190.99515        33.10015  20967490.80825   -862104.76025       143.31825        30.00025
G06  22636476.19415    -42182.75715       244.57815        33.50015  22636444.41625   2051162.01725       181.24625        34.50025
G16  22907355.46825    -83745.55425       474.18225        31.20025                                                                
G26  24053657.79924   -329443.25724     -2241.91124        27.80024  24053748.03724   -908779.05224     -1663.38624        24.40024
G03  20815274.78524   -199869.26924     -2346.38224        28.60024                                                                
G30  24793191.53124   -188484.51124      2561.14524        27.50024                                                                
G07  22211116.86417    -61243.02317      1568.78317        42.00017                                                                
C21  22444361.39208    -35234.27608      -217.02208        49.80008  22444364.09007   2056030.41407      -163.70307        41.50007
C16  39753498.62607    -14790.59707     -1594.49607        43.00007                                                                
R14  20444657.25806 108983971.94606     -1001.45706        41.30006
E29  23805802.88607    -42565.69807     -1056.75807        42.50007  23805806.48306   2035464.30606      -788.66706        38.40006
E33  24077173.81916   -172078.12216     -1435.29916        40.50016  24077181.31406   -136306.82606     -1072.18306        35.90006
C22  23635945.57506     -6586.75506     -2211.80806        39.20006  23635941.67814   2070027.87214     -1664.46114        26.50014
R15  21019681.97706 112325258.07406      2653.71706        38.30006
C26  23942894.97906    -69732.36106      2227.95906        38.10006  23942802.94204   2022955.79304      1679.07804        27.60004
R04  20546486.26406 110027956.87306     -1200.32306        39.10006
R03  23037823.94607 123325729.68207     -2773.24007        42.10007
C34  24966423.60506      1890.31106     -2755.52706        37.10006  24966408.01506   2075772.14406     -2075.61206        36.10006
E19  24733483.96506    -54221.27206       428.60406        35.70006  24733492.06025   2034627.42125       320.97325        30.10025
R19  22127446.58726 118369371.92326     -4334.53626        35.80026
C06  38356941.24225    -15878.43425     -1513.20525        34.10025                                                                
C36  24856621.31925     -5273.51725     -2981.02325        32.90025  24856530.18214   2063000.10914     -2245.83314        24.70014
E26  25447758.38325   -873886.67625     -3577.28825        31.70025                                                                
E27  26662873.57725  -1242907.46425      1240.90925        29.90025  26662916.14724   -225809.84424       924.32424        23.80024
E21  28146402.55125  -1149524.48325      1801.05425        30.10025                                                                
C11  24446480.95325   -631801.02325     -1916.35825        31.30025                                                                
R05  21236375.86325 113523051.13125       794.23625        30.40025
C13  40163744.81824    -26623.20524     -1487.31224        25.80024                                                                
R21  23840088.05023 127575580.55723      1592.35923        22.90023
R13  23943228.04823 127857950.11623     -4344.64323        22.20023
E30  27366132.72122   -850887.42422      -706.58422        15.80022                                                                
> 2025 10 05 08 48 59.0000044  0 34                      
G04  21136134.85807    -12067.70907     -1725.06907        46.10007  21136142.35306    -16690.33506     -1287.75306        36.00006
G07  22210823.66707    -62816.06807      1575.00007        41.90007                                                                
G01  23626671.49606     27995.32606     -4331.37406        39.80006  23626575.86215   2102861.53015     -3235.45615        30.60015
G09  20967466.52505    -41553.26705       193.02505        33.50005  20967462.62824   -862252.24224       150.38024        29.10024
G06  22636445.31505    -42426.16805       244.20105        33.40005  22636412.33825   2050980.44425       182.12225        34.30025
G16  22907282.61825    -84221.08425       477.12625        31.60025                                                                
G26  24054084.10424   -327203.15724     -2239.19424        28.80024                                                                
G03  20815752.05524   -197519.04324     -2350.96524        28.60024                                                                
G30  24792713.06224   -191044.93924      2560.50424        27.80024                                                                
C21  22444414.15508    -35020.26608      -212.26908        49.80008  22444415.95406   2056191.75006      -160.01806        41.10006
E29  23806013.04007    -41512.48807     -1051.27507        43.00007  23806018.13706   2036250.99206      -785.48806        38.40006
C16  39753817.90507    -13198.86107     -1589.86107        43.00007                                                                
R14  20444858.41907 108984990.93207      -997.20007        41.60007
R03  23038371.96726 123328611.13026     -2767.14926        41.40026
E33  24077472.11306   -170644.81406     -1432.09906        40.20006  24077465.81706   -135236.69206     -1069.01006        35.90006
C22  23636384.77106     -4378.36206     -2206.87806        39.00006  23636374.57804   2071689.75104     -1660.38804        26.00004
R15  21019229.89006 112322789.19706      2657.56806        38.20006
R04  20546700.61506 110029051.01406     -1195.27306        38.90006
C26  23942482.76406    -71963.40106      2232.86606        38.00006  23942378.43604   2021274.41004      1682.78104        27.50004
C34  24966948.54106      4642.50406     -2750.42806        37.10006  24966946.14306   2077846.15706     -2072.98006        39.10006
E19  24733404.82026    -54651.11926       431.61526        35.60026  24733418.61125   2034304.85925       323.77525        30.50025
R19  22128319.88326 118373990.32826     -4335.87026        35.60026
C06  38357260.22125    -14367.49425     -1508.95125        34.10025                                                                
C36  24857227.79925     -2297.48325     -2973.05625        32.90025  24857112.67924   2065243.95624     -2242.59724        24.30024
E26  25448451.80325   -870315.17025     -3569.14125        31.70025                                                                
E21  28145996.03225  -1151333.32725      1812.29025        29.90025                                                                
C11  24446858.69225   -629891.27425     -1906.82425        30.80025                                                                
R05  21236256.24625 113522358.93225       807.13825        30.00025
C13  40164063.19824    -25138.70524     -1482.68924        25.70024                                                                
R20  21527405.68723 115119112.26623     -1270.32023        21.50023
R21  23839819.73623 127574091.33523      1590.70523        22.90023
R13  23944010.50623 127862075.24923     -4344.74823        21.90023
E12  26686961.60123  -1339197.69023      1214.13523        20.00023                                                                
E27  26662587.87525  -1244150.96425      1244.79525        29.80025  26662687.40624   -226739.16024       932.11324        23.50024
> 2025 10 05 08 49 00.0000049  0 35                      
G04  21136468.22807    -10339.79807     -1728.45807        46.40007  21136475.72206    -15399.97206     -1290.89406        35.80006
G07  22210516.37907    -64389.38507      1573.45207        41.80007                                                                
G01  23627519.60906     32329.46206     -4334.56606        39.80006  23627417.08024   2106100.04624     -3239.54924        29.40024
G06  22636386.85505    -42669.29205       242.98105        33.40005  22636368.56825   2050797.96025       182.94025        33.80025
G09  20967420.05725    -41746.29725       193.54825        33.50025  20967431.44924   -862404.29124       154.33324        29.00024
G16  22907209.46925    -84696.16225       474.85225        31.80025                                                                
G26  24054540.08824   -324962.01924     -2241.65524        29.10024                                                                
G30  24792248.68324   -193607.29824      2563.32324        28.00024                                                                
G03  20816228.42524   -195172.81824     -2344.22324        28.50024                                                                
C21  22444457.62508    -34804.88508      -216.06508        49.70008  22444461.22306   2056354.14206      -162.91906        40.80006
E29  23806220.49617    -40457.82517     -1055.38917        43.70017  23806220.79606   2037038.45606      -787.85406        39.00006
C16  39754133.28607    -11606.41707     -1592.79807        42.90007                                                                
R14  20445052.98407 108986011.45007     -1001.13807        41.60007
R03  23038948.76816 123331680.23216     -2770.30316        41.00016
R04  20546943.74706 110030335.94106     -1198.70706        38.70006
R15  21018751.72106 112320216.34106      2656.58306        38.10006
C22  23636817.07206     -2169.30406     -2209.39106        38.80006  23636801.48314   2073352.51014     -1663.19914        25.40014
E33  24077747.92206   -169210.65106     -1435.34006        39.80006  24077741.62606   -134165.57006     -1071.61706        35.70006
C26  23942034.27506    -74193.23006      2229.22206        37.90006  23941959.02704   2019593.79604      1680.22804        27.30004
C34  24967466.58316      7394.76216     -2752.28916        37.00016  24967478.27406   2079920.82906     -2075.00006        40.10006
E07  26125038.71225  -1546751.79225     -2479.33425        34.10025  26125047.40624  -1184691.12024     -1847.70024        29.40024
R19  22129095.14615 118378118.88215     -4334.77815        35.30015
C06  38357579.50015    -12854.72815     -1513.67815        34.00015                                                                
E19  24733326.27525  -1586944.17325       425.93825        34.80025  24733342.16425   2033983.13425       321.30625        30.50025
E26  25449097.55625   -866745.21025     -3569.18525        31.90025                                                                
C11  24447210.34825   -627981.36725     -1909.98525        30.40025                                                                
R05  21236136.92825 113521702.68325       797.06325        29.70025
E27  26662336.94825  -1245393.94525      1242.72125        29.50025  26662456.86523   -227673.58123       936.97323        23.20023
E21  28145674.65525  -1153148.22125      1817.91925        29.60025                                                                
C13  40164347.40124    -23656.92524     -1480.42024        25.70024                                                                
R21  23839535.83323 127572555.40723      1592.40723        23.20023
R20  21527615.24223 115120214.82023     -1269.22623        23.30023
E12  26686714.57223  -1340413.42723      1215.73723        21.60023                                                                
R13  23944860.71823 127866597.68823     -4338.65823        21.80023
C36                                                                  24857687.98124   2067489.19624     -2245.93424        23.90024
> 2025 10 05 08 49 01.0000053  0 35                      
G04  21136772.21707     -8611.83807     -1727.98307        46.60007  21136778.81306    -14109.53606     -1290.47306        35.70006
G07  22210191.10507    -65960.28307      1569.68807        41.70007                                                                
G01  23628304.16526     36664.46526     -4335.43526        39.70026  23628184.54824   2109346.79924     -3250.86924        28.50024
G06  22636311.90715    -42911.88815       242.33115        33.80015  22636301.41525   2050617.19825       179.90125        33.60025
G09  20967349.30625    -41936.61425       188.96025        33.50025  20967365.49524   -862553.02224       147.07124        28.90024
G16  22907077.86025    -85170.17825       473.48525        31.90025                                                                
G30  24791732.74124   -196168.03724      2559.92924        28.30024                                                                
G03  20816634.64424   -192825.20124     -2348.31224        28.50024                                                                
G26  24054988.57824   -322720.15924     -2242.22124        29.20024                                                                
C21  22444471.71608    -34589.55608      -215.30308        49.60008  22444476.81206   2056516.53906      -162.40006        40.60006
E29  23806376.68807    -39402.29207     -1055.21807        43.70007  23806394.67606   2037825.94006      -787.49306        38.80006
C16  39754396.80407    -10014.24707     -1592.03307        42.80007                                                                
R14  20445225.06517 108987068.57117     -1001.98517        41.60017
R03  23039474.60426 123334636.74026     -2767.08626        40.60026
R04  20547128.41906 110031466.09206     -1198.26706        38.60006
C22  23637200.20706        41.53906     -2211.73406        38.70006  23637197.50924   2075014.83924     -1662.11324        24.90024
R15  21018223.18706 112317533.37906      2650.81806        38.10006
E33  24077959.87526   -167775.06226     -1436.05126        39.50026  24077988.35605   -133093.97005     -1071.83705        35.40005
C26  23941564.80016    -76423.22616      2230.07816        37.80016  23941501.54314   2017913.20014      1680.58614        26.70014
C34  24967974.73106     10147.82106     -2753.45906        36.90006  24967980.12706   2081995.42906     -2074.56406        39.70006
E07  26125477.00925  -1544274.09225     -2477.70025        34.70025  26125489.00024  -1182843.66324     -1847.45624        29.20024
R19  22129843.12825 118382261.21125     -4338.82125        35.10025
C06  38357818.13515    -11342.43915     -1512.05115        33.90015                                                                
E26  25449750.20515   -863171.80215     -3575.13115        31.90015                                                                
E19  24733223.74525  -1587371.37225       427.19925        34.10025  24733230.34125   2033661.12125       322.15825        29.90025
C36  24858316.64524      3651.68524     -2977.43924        28.70024  24858232.40424   2069730.97924     -2240.05424        23.60024
R05  21235937.26724 113520776.43724       795.24724        29.40024
C11  24447568.90025   -626069.16425     -1913.35025        30.00025                                                                
E27  26662036.85624  -1246634.95224      1240.01824        29.20024                                                                
E21  28145282.22724  -1154959.32024      1809.20124        29.30024  28145339.48724  -1151639.38824      1352.81624        24.90024
C13  40164599.22724    -22174.47224     -1482.78924        25.60024                                                                
R21  23839200.36523 127570901.56523      1589.54223        23.30023
R20  21527883.55623 115121790.99123     -1275.86523        23.20023
E12  26686465.14523  -1341629.42723      1216.13123        21.70023                                                                
R13  23945585.01623 127870606.68323     -4336.82723        21.60023
> 2025 10 05 08 49 02.0000058  0 34                      
G04  21137103.78807     -6886.19207     -1724.48807        46.60007  21137110.68306    -12820.91706     -1287.70906        35.50006
G07  22209887.11507    -67533.50307      1574.38007        41.60007                                                                
G01  23629157.37526     40995.84426     -4329.56426        39.50026  23629033.86024   2112588.05324     -3238.50324        28.10024
G16  22906993.31915    -85645.68015       476.24515        33.50015                                                                
G06  22636281.02905    -43154.93205       243.26805        34.10005  22636254.94725   2050433.43625       185.26225        33.20025
G30  24791248.87624   -198729.30524      2561.53124        28.60024  24791285.75023   -874743.68623      1916.05623        19.50023
G03  20817092.72724   -190480.43024     -2343.34724        28.50024                                                                
G09  20967316.62925    -42130.07125       195.02725        33.70025  20967331.61824   -862701.95124       149.02924        28.80024
G26  24055407.98824   -320482.07524     -2236.19424        29.20024                                                                
C21  22444516.08508    -34376.35608      -212.13608        49.40008  22444521.78116   2056676.97416      -159.45416        40.40016
E29  23806585.94307    -38350.07107     -1050.81307        43.70007  23806599.13406   2038611.66106      -784.83906        38.70006
C16  39754701.09317     -8424.59417     -1588.39217        42.70017                                                                
R14  20445403.44217 108988002.13317      -999.92417        41.50017
R03  23039928.19016 123337046.37116     -2769.53516        40.30016
R04  20547359.55906 110032685.88906     -1194.83006        38.50006
C22  23637625.61226      2248.40326     -2204.87326        38.60026  23637624.11324   2076676.35324     -1661.10624        24.40024
E33  24078293.24416   -166340.42216     -1433.41516        39.20016  24078263.86505   -132023.57705     -1069.78905        35.40005
R15  21017686.25906 112314646.26906      2659.62806        38.00006
C34  24968501.76606     12899.51506     -2751.01006        36.90006  24968512.25906   2084069.06306     -2073.15006        39.30006
C26  23941155.28326    -78653.57826      2230.52926        37.60026  23941061.74824   2016231.30824      1682.54024        26.10024
E07  26125955.77725  -1541799.44125     -2473.12425        35.10025  26125959.07524  -1180996.71524     -1846.69324        29.00024
C06  38358116.42925     -9833.69925     -1506.96425        33.80025                                                                
R19  22130700.83525 118386832.16125     -4334.95025        34.80025
C36  24858855.97225      6628.81025     -2977.12325        30.60025  24858807.40623   2071968.45923     -2235.32723        23.20023
E26  25450370.47525   -859601.49225     -3568.75925        31.90025                                                                
E19  24733164.38725  -1587799.74825       428.96425        33.40025  24733154.79325   2033338.68925       322.64125        29.90025
R05  21235748.39724 113519749.99224       801.82224        29.20024
C11  24447893.87525   -624157.95725     -1910.70925        29.60025                                                                
E21  28144944.06124  -1156773.58624      1815.84824        28.90024                                                                
C13  40164875.33524    -20691.96324     -1482.53624        25.60024                                                                
R21  23838985.71423 127569734.68923      1589.73623        23.40023
R20  21528133.28323 115123107.78123     -1281.54723        23.20023
E12  26686219.31523  -1342843.60923      1213.27223        21.80023                                                                
R13  23946430.73123 127875106.20223     -4340.49723        21.40023
> 2025 10 05 08 49 03.0000063  0 35                      
G04  21137433.25907     -5164.85507     -1719.18107        46.60007  21137441.95315    -11535.70215     -1283.51315        35.30015
G07  22209599.91407    -69109.40907      1577.24907        41.50007                                                                
G16  22906904.28006    -86125.18906       481.51106        38.10006                                                                
G01  23629996.19416     45323.20316     -4325.34716        39.30016  23629874.47824   2115828.49924     -3240.04124        27.70024
G09  20967299.84025    -42326.28525       197.59225        33.90025  20967299.24124   -862844.97724       140.07524        29.40024
G06  22636249.25115    -43399.52315       245.36415        34.10015  22636213.57525   2050249.61025       183.85825        32.90025
G30  24790769.50724   -201294.31424      2566.87924        29.00024  24790791.69223   -876653.76423      1910.07723        19.60023
G26  24055811.20824   -318245.97824     -2235.10224        29.20024                                                                
G03  20817533.72124   -188136.83724     -2343.00324        28.60024                                                                
C21  22444560.75408    -34167.17108      -207.17708        49.20008  22444568.24906   2056835.65906      -157.80906        40.10006
E29  23806793.40017    -37300.97917     -1047.52817        43.70017  23806801.19406   2039394.32306      -781.13206        38.70006
C16  39755019.77307     -6839.51207     -1582.79707        42.50007                                                                
R14  20445598.60726 108989024.92926      -995.05926        41.40026
R03  23040420.44926 123339665.10326     -2762.60926        40.00026
C22  23638056.41416      4454.00316     -2204.96716        38.50016  23638052.81724   2078334.90424     -1657.06924        24.00024
R04  20547584.70306 110033873.50306     -1188.98606        38.50006
E33  24078609.52526   -164908.71326     -1430.49426        38.90026  24078539.97415   -130956.03815     -1066.11215        35.40015
R15  21017155.32616 112311791.26916      2659.99316        37.90016
C34  24969033.29816     15646.99616     -2745.37216        37.10016  24969042.89106   2086139.58606     -2068.96606        39.30006
C26  23940723.88226    -80890.04726      2239.52726        37.50026  23940655.52924   2014545.72624      1687.42524        26.00024
E07  26126429.44916  -1539327.73716     -2470.22916        36.00016  26126436.64424  -1179150.58424     -1845.72124        29.30024
C06  38358400.03225     -8327.03225     -1505.63025        33.80025                                                                
R19  22131517.16925 118391181.91225     -4325.28825        34.60025
E26  25451048.90525   -856034.46925     -3565.37725        31.90025                                                                
E19  24733066.95425  -1588234.11825       437.36725        32.70025  24733077.14725   2033012.72225       327.73525        29.80025
R05  21235623.98324 113519066.20524       810.78724        29.00024
C11  24448254.52624   -622251.71024     -1903.76624        29.20024                                                                
E21  28144616.98724  -1158588.67224      1815.49524        28.60024                                                                
E27  26661703.48724  -1819070.49424      1254.23124        26.10024                                                                
C13  40165230.58924    -19213.37324     -1476.63024        25.60024                                                                
R20  21528338.34124 115124187.37924     -1272.06724        23.50024
R21  23838643.35123 127567885.59923      1593.51123        23.40023
E12  26685987.87523  -1344060.67723      1218.51123        21.80023                                                                
R13  23947281.24223 127879630.16923     -4329.23723        21.20023
C36  24859429.47525      9600.53025     -2969.01725        32.50025  24859382.40823   2074204.42223     -2235.20223        22.90023
> 2025 10 05 08 49 04.0000068  0 36                      
G04  21137760.03307     -3451.16807     -1709.86307        46.50007  21137770.82615    -10255.75415     -1277.31415        35.20015
G07  22209304.01927    -70691.90827      1585.79427        41.50027                                                                
G01  23630813.12826     49645.88026     -4320.33326        39.20026  23630704.60424   2119060.00124     -3227.02824        27.20024
G16  22906807.74706    -86612.80706       491.67206        38.40006                                                                
G30  24790289.24025   -203866.63425      2575.97425        30.20025  24790305.72823   -878574.84823      1926.58623        20.00023
G06  22636180.59815    -43652.19415       256.71015        34.10015  22636168.30725   2050057.91825       195.62525        32.70025
G26  24056235.71524   -316018.48224     -2223.19524        29.20024                                                                
G03  20817982.51124   -185796.15224     -2339.23024        28.60024                                                                
G09  20967266.26425    -42528.25425       204.84725        34.30025  20967260.26825   -862992.84025       150.28125        31.50025
C21  22444603.02508    -33964.77908      -198.99608        48.90008  22444603.92406   2056987.84306      -148.93406        39.10006
E29  23806997.85807    -36260.82607     -1035.68207        43.70007  23807002.35506   2040171.19406      -773.97606        38.40006
C16  39755324.36207     -5262.78207     -1572.55207        42.30007                                                                
R03  23040924.70016 123342345.87416     -2756.66616        39.80016
C22  23638484.81706      6651.81806     -2193.92106        38.70006  23638477.62224   2079986.28124     -1647.78824        23.60024
R04  20547806.25016 110035042.72816     -1182.85116        38.50016
E33  24078938.69816   -163484.05116     -1421.13716        38.70016  24078814.58405   -129893.74205     -1059.67405        35.30005
C34  24969565.43006     18386.79006     -2735.94906        37.30006  24969572.92406   2088204.35006     -2061.88306        38.60006
R15  21016665.46526 112309155.70726      2669.80426        37.80026
C26  23940316.76426    -83133.52626      2246.98226        37.40026  23940225.62724   2012854.06024      1694.70724        25.70024
E07  26126895.62716  -1536863.13316     -2460.30316        36.10016  26126906.71925  -1177307.64625     -1841.34125        30.70025
C06  38358694.72825     -6826.85725     -1496.92825        33.80025                                                                
R19  22132340.40025 118395567.63525     -4316.18725        34.40025
C36  24859995.18325     12562.43525     -2956.99725        33.20025  24859955.31123   2076435.06623     -2227.98523        22.50023
E19  24732985.11125  -1588676.82625       446.87825        32.20025  24732996.80325   2032679.37425       337.03825        29.70025
E27  26661489.73524  -1820329.16124      1258.66624        28.70024  26661487.33624  -1366505.40924       933.95624        26.00024
R14  20445798.86826 108990074.41526      -986.13526        40.30026
