     4.01           OBSERVATION DATA    M                   RINEX VERSION / TYPE
GnssLogger          samsung 15          20251005 091054 UTC PGM / RUN BY / DATE
Google GnssLogger                                           MARKER NAME
Unknown                                                     MARKER NUMBER
Unknown             Unknown                                 OBSERVER / AGENCY
Unknown             GnssLogger          v3.1.1.1            REC # / TYPE / VERS
Unknown             Unknown                                 ANT # / TYPE
        0.0000        0.0000        0.0000                  ANTENNA: DELTA H/E/N
G    8 C1C L1C D1C S1C C5Q L5Q D5Q S5Q                      SYS / # / OBS TYPES
R    4 C1C L1C D1C S1C                                      SYS / # / OBS TYPES
C    8 C2I L2I D2I S2I C5P L5P D5P S5P                      SYS / # / OBS TYPES
E    8 C1C L1C D1C S1C C5Q L5Q D5Q S5Q                      SYS / # / OBS TYPES
  2025    10    05    09    10   54.0000000     GPS         TIME OF FIRST OBS
 9 R03  5 R04  6 R05  1 R14 -7 R15  0 R16 -1 R19  3 R20  2  GLONASS SLOT / FRQ #
   R21  4                                                   GLONASS SLOT / FRQ #
samsung SM-S711B (Android 15) HW Year: 2021 HW Model:       COMMENT
S.LSI,K040,SPOTNAV_4.6.2_7_E23                              COMMENT
                                                            END OF HEADER
> 2025 10 05 09 10 54.0000000  0 33                      
G07  21687803.94607   -886177.95207      1249.88007        42.00007                                                                
G03  21284649.04407    327112.69607     -2744.77107        41.80007  21284654.44007    236366.26607     -2049.59207        44.10007
G16  22691892.23006    -46228.71006      -121.80006        40.70006                                                                
G06  22486485.83005    -16783.63405      -395.72905        34.30005  22486483.43125    -20202.52725      -295.64925        29.50025
G30  23984013.91325 -11067273.76125      2535.14125        30.00025  23984000.42224  -7838248.10624      1893.91924        28.00024
G01  24521545.68724 -11023097.21924     -4135.22124        28.40024  24521566.07324  -9543571.85024     -3091.81024        27.90024
G09  20756471.99325    -79747.74625       148.18825        30.90025  20756409.63725  -6422118.26625       110.61525        30.90025
G11  24692078.43024   -497980.04624      1721.70224        27.20024                                                                
G26  24512504.24624 -13306261.17024     -2748.80824        27.10024                                                                
G04  21399807.72125 -13408773.90825     -1716.88725        29.80025  21399817.91405  -7438258.42005     -1287.51505        32.60005
E29  23890758.07207     69467.84207      -966.23307        45.00007  23890754.17506   2134044.91006      -721.24306        41.10006
C21  22332080.42207    -53023.10307      -241.06007        46.20007  22332082.82107   2034956.62507      -182.00807        42.40007
E33  24321072.07206 -13398107.14106     -1852.27606        38.80006  24321103.55025   2217320.87925     -1379.45925        34.00025
R05  20855131.59305 111545400.38705       917.82805        35.30005
R04  20675006.39115 110776601.34915     -1230.46615        33.70015
R14  20640980.84625 110090637.37425     -1946.30325        34.90025
R15  20262743.19525 108340704.19025      2079.61125        33.20025
R19  23036549.82825 123292821.72825     -4377.69825        33.00025
E30  27394895.70825 -13312604.83325      -978.18125        31.50025  27394914.59524  -9709535.55624      -736.06024        25.40024
C09  38035675.25025  -2840710.72625     -1099.44925        31.30025                                                                
C26  23229201.55825   -379461.02225      2059.43025        30.60025  23229196.16224 -10076818.39624      1551.52724        24.30024
R16  23705425.17624 126692852.30824      3887.89624        29.10024
E12  26251844.92624 -13586528.91524       902.11324        27.00024  26251711.81824  -8238460.23124       675.29024        23.50024
E21  27479682.11224 -13587534.62524      2149.71224        27.40024  27479962.11825 -10154003.98525      1601.85425        31.00025
E26  26176391.36124 -13582924.70924     -3575.14024        27.50024  26176433.63224  -9323999.02124     -2670.66324        24.20024
C13  40366271.41224     70235.84324     -1449.45524        28.40024                                                                
C34  25495854.98725    243050.33625     -2744.77125        33.50025  25495897.55725  -7209047.71425     -2063.53125        31.00025
E19  24449537.03824 -13452063.54124       498.73424        25.70024                                                                
R21  23370360.03624 125122352.98624       837.03924        25.10024
C14  26322606.43924 -10479741.08824      1809.38524        23.50024                                                                
R03  23547102.68023 126112342.52923     -2762.85723        23.00023
E27  26198852.71223 -10875930.06823      1101.88623        21.40023                                                                
E07  26547150.99024  -8866675.82324     -2249.17524        26.70024  26546924.04723  -9695840.93523     -1647.86223        20.80023
> 2025 10 05 09 10 55.0000005  0 33                      
G03  21285191.66807    329856.63507     -2745.21907        41.80007  21285198.56407    238415.24507     -2049.92807        43.40007
G07  21687584.49807   -887427.86507      1249.03407        42.00007                                                                
G16  22691930.90306    -46107.16406      -123.10606        40.70006                                                                
G30  23983578.31425 -11069805.86125      2529.58725        33.00025  23983540.84024  -7840139.58724      1889.37824        28.40024
G06  22486597.35325    -16387.92025      -397.35825        34.10025  22486582.36324    -19902.06524      -304.53224        29.00024
G09  20756378.75825    -79895.74025       147.74125        30.50025  20756403.34125  -6422228.08725       108.32725        30.50025
G01  24522364.72024 -11018960.41624     -4138.01924        28.50024  24522376.11224  -9540479.96624     -3092.99924        27.40024
G11  24691763.64824   -499701.29824      1719.57724        27.50024                                                                
G26  24512988.11124 -13303505.71724     -2759.13724        27.00024                                                                
G04  21400162.97525 -13407051.20225     -1726.18825        29.70025  21400166.87305  -7436971.51005     -1287.81605        32.40005
E29  23890965.22907     70433.29907      -966.65407        45.30007  23890960.73206   2134765.96906      -722.12106        40.50006
C21  22332150.27427    -52781.05327      -244.08027        45.90027  22332151.77307   2035138.16207      -182.53807        42.10007
R04  20675242.32806 110777748.35506     -1231.10306        35.80006
E33  24321448.31216 -13396255.67416     -1853.40016        38.70016  24321477.39225   2218703.28325     -1384.23625        33.20025
R05  20854961.31106 111544375.47006       917.88906        35.90006
R14  20641365.78025 110092573.90225     -1950.50425        34.80025
R15  20262378.34725 108338639.02025      2072.65225        33.20025
R19  23037385.35025 123297176.83625     -4377.49325        33.00025
E30  27395104.66425 -13311624.85425      -981.94225        31.60025  27395247.66524  -9708792.53524      -748.43424        25.10024
C09  38035922.27925  -2839609.77225     -1103.26525        31.30025                                                                
C26  23228800.43625   -381519.64925      2056.80725        30.60025                                                                
R16  23704723.06224 126688986.34324      3893.05724        29.30024
C34  25496447.37725    245797.28525     -2749.08725        32.80025  25496448.87625  -7206978.17725     -2072.78225        30.70025
E26  26177080.88424 -13579351.18724     -3573.52024        28.50024  26177129.45024  -9321330.74324     -2668.61524        24.00024
C13  40366560.41224     71686.58024     -1451.77424        28.40024                                                                
E12  26251648.86224 -13587428.23124       899.31624        27.10024  26251562.52123  -8239132.92323       672.42423        23.40023
E21  27479317.86424 -13589682.61224      2147.98624        27.10024  27479573.58725 -10155604.63325      1600.64825        31.40025
R20  21780267.13524 116531553.74024     -2124.46524        24.90024
R21  23370261.40524 125121709.82424       830.38824        25.50024
E19  24449451.89724 -13452557.55724       491.65724        25.70024                                                                
C14  26322251.78423 -10481549.24323      1807.80523        23.40023                                                                
R03  23547672.58523 126115277.58723     -2758.84523        22.90023
E27  26198639.85923 -10877035.54223      1107.18123        21.40023                                                                
> 2025 10 05 09 10 56.0000008  0 33                      
G03  21285671.33627    332594.97327     -2735.53627        41.80027  21285700.41607    240460.38507     -2043.22007        42.90007
G07  21687296.69727   -888684.30827      1258.70927        41.90027                                                                
G16  22691942.59506    -45991.05006      -113.39806        40.80006                                                                
G30  23983061.47226 -11072344.43726      2541.81326        36.40026  23983037.18925  -7842034.98325      1897.35225        32.00025
G06  22486679.49625    -15995.85825      -390.23625        34.00025  22486640.22324    -19603.93724      -296.96124        28.60024
G04  21400469.06425 -13405334.18325     -1714.17425        30.10025  21400469.36325  -7435688.21025     -1281.49525        31.30025
G01  24523169.36324 -11014829.73024     -4127.62724        28.60024  24523140.58324  -9537391.91124     -3086.13924        27.00024
G11  24691419.18624   -501428.41224      1730.04624        27.80024                                                                
G26  24513444.99524 -13300753.72524     -2750.26124        27.00024                                                                
G09  20756331.09125    -80049.09525       156.03625        30.30025  20756352.67625  -6422342.05925       116.04725        29.90025
E29  23891125.91807     71393.04507      -956.88907        45.50007  23891125.31806   2135482.61006      -714.43206        40.00006
C21  22332167.66217    -52545.85317      -231.77417        45.70017  22332176.95607   2035315.45507      -175.17107        41.80007
R04  20675453.68107 110778986.54307     -1221.42907        42.20007
E33  24321786.77726 -13394408.01626     -1845.50226        38.50026  24321801.76725   2220081.32425     -1375.85925        32.80025
R05  20854762.84806 111543420.15606       927.23906        36.20006
C13  40366789.75325     73135.36425     -1447.80725        31.00025                                                                
R14  20641722.83315 110094582.89115     -1941.40015        34.70015
R15  20262010.80225 108336780.29025      2085.43925        33.20025
R19  23038141.72625 123301328.34825     -4373.87925        32.90025
E30  27395283.64025 -13310650.15325      -972.06225        31.90025  27395409.85224  -9708056.26924      -732.88924        24.70024
C09  38036094.36025  -2838516.20325     -1089.87625        31.30025                                                                
R16  23704001.76125 126685238.83925      3901.72425        29.80025
E26  26177747.62224 -13575785.12824     -3562.32824        29.30024  26177770.10724  -9318668.65024     -2658.99924        23.80024
C34  25496942.93425    248536.26425     -2734.99325        32.20025  25496953.42625  -7204914.29925     -2061.04725        30.30025
E12  26251404.83124 -13588334.58424       909.87224        27.90024  26251367.05723  -8239813.01123       683.78523        23.20023
E21  27478897.55524 -13591836.03524      2156.14124        27.10024  27479143.38525 -10157215.50825      1615.98725        31.40025
R21  23370085.12724 125120872.95124       839.94124        26.00024
E19  24449266.32524 -13453052.41524       495.27924        25.60024                                                                
R03  23548170.24123 126118047.96723     -2742.66523        22.90023
E07  26547755.67124 -13746861.76524     -2235.91924        23.60024                                                                
C14  26321878.24323 -10483364.32723      1818.54923        23.30023                                                                
R20  21780665.85924 116533790.21224     -2120.58624        24.60024
E27  26198396.12823 -10878144.58923      1110.83323        21.40023                                                                
> 2025 10 05 09 10 57.0000011  0 34                      
G03  21286207.36517    335324.71317     -2725.44117        41.80017  21286218.45807    242498.61907     -2034.78207        42.40007
G07  21687068.85517   -889948.58017      1268.43417        41.90017                                                                
G16  22691964.18006    -45884.07306      -102.40806        40.90006                                                                
G30  23982569.51316 -11074890.44016      2549.71616        36.10016  23982551.52515  -7843937.08715      1905.45815        31.60015
G06  22486707.37615    -15614.65815      -375.76915        33.80015  22486710.37424    -19314.70724      -284.78124        28.10024
G09  20756307.40725    -80212.73025       168.77425        30.60025  20756318.50025  -6422463.95725       125.86125        29.50025
G11  24691091.81324   -503163.67524      1739.33624        27.90024                                                                
G26  24513959.13924 -13298017.78724     -2727.91224        26.90024                                                                
G04  21400794.63826 -13403626.34526     -1703.24826        38.20026  21400797.93625  -7434414.24725     -1269.29525        31.10025
E29  23891310.89007     72343.41807      -945.68707        45.50007  23891306.69306   2136192.23906      -706.12306        39.60006
C21  22332209.93307    -52319.63007      -221.73607        45.50007  22332218.62707   2035485.79407      -166.86207        41.60007
R04  20675680.92407 110780213.22907     -1210.14307        42.30007
E33  24322131.53926 -13392570.32226     -1832.71226        38.20026  24322155.82225   2221453.39425     -1369.08425        32.70025
R05  20854580.27406 111542453.36106       938.93006        36.50006
R14  20642063.09705 110096405.76805     -1929.56805        34.70005
C13  40366985.81725     74574.57525     -1434.42425        35.40025                                                                
R15  20261597.08815 108334579.01415      2095.80915        33.10015
E30  27395452.42325 -13309684.60825      -960.96625        32.30025  27395589.72824  -9707336.33724      -711.76424        24.40024
R19  23039001.83125 123305938.32525     -4353.58325        32.70025
C09  38036294.02225  -2837432.10225     -1079.36825        31.30025                                                                
R16  23703297.24925 126681485.21925      3914.93625        30.10025
E26  26178434.74725 -13572228.98725     -3551.18025        29.90025  26178434.44724  -9316017.76924     -2645.27424        23.70024
C26  23228008.98425   -385660.94025      2082.09425        29.60025                                                                
E12  26251180.88624 -13589254.62024       926.87624        29.00024                                                                
C34  25497464.87225    251264.25125     -2722.49025        31.60025  25497477.46425  -7202852.95425     -2060.07725        29.90025
E07  26548268.91624 -13912157.56524     -2226.80524        24.60024                                                                
R20  21781000.42724 116535589.78724     -2106.67224        24.50024
R21  23369940.32724 125120108.04424       852.33924        26.30024
E21  27478505.42724 -13594001.28324      2171.15924        27.00024  27478731.47025 -10158830.38825      1616.88425        31.40025
E19  24449158.40024 -13453558.27024       511.35424        25.40024                                                                
C14  26321545.77323 -10485191.18923      1832.74923        23.30023                                                                
R03  23548670.29523 126120734.08623     -2724.70223        22.90023
E27  26198231.24223 -10879263.48623      1123.82223        21.80023                                                                
G01                                                                  24523921.84224  -9534315.21124     -3071.02324        26.50024
> 2025 10 05 09 10 58.0000015  0 33                      
G03  21286734.40007    338045.99607     -2717.05307        42.20007  21286745.19307    244530.86607     -2029.25207        41.90007
G07  21686843.71107   -891220.31307      1275.46507        41.80007                                                                
G16  22691999.25606    -45784.95406       -95.19006        40.90006                                                                
G30  23982089.24526 -11077441.80626      2554.04626        35.80026  23982077.25315  -7845844.24515      1909.68415        31.20015
G06  22486850.67705    -15240.76505      -370.23805        33.80005  22486790.11924    -19037.27824      -271.52924        27.60024
G11  24690776.43124   -504904.44424      1743.52124        27.90024                                                                
G26  24514457.39424 -13295294.75624     -2716.57524        26.80024                                                                
G04  21401127.40816 -13401925.50016     -1697.34616        40.60016  21401130.40625  -7433144.47625     -1267.67325        31.00025
G01  24524704.60024 -11006604.00924     -4111.16024        28.40024  24524711.79524  -9531250.14324     -3059.24924        26.10024
G09  20756309.20625    -80381.92725       171.97825        31.40025  20756296.01524  -6422592.33424       131.61724        29.20024
E29  23891489.86617     73286.41317      -938.55517        45.50017  23891489.86606   2136895.85806      -700.61406        39.30006
C21  22332265.99407    -52101.80007      -213.63207        45.50007  22332270.19106   2035649.98506      -161.11706        40.70006
R04  20675907.56707 110781372.49707     -1202.65907        42.20007
R05  20854420.18506 111541543.17406       946.93806        36.80006
E33  24322528.46426 -13390739.41226     -1827.51726        38.00026  24322509.57725   2222823.39625     -1368.96725        32.20025
R14  20642476.51125 110098554.33325     -1922.94225        34.90025
C13  40367251.43325     76002.62525     -1422.46925        35.30025                                                                
R15  20261216.35215 108332490.90615      2102.33515        33.20015
E30  27395643.99025 -13308723.83325      -958.39025        32.30025                                                                
R19  23039836.45325 123310348.54425     -4352.97025        32.60025
C09  38036502.37725  -2836354.12625     -1074.91225        31.50025                                                                
E12  26251185.98224 -13981070.18724       930.98524        29.00024                                                                
C26  23227587.47625   -387744.19325      2083.25225        29.90025                                                                
R16  23702583.74325 126677620.01025      3921.41825        30.10025
E26  26179170.43725 -13568679.07325     -3546.80025        29.90025  26179156.34724  -9313368.37024     -2648.65724        23.60024
C34  25497995.50525    253986.07725     -2718.74525        31.10025  25498008.99625  -7200799.48325     -2049.53325        29.50025
R20  21781423.73424 116537799.48024     -2097.09724        27.00024
R21  23369773.94224 125119163.21224       854.33024        26.50024
E19  24449072.65924 -13454078.62224       527.60024        25.30024                                                                
E07  26548725.80024 -13909935.78424     -2221.78024        24.50024                                                                
R03  23549113.68823 126123052.56823     -2712.87623        22.90023
C14  26321194.71623 -10487025.13023      1837.48123        23.20023                                                                
E27  26198061.85923 -10880384.97823      1122.78923        22.20023                                                                
> 2025 10 05 09 10 59.0000018  0 33                      
G03  21287251.84207    340759.66007     -2709.85507        42.50007  21287259.03706    246557.15706     -2023.31206        41.40006
G07  21686612.87007   -892499.76107      1283.30407        41.70007                                                                
G16  22692014.84506    -45693.98206       -86.89806        40.80006                                                                
G06  22486937.61715    -14875.04515      -361.63415        33.70015  22486863.26824    -18762.00724      -274.19224        27.00024
G09  20756292.71825    -80560.40525       183.11825        31.80025  20756263.93724  -6422723.16224       132.05324        28.90024
G01  24525507.14524 -11002496.70724     -4107.30124        28.40024  24525493.95424  -9528185.11724     -3065.00524        25.70024
G26  24514983.23024 -13292581.95324     -2707.68924        26.70024                                                                
G04  21401429.89826 -13400233.19526     -1688.03526        40.50026  21401452.38325  -7431882.16225     -1258.58525        31.00025
G11  24690454.45424   -506657.05724      1758.53524        27.90024  24690443.66223 -10082835.26823      1325.82223        20.40023
G30  23981637.75825 -11080000.95625      2563.04125        35.30025  23981591.29025  -7847758.38025      1917.62425        30.80025
C21  22332306.46607    -51890.60507      -207.87707        46.20007  22332310.36306   2035808.71006      -155.99206        40.60006
E29  23891664.94507     74221.19207      -930.92107        45.70007  23891666.74306   2137593.94006      -695.31206        38.80006
R05  20854216.02726 111540461.64926       956.99226        36.90026
E33  24322877.42216 -13388914.98316     -1820.43916        37.80016  24322854.93825   2224186.00025     -1358.90525        31.50025
R04  20676144.40327 110782649.75327     -1193.56627        41.60027
R14  20642821.87225 110100405.43125     -1914.24525        35.10025
R15  20260791.54605 108330229.99205      2110.99505        33.20005
C13  40367505.95725     77420.49725     -1412.78225        35.00025                                                                
E30  27395823.56625 -13307774.11225      -944.19225        32.20025                                                                
C09  38036711.63225  -2835284.86925     -1064.89825        31.90025                                                                
C26  23227185.15425   -389835.24325      2094.94825        30.40025                                                                
E26  26179812.29325 -13565137.04325     -3538.08725        30.00025  26179805.69824  -9310720.98424     -2646.38024        23.50024
C34  25498519.84225    256699.74325     -2709.58525        30.90025  25498527.03724  -7198752.95624     -2043.05524        28.60024
E12  26251004.00825 -13982002.80625       932.61925        29.70025  26250856.81024 -10448668.63024       700.41024        28.40024
R16  23701881.92925 126673880.15225      3924.62925        30.00025
R20  21781822.75824 116539942.60124     -2092.23424        27.20024
R21  23369603.36024 125118258.95224       868.63824        26.70024
E21  27477635.12924 -14078292.44024      2178.13424        24.00024  27477915.73525 -10520411.78625      1628.37425        32.00025
E07  26549125.12324 -13907721.78124     -2210.11324        25.00024                                                                
E19  24448936.85324 -13454610.50724       537.65124        25.20024                                                                
C14  26320831.96723 -10488863.95523      1841.26523        23.20023                                                                
R03  23549630.23023 126125828.30523     -2704.83923        22.90023
E27  26197796.54323 -10881508.32123      1124.26823        22.30023                                                                
> 2025 10 05 09 11 00.0000022  0 33                      
G03  21287777.97807    343469.59507     -2708.06907        43.10007  21287785.77306    248581.02706     -2022.65806        41.10006
G07  21686371.23817   -893781.22417      1282.47017        41.60017                                                                
G16  22692044.22506    -45606.90106       -85.13606        40.80006                                                                
G04  21401777.65826 -13398543.76726     -1687.99026        40.30026  21401783.35425  -7430624.79925     -1254.88825        31.00025
G06  22486995.47725    -14512.60425      -360.80225        33.60025  22486944.81224    -18498.38324      -257.79924        26.50024
G09  20756246.25025    -80742.06825       183.25625        32.30025  20756240.25424  -6422856.75724       134.98024        28.60024
G30  23981153.29325 -11082567.87925      2570.80925        34.20025  23981112.82125  -7849676.22025      1919.69125        30.10025
G11  24690139.67224   -508415.36024      1761.14724        27.80024  24690126.18123 -10084151.70323      1316.43423        20.60023
C21  22332356.53107    -51683.21507      -205.48807        46.60007  22332358.93006   2035964.91206      -154.94006        40.40006
E29  23891866.70507     75152.80107      -930.02307        45.70007  23891855.31306   2138289.34906      -694.07306        38.30006
R05  20854074.22516 111539649.36616       954.94316        36.90016
E33  24323204.79606 -13387093.70106     -1820.70706        37.60006  24323221.28425   2225544.88925     -1357.03225        31.40025
R14  20643179.82416 110102259.59016     -1914.78416        35.60016
R04  20676362.05226 110783760.75126     -1194.31626        40.70026
C13  40367785.96325     78838.47025     -1418.02325        34.70025                                                                
R15  20260429.09705 108328238.22605      2110.82005        33.40005
E30  27396017.23225 -13306829.32225      -942.32525        32.20025                                                                
C09  38036926.58425  -2834217.28825     -1066.74225        31.90025                                                                
C26  23226804.71825   -391929.08225      2095.23325        31.00025                                                                
R19  23041541.07325 123319423.08325     -4348.29325        31.30025
E12  26250694.32225 -14192539.14325       935.29125        29.50025  26250687.72725 -10449369.04325       700.41425        33.60025
E26  26180512.00925 -13561600.68525     -3533.52125        30.40025  26180525.20023  -9308058.88623     -2669.45223        23.20023
C34  25499048.97625    259409.98925     -2708.53625        30.70025  25499058.86924  -7196706.89024     -2045.83424        28.20024
R16  23701101.56925 126669656.47625      3933.13425        30.00025
R20  21782185.20724 116541826.35024     -2088.52424        27.40024
R21  23369472.35124 125117503.24124       864.40024        26.70024
E07  26549525.04624 -13905508.87924     -2212.35124        26.00024                                                                
E21  27477233.10724 -14080477.00924      2184.56824        24.80024  27477507.71725 -10522043.64925      1631.86325        31.40025
C14  26320484.80823 -10490704.12723      1840.84623        23.10023                                                                
R03  23550139.57823 126128499.12023     -2701.08523        22.80023
E27  26197564.50323 -10882633.01423      1125.36823        22.30023                                                                
E19  24448828.92824 -13455145.66624       536.79624        25.20024                                                                
G01                                                                  24526289.60324  -9525118.43924     -3067.50224        25.30024
> 2025 10 05 09 11 01.0000025  0 34                      
G03  21288272.33607    346179.65407     -2710.11907        43.40007  21288281.33006    250604.72906     -2023.61806        40.40006
G16  22692039.72806    -45519.46106       -86.86906        40.80006                                                                
G07  21686110.71826   -895063.30926      1282.39626        41.40026                                                                
G04  21402074.75226 -13396854.59826     -1689.03826        40.00026  21402079.84825  -7429360.87425     -1267.20625        31.50025
G09  20756184.79215    -80923.26215       180.95915        32.70015  20756187.19124  -6422991.94824       135.98724        28.20024
G30  23980668.82825 -11085135.30725      2567.68125        33.40025  23980600.77624  -7851591.85524      1914.53324        29.00024
G01  24527050.17624 -10994290.06424     -4104.21824        28.20024  24527053.47424  -9522050.58824     -3068.43724        25.00024
G11  24689758.93624   -510165.54324      1746.12324        27.70024  24689770.02823 -10085459.20323      1303.03223        20.60023
G06  22487043.44425    -14152.84325      -358.42025        33.50025  22486987.98224    -18235.33624      -262.75924        26.00024
C21  22332377.81707    -51474.25907      -209.73807        46.60007  22332380.51506   2036121.20506      -156.33906        40.20006
E29  23892016.30117     76082.93417      -930.14517        45.60017  23892012.40416   2138984.75816      -695.40916        37.80016
R05  20853870.96606 111538669.58206       954.91406        37.00006
E33  24323531.27006 -13385270.41506     -1823.28706        37.50006  24323552.55525   2226903.39525     -1358.31325        31.30025
R14  20643509.59626 110104123.66426     -1917.18626        35.70026
R04  20676571.00816 110784987.44516     -1194.65816        39.90016
C13  40368034.79125     80254.46625     -1415.00725        34.60025                                                                
R15  20260000.39415 108326056.07815      2107.40515        33.50015
C26  23226381.71125   -394021.22425      2091.29325        32.00025                                                                
C09  38037112.75525  -2833152.33525     -1063.63925        32.00025                                                                
E12  26250482.66925 -14193474.71125       935.56825        29.90025  26250491.06315 -10450068.00815       698.24015        33.30015
E30  27396155.43625 -13305885.10025      -943.93825        32.10025                                                                
E26  26181133.47825 -13558062.35525     -3539.31425        30.40025  26181152.06623  -9305432.36123     -2608.73723        22.80023
C34  25499561.02125    262121.90325     -2712.74625        30.60025  25499558.92324  -7194658.68924     -2049.26824        27.80024
R16  23700373.37325 126665874.59525      3928.71625        29.90025
C16  39968378.46724 -14148417.15124     -1391.51724        27.30024                                                                
R19  23042286.05725 123323515.66125     -4347.07425        30.50025
R20  21782473.00824 116543472.14724     -2086.31024        27.40024
R21  23369267.59324 125116515.53324       856.49424        26.60024
E07  26549924.67024 -13903292.33424     -2218.36624        26.00024                                                                
E21  27476782.81924 -14082666.89324      2192.54124        25.20024  27477039.74125 -10523703.31225      1673.56325        30.90025
C14  26320117.26223 -10492543.27623      1838.63523        23.20023                                                                
R03  23550673.20823 126131463.29023     -2707.29323        22.80023
E27  26197341.15823 -10883756.97823      1123.59923        22.20023                                                                
E19  24448731.19624 -13455678.38024       531.49124        25.30024                                                                
> 2025 10 05 09 11 02.0000028  0 35                      
G03  21288785.58007    348892.23807     -2713.84607        43.40007  21288796.37306    252630.28106     -2026.47606        40.20006
G16  22692058.31506    -45429.96106       -90.78006        41.10006                                                                
G07  21685875.98026   -896340.78026      1275.16326        41.30026                                                                
G04  21402393.13216 -13395161.76916     -1694.65916        39.80016  21402404.22425  -7428094.42725     -1267.70725        31.40025
G06  22487095.00825    -13785.06025      -371.79425        33.40025  22487048.54014    -17963.82514      -275.74414        25.60014
G09  20756145.22025    -81103.34625       179.52825        32.70025  20756157.51124  -6423122.80124       128.68524        27.80024
G01  24527822.14224 -10990184.34924     -4105.71424        28.20024  24527836.23224  -9518982.02424     -3068.92124        24.60024
G11  24689396.78624   -511907.10024      1737.24224        27.70024  24689441.75523 -10086755.11423      1290.11723        20.50023
C21  22332419.18807    -51263.46307      -211.71607        46.60007  22332421.28606   2036280.58506      -160.92206        40.10006
E29  23892199.17527     77015.41227      -933.40027        44.80027  23892191.08016   2139681.83216      -697.90616        37.50016
R05  20853678.79906 111537650.01806       950.93806        37.20006
E33  24323892.81926 -13383445.50226     -1825.97626        37.30026  24323900.91425   2228266.59425     -1365.54625        30.70025
R04  20676791.65506 110786176.58806     -1196.01406        39.30006
R14  20643860.35326 110106001.45926     -1922.80126        35.70026
C13  40368315.09715     81675.53815     -1423.61015        34.60015                                                                
R15  20259573.18925 108323779.87725      2102.61825        33.50025
C26  23225975.79225   -396110.44125      2087.75425        32.40025  23225987.78323 -10299996.91923      1563.31123        18.90023
C09  38037307.32025  -2832082.27025     -1072.62225        32.00025                                                                
E30  27396325.71825 -13304936.33125      -951.04125        32.10025                                                                
E26  26181799.91725 -13554520.45025     -3543.69125        30.40025  26181812.80823  -9302805.25723     -2627.39323        22.30023
C06  38555575.63025 -14282532.04925     -1340.70025        29.50025                                                                
E12  26250320.78125 -14414009.67825       928.24925        29.60025  26250309.98925 -10450766.51625       698.27925        32.80025
C34  25500069.46925    264840.35025     -2721.71325        30.50025  25500073.96624  -7192606.71924     -2053.85524        27.10024
R16  23699643.07925 126661981.87925      3921.28325        29.80025
C36  25478408.86524 -14291668.08724     -3186.82224        28.40024                                                                
R19  23043179.13925 123328300.15125     -4338.84525        30.30025
C16  39968650.67924 -14147022.46424     -1394.68724        27.20024                                                                
R21  23369050.84324 125115363.19824       864.39224        26.50024
E21  27476418.87124 -14084853.57424      2185.07924        25.60024                                                                
E19  24448634.36324 -13456207.88724       527.90424        25.50024                                                                
C14  26319778.49623 -10494374.28223      1826.93523        23.20023                                                                
R03  23551133.39023 126133934.95923     -2712.64623        22.70023
E27  26197145.09423 -10884874.51323      1114.32023        22.20023                                                                
E07  26550342.28124 -13901071.86624     -2222.42824        25.90024  26550449.30624 -10388453.31524     -1649.83924        24.00024
G30                                                                  23980111.81424  -7853505.63924      1912.85724        28.20024
> 2025 10 05 09 11 03.0000032  0 33                      
G03  21289317.71207    351611.49907     -2722.59807        43.50007  21289323.40806    254660.98606     -2033.28006        39.70006
G16  22692088.29407    -45333.61507       -99.76907        41.50007                                                                
G07  21685649.03826   -897614.04226      1271.15826        41.00026                                                                
G04  21402726.20126 -13393459.72726     -1706.64726        39.50026  21402732.79625  -7426827.14225     -1267.70425        33.00025
G06  22487194.23925    -13407.33125      -382.70325        33.30025  22487134.58124    -17686.40024      -280.38124        25.20024
G09  20756159.31025    -81275.40525       168.04725        33.00025  20756135.92624  -6423249.51924       124.65024        27.40024
G30  23979771.55025 -11090259.77825      2557.28425        30.30025  23979637.84224  -7855409.36024      1898.69024        28.00024
G11  24689083.20324   -513640.52024      1729.35124        27.60024  24689120.07823 -10088047.47923      1290.59123        20.50023
C13  40368591.80506     83100.91506     -1427.52806        36.10006                                                                
C21  22332468.95317    -51045.53917      -221.48917        46.40017  22332474.05006   2036444.44906      -166.10706        39.90006
E29  23892381.14927     77955.82627      -944.38127        44.30027  23892384.14726   2140381.54726      -701.03626        37.20026
R05  20853509.41606 111536691.64806       942.49106        37.30006
R04  20677042.28116 110787465.34516     -1206.32316        38.80016
E33  24324227.68826 -13381611.00526     -1839.28826        37.20026  24324238.18025   2229633.97825     -1369.47725        29.60025
R14  20644246.78526 110108008.92326     -1930.23226        35.60026
R15  20259209.24125 108321781.99625      2093.55225        33.40025
C26  23225580.66525   -398189.10925      2073.39225        32.40025  23225656.81223 -10301555.04323      1555.53023        18.80023
C09  38037533.96325  -2831008.79825     -1075.17425        32.00025                                                                
E30  27396529.87725 -13303979.73725      -960.50625        32.00025                                                                
E26  26182510.12525 -13550968.50825     -3556.96025        30.30025                                                                
C34  25500588.11025    267562.30725     -2723.71225        30.40025  25500611.19424  -7190546.70624     -2064.03224        26.80024
E12  26250124.71725 -14414932.78225       923.60125        29.50025  26250145.40225 -10451454.79125       683.15825        32.00025
R16  23698950.25825 126658227.51025      3917.47025        29.80025
R19  23043972.98925 123332493.76325     -4356.48925        30.10025
R20  21783347.20324 116548102.71224     -2105.48224        27.40024
E21  27476017.14924 -14087031.39624      2173.39124        26.10024                                                                
R21  23368905.44324 125114533.21724       851.19224        26.40024
E07  26550792.26924 -13898844.57524     -2230.70224        25.90024  26550874.71224 -10386798.89924     -1654.41524        24.30024
E19  24448548.02224 -13456730.68424       519.44124        25.50024                                                                
C14  26319422.34323 -10496196.94323      1818.48823        23.10023                                                                
R03  23551570.18723 126136220.51523     -2727.42023        22.70023
E27  26196948.13023 -10885988.21123      1111.78023        22.10023                                                                
G01                                                                  24528630.08324  -9515911.49524     -3071.50924        24.30024
> 2025 10 05 09 11 04.0000036  0 36                      
G03  21289843.54807    354332.08907     -2721.25507        43.90007  21289851.34306    256692.49406     -2031.91006        39.50006
G16  22692111.97807    -45235.43207       -99.10207        41.80007                                                                
G07  21685423.29426   -898887.58826      1273.68726        40.70026                                                                
G09  20756123.33525    -81448.72525       173.95025        33.00025  20756103.24924  -6423376.29524       126.80524        26.90024
G06  22487279.38025    -13033.44325      -371.96725        33.30025  22487216.42424    -17413.15624      -271.15324        24.90024
G30  23979315.56525 -11092818.30425      2558.52525        30.50025  23979165.96924  -7857306.74624      1894.21724        27.70024
G01  24529451.51424 -10981960.49424     -4110.25424        28.10024  24529418.83724  -9512845.61824     -3063.55124        23.90024
G11  24688784.61024   -515376.31324      1736.98024        27.50024  24688796.60223 -10089342.35623      1296.13223        20.60023
G04  21403062.86826 -13391761.17526     -1696.80626        39.30026  21403067.36525  -7425559.44325     -1267.90425        32.80025
C13  40368876.60807     84527.55107     -1427.26607        45.60007                                                                
C21  22332522.01707    -50826.75407      -219.21507        46.30007  22332526.51406   2036609.38906      -165.47906        39.40006
E29  23892565.22117     78896.87217      -940.61317        43.80017  23892565.82126   2141084.42126      -704.45226        36.50026
R05  20853333.43806 111535698.86106       944.21406        37.60006
R04  20677267.72506 110788620.78306     -1206.34006        38.50006
E33  24324591.63626 -13379779.70826     -1829.69726        37.00026  24324605.12625   2231004.05025     -1371.41425        29.50025
R14  20644624.82416 110109972.15016     -1927.40216        35.50016
R15  20258842.89525 108319772.64525      2099.70025        33.40025
C26  23225204.42625   -400270.68725      2083.03325        32.40025  23225279.97322 -10302982.30822      1361.83622        15.80022
C09  38037746.51625  -2829934.17625     -1075.19725        31.90025                                                                
E12  26250138.80725 -14587248.48925       921.08125        30.40025  26249979.61725 -10452144.76925       690.83025        31.50025
E30  27396731.03825 -13303021.83625      -958.55425        32.00025                                                                
E26  26183191.25425 -13547418.48825     -3549.05725        30.30025                                                                
C34  25501173.00525    270282.10725     -2718.72025        30.30025  25501148.42224  -7188483.88124     -2064.23124        26.40024
R16  23698287.11725 126654632.12225      3916.42225        29.70025
C36  25479655.10224 -14413710.44324     -3195.76124        28.50024  25479680.28424 -10869910.06524     -2405.52024        24.30024
R19  23044718.27425 123336428.67025     -4355.72725        29.90025
R20  21783827.47024 116550617.69324     -2101.26224        27.40024
C06  38556123.95124 -14453740.73424     -1340.88224        26.60024                                                                
C16  39969213.98924 -14144227.70124     -1395.08724        27.00024                                                                
E21  27475593.84224 -14089206.16724      2173.24524        26.20024                                                                
E07  26551280.03124 -13896618.84924     -2224.94324        25.90024  26551223.07123 -10385146.51323     -1651.37123        23.40023
E19  24448437.09924 -13457249.00224       516.07924        25.60024                                                                
R21  23368780.73024 125113812.72624       853.23724        26.30024
C14  26319069.18823 -10498020.00723      1823.26523        23.10023                                                                
R03  23552103.51823 126139022.30723     -2732.17023        22.70023
E27  26196752.96523 -10887104.69923      1117.88223        22.10023                                                                
> 2025 10 05 09 11 05.0000039  0 34                      
G03  21290363.08807    357051.11507     -2718.24207        44.20007  21290366.68606    258722.94606     -2029.92206        38.70006
G16  22692120.37207    -45138.77907       -95.88807        42.10007                                                                
G07  21685174.46626   -900161.50526      1274.10226        40.40026                                                                
G09  20756092.15625    -81625.67225       178.76125        33.50025  20756062.77724  -6423504.59224       129.05724        26.90024
G06  22487375.01425    -12659.39625      -374.12625        33.30025  22487285.67624    -17141.56624      -270.76424        24.50024
G01  24530223.77924 -10977854.06424     -4106.42924        28.10024  24530195.59924  -9509784.17624     -3059.22324        23.60024
G11  24688459.03524   -517117.40424      1743.74024        27.40024  24688458.13623 -10090640.81523      1300.25023        20.60023
G30  23978823.30625 -11095379.06125      2561.87325        30.50025  23978670.71224  -7859208.75424      1904.31924        27.40024
G04  21403385.14526 -13390061.15726     -1700.75126        39.10026  21403389.04225  -7424289.54725     -1270.99425        32.60025
C21  22332570.28317    -50609.52817      -216.44517        46.10017  22332566.98606   2036773.33406      -163.44706        38.90006
C13  40369146.42107     85951.91307     -1423.22507        45.40007                                                                
E29  23892740.30007     79836.78507      -939.59507        43.30007  23892741.49925   2141790.43425      -707.58325        35.20025
R05  20853171.55016 111534840.67816       946.01916        37.60016
R04  20677490.77126 110789822.95126     -1201.35426        38.20026
E33  24324946.89026 -13377949.45126     -1829.73626        36.80026  24324945.09124   2232375.45324     -1372.06924        28.80024
R14  20644957.89326 110111754.60526     -1925.97426        35.50026
R15  20258411.49415 108317474.26615      2101.34915        33.30015
C26  23224815.89525   -402358.42625      2090.82025        32.70025  23224972.68622 -10304246.76722      1183.05622        15.60022
C09  38037960.26815  -2828861.38315     -1071.87815        32.40015                                                                
E30  27396887.82925 -13302067.18125      -953.03225        31.90025                                                                
C36  25480271.77525 -14410516.46225     -3193.98025        30.00025  25480291.26124 -10867506.15224     -2403.91124        27.90024
E26  26183863.98825 -13543872.14925     -3544.49825        30.30025                                                                
E12  26249952.33625 -14588172.34525       923.85625        30.30025  26249801.24125 -10452839.85125       697.63325        30.90025
C34  25501694.94425    273000.24825     -2717.31225        30.20025  25501669.76124  -7186425.92324     -2055.52524        26.00024
R19  23045483.34425 123340528.12925     -4344.11325        29.80025
C16  39969476.30724 -14142833.75624     -1393.94424        27.20024                                                                
R20  21784173.43124 116552474.65624     -2104.73824        27.40024
E21  27475159.74324 -14091384.33524      2179.86524        26.80024                                                                
E07  26551705.13724 -13894398.54624     -2217.59224        26.20024  26551645.77823 -10383495.55023     -1650.25223        22.70023
E19  24448338.76724 -13457769.27924       521.25624        25.80024                                                                
R21  23368645.52324 125113096.82124       850.05624        26.20024
R03  23552552.30723 126141433.46023     -2724.80023        23.10023
C14  26318712.43523 -10499846.44023      1828.11723        23.10023                                                                
E27  26196535.31623 -10888226.86423      1125.00323        22.20023                                                                
> 2025 10 05 09 11 06.0000042  0 36                      
G03  21290857.74617    359767.99417     -2715.80617        44.20017  21290864.04206    260751.61306     -2027.77506        38.60006
G16  22692129.36607    -45044.22607       -93.50307        42.20007                                                                
G07  21684900.75616   -901435.84616      1274.55216        40.30016                                                                
G04  21403686.13626 -13388364.48726     -1694.99626        38.90026  21403691.83225  -7423021.57725     -1267.00825        32.90025
G09  20756024.70325    -81803.59125       178.40525        33.60025  20756007.31524  -6423635.82724       132.70424        27.10024
G06  22487408.29125    -12288.80625      -368.86225        33.50025  22487339.33924    -16871.87124      -268.74824        24.20024
G30  23978329.54825 -11097944.44825      2567.70025        30.50025  23978169.45924  -7861117.27724      1911.77924        27.20024
G01  24530969.36324 -10973752.34024     -4099.36924        28.30024                                                                
G11  24688089.09224   -518864.12824      1749.54024        27.20024  24688101.68323 -10091946.41223      1309.16523        20.60023
C13  40369402.14407     87373.53307     -1420.24707        45.20007                                                                
E29  23892904.58627     80772.43427      -933.51827        42.90027  23892905.18625   2142490.61425      -697.26425        35.10025
C21  22332583.47427    -50397.24427      -209.81427        44.50027  22332587.67106   2036935.01106      -160.54306        39.00006
R05  20852982.08126 111533935.08626       949.42126        37.60026
R04  20677700.92616 110791055.77516     -1198.91916        37.90016
E33  24325269.16726 -13376120.53226     -1828.24826        36.70026  24325272.16424   2233746.65924     -1371.10724        28.80024
R14  20645319.14325 110113788.00125     -1924.31025        35.40025
R15  20257998.38005 108315375.45805      2101.24905        33.30005
C09  38038138.34525  -2827793.05925     -1066.08925        32.90025                                                                
C26  23224391.68825   -404447.36625      2089.53925        32.70025  23224628.22422 -10305446.91222      1167.98722        14.10022
E30  27397051.81625 -13301116.28325      -949.01925        31.80025                                                                
E12  26249767.96425 -14589098.49025       927.28925        30.30025  26249602.77825 -10453538.87425       700.99325        30.20025
E26  26184521.43325 -13540332.37125     -3536.49625        30.20025                                                                
R16  23696710.80825 126646327.69825      3928.64225        29.60025
R19  23046298.48025 123344996.51825     -4339.99125        29.80025
C34  25502210.28725    275714.30725     -2712.01725        30.10025                                                                
C36  25480867.16325 -14407324.11325     -3191.53225        30.00025  25480881.55325 -10865102.02725     -2404.23125        29.50025
C16  39969738.92624 -14141444.27224     -1387.25224        27.40024                                                                
R20  21784497.80624 116554317.09124     -2104.30124        27.30024
C22  24034164.99424 -14615016.05124     -2212.21624        26.50024  24034347.56724 -11021537.84824     -1669.76424        29.10024
E07  26552127.84424 -13892183.48124     -2212.44524        26.40024  26552134.44024 -10381841.13424     -1656.14224        24.10024
E19  24448216.75224 -13458297.89824       532.79124        26.10024                                                                
R21  23368508.51824 125112471.27324       869.99224        26.10024
R03  23553011.88924 126144000.10824     -2717.63024        23.60024
C14  26318343.69023 -10501680.52723      1837.91323        23.00023                                                                
E27  26196273.59723 -10889354.69223      1130.65923        22.40023                                                                
E21  27474720.84724 -14093566.13224      2183.61224        27.10024                                                                
> 2025 10 05 09 11 07.0000045  0 36                      
G03  21291371.59007    362487.34807     -2720.59007        44.10007  21291379.08506    262781.82006     -2030.97506        38.50006
G16  22692146.75407    -44947.06907       -98.45907        43.00007                                                                
G07  21684661.82116   -902709.10516      1272.71916        40.20016                                                                
G04  21404013.21016 -13386667.71316     -1696.82416        38.70016  21404014.10915  -7421752.58115     -1269.50715        33.60015
G09  20755999.22125    -81976.87125       170.96125        33.70025  20755967.14325  -6423766.47125       130.34925        29.50025
G01  24531762.01524 -10969646.09724     -4108.50224        28.80024                                                                
G11  24687763.81724   -520610.89224      1746.78324        27.10024  24687767.11423 -10093253.95023      1308.50923        20.60023
G30  23977862.17125 -11100506.50325      2560.39025        30.80025  23977681.99624  -7863027.68424      1911.34824        27.00024
G06  22487429.57625    -11917.87125      -371.10725        33.50025  22487407.09224    -16600.34524      -272.44024        23.90024
C13  40369673.45727     88797.28427     -1424.81627        45.00027                                                                
R15  20257599.05607 108313249.11707      2097.89807        41.90007
E29  23893076.96727     81710.90127      -939.87527        42.50027  23893076.36725   2143191.58325      -701.36425        33.70025
C21  22332629.64227    -50181.62527      -217.28627        43.50027  22332628.44306   2037098.06606      -163.74506        39.00006
R05  20852808.80126 111533018.00926       943.96226        37.50026
R04  20677949.75306 110792395.09406     -1202.40506        37.70006
E33  24325639.41026 -13374288.76826     -1833.18726        36.50026  24325617.82524   2235114.77324     -1366.56924        28.70024
R14  20645671.99915 110115676.47315     -1931.98915        35.30015
C26  23223990.26625   -406533.38125      2084.55225        33.00025  23224335.92722 -10306571.61322      1086.97922        14.20022
C09  38038364.08925  -2826720.09725     -1075.28125        32.90025                                                                
E30  27397233.19025 -13300161.77125      -956.32025        32.00025                                                                
E26  26185365.64925 -14843753.89225     -3544.68625        30.10025                                                                
E12  26249581.49325 -14590021.71525       921.76525        30.60025  26249426.80025 -10454231.53225       689.47625        29.50025
R19  23047098.32625 123349283.50025     -4349.48425        29.80025
R16  23695934.94625 126642191.16525      3926.72725        29.80025
C36  25481490.13125 -14404133.33625     -3189.99025        29.90025  25481495.22824 -10862696.26624     -2406.57924        29.40024
C34  25502709.14225    278428.18225     -2713.78125        30.00025                                                                
E21  27474317.32624 -14095744.41824      2176.52924        27.60024                                                                
C16  39969984.15624 -14140053.53524     -1391.36324        27.40024                                                                
R20  21784890.23424 116556423.48824     -2107.75924        27.30024
E07  26552566.74124 -13889960.63524     -2226.73524        26.70024  26552472.00623 -10380183.01123     -1659.97423        23.20023
E19  24448114.52324 -13458829.45424       533.02524        26.10024                                                                
R21  23368355.02424 125111658.12924       851.53724        26.10024
C22  24034575.41024 -14612805.85124     -2210.20024        26.30024  24034774.47224 -11019863.74324     -1674.10424        29.00024
R03  23553463.67624 126146427.34924     -2718.70424        23.90024
E27  26196074.23523 -10890483.76823      1129.69923        22.90023                                                                
C14  26317977.34323 -10503521.82123      1844.89723        23.00023                                                                
> 2025 10 05 09 11 08.0000049  0 35                      
G09  20755950.35515    -82147.30815       169.01515        35.30015  20755950.05524  -6423892.34124       123.48324        29.10024
G16  22692176.13307    -44845.21007      -104.21007        44.20007                                                                
G03  21291900.72407    365210.83607     -2725.55407        44.10007  21291907.61906    264815.51106     -2035.43306        38.40006
G07  21684433.07926   -903977.84626      1266.48126        40.10026                                                                
G04  21404335.48726 -13384964.90526     -1705.82526        38.60026  21404348.37805  -7420480.63605     -1273.41905        34.40005
G06  22487541.09925    -11540.00625      -381.33025        33.40025  22487490.13524    -16318.84024      -286.49524        23.70024
G30  23977386.70125 -11103062.89825      2553.56325        30.80025  23977206.22624  -7864936.51124      1908.03624        26.70024
G11  24687460.42724   -522351.46724      1737.47924        26.90024  24687439.74123 -10094566.96323      1315.75023        20.50023
R15  20257219.21907 108311167.13107      2091.81707        43.20007
C13  40369961.85717     90225.47617     -1430.41317        44.70017                                                                
E29  23893272.43217     82652.83417      -944.41617        42.20017  23893264.93725   2143895.71025      -705.70525        33.00025
C21  22332680.00717    -49960.71617      -223.55317        42.90017  22332680.90706   2037264.39106      -167.95806        38.90006
R05  20852621.13116 111531960.97516       942.43316        37.50016
R04  20678136.82426 110793344.42326     -1211.39426        37.50026
R14  20646046.14025 110117618.34525     -1933.35225        35.20025
E33  24325993.16526 -13372454.03926     -1836.21126        36.20026  24325979.67525   2236486.48625     -1373.51125        30.90025
C26  23223589.44425   -408614.19025      2078.20425        33.00025  23224061.61722 -10307659.33122      1069.22622        14.20022
C09  38038571.24525  -2825646.70825     -1073.60125        32.80025                                                                
E30  27397429.25425 -13299202.81125      -961.18325        32.00025  27397440.34724 -10788347.95224      -714.57124        25.80024
E12  26249405.21525 -14590940.75825       916.95225        30.80025  26249258.31724 -10454927.56724       697.72324        28.90024
R19  23047926.95225 123353662.33825     -4353.00525        30.10025
R16  23695151.28825 126637952.21625      3909.34525        29.80025
C34  25503217.89025    281152.58125     -2729.66025        29.90025                                                                
