NMEA,$GPGGA,091036.000,3205.0209,N,03448.1513,E,1,14,0.8,18.1,M,17.1,M,,*61,1759655436000
NMEA,$PSAMSA,091036.000,3205.0209,N,03448.1513,E,1,M,,*67,1759655436000
NMEA,$GPGLL,3205.0209,N,03448.1513,E,091036.000,A,A*56,1759655436000
NMEA,$GPVTG,0.0,T,,M,0.0,N,0.0,K,A*0D,1759655436000
NMEA,$GPGSV,5,1,17,01,10,175,28,03,48,124,42,04,49,040,30,06,37,284,34*79,1759655436000
NMEA,$GPGSV,5,2,17,07,49,223,42,09,55,327,31,11,12,317,27,16,26,080,41*77,1759655436000
NMEA,$GPGSV,5,3,17,26,10,045,27,30,17,224,30*7A,1759655436000
NMEA,$GPGSV,5,4,17,01,10,175,28,03,48,124,45,04,49,040,33,06,37,284,30,8*68,1759655436000
NMEA,$GPGSV,5,5,17,09,55,327,31,30,17,224,28,8*6D,1759655436000
NMEA,$GLGSV,2,1,08,67,10,090,23,68,42,049,34,69,40,336,35,78,44,056,35*65,1759655436000
NMEA,$GLGSV,2,2,08,79,50,144,33,80,08,184,29,83,15,216,33,85,13,321,25*63,1759655436000
NMEA,$GAGSV,5,1,17,107,23,063,27,112,26,311,27,119,39,288,26,121,15,159,27*66,1759655436000
NMEA,$GAGSV,5,2,17,126,26,184,28,127,29,106,21,129,61,004,45,130,14,055,32*6A,1759655436000
NMEA,$GAGSV,5,3,17,133,51,244,39*65,1759655436000
NMEA,$GAGSV,5,4,17,107,23,063,21,112,26,311,24,121,15,159,31,126,26,184,24,1*73,1759655436000
NMEA,$GAGSV,5,5,17,129,61,004,41,130,14,055,26,133,51,244,34,1*7C,1759655436000
NMEA,$BDGSV,4,1,12,206,29,043,20,209,44,045,31,213,10,133,29,214,08,300,24*6D,1759655436000
NMEA,$BDGSV,4,2,12,216,21,041,20,221,64,022,46,226,43,180,31,234,13,240,34*61,1759655436000
NMEA,$BDGSV,4,3,12,236,15,041,20*68,1759655436000
NMEA,$BDGSV,4,4,12,221,64,022,43,226,43,180,24,234,13,240,31,5*7B,1759655436000
NMEA,$GPGSA,A,3,07,16,,,,,,,,,,,1.4,0.8,1.2*3C,1759655436000
NMEA,$GAGSA,A,3,129,130,,,,,,,,,,,1.4,0.8,1.2*25,1759655436000
NMEA,$BDGSA,A,3,209,,,,,,,,,,,,1.4,0.8,1.2*16,1759655436000
NMEA,$PSSGR,GSA,A,3,03,04,06,09,30,,,,,,,,1.4,0.8,1.2,1,8*40,1759655436000
NMEA,$PSSGR,GSA,A,3,112,133,,,,,,,,,,,1.4,0.8,1.2,3,1*43,1759655436000
NMEA,$PSSGR,GSA,A,3,221,234,,,,,,,,,,,1.4,0.8,1.2,4,5*47,1759655436000
NMEA,$GPRMC,091036.000,A,3205.0209,N,03448.1513,E,0.0,,051025,,,A*4C,1759655436000
NMEA,$GPGGA,091037.000,3205.0209,N,03448.1513,E,1,22,0.6,18.1,M,17.1,M,,*6B,1759655437000
NMEA,$PSAMSA,091037.000,3205.0209,N,03448.1513,E,1,M,,*66,1759655437000
NMEA,$GPGLL,3205.0209,N,03448.1513,E,091037.000,A,A*57,1759655437000
NMEA,$GPVTG,0.0,T,,M,0.0,N,0.0,K,A*0D,1759655437000
NMEA,$GPGSV,5,1,17,01,10,175,29,03,48,124,42,04,49,040,30,06,37,284,34*78,1759655437000
NMEA,$GPGSV,5,2,17,07,49,223,42,09,55,327,31,11,12,317,28,16,26,080,41*78,1759655437000
NMEA,$GPGSV,5,3,17,26,10,045,27,30,17,224,33*79,1759655437000
NMEA,$GPGSV,5,4,17,01,10,175,28,03,48,124,44,04,49,040,33,06,37,284,29,8*61,1759655437000
NMEA,$GPGSV,5,5,17,09,55,327,31,30,17,224,28,8*6D,1759655437000
NMEA,$GLGSV,3,1,09,67,10,090,23,68,42,049,36,69,40,336,36,78,44,056,35*64,1759655437000
NMEA,$GLGSV,3,2,09,79,50,144,33,80,08,184,29,83,15,216,33,84,30,272,25*64,1759655437000
NMEA,$GLGSV,3,3,09,85,13,321,26*57,1759655437000
NMEA,$GAGSV,5,1,16,107,23,063,25,112,26,311,27,119,39,288,26,121,15,159,27*65,1759655437000
NMEA,$GAGSV,5,2,16,126,26,184,29,127,29,106,21,129,61,004,45,130,14,055,32*6A,1759655437000
NMEA,$GAGSV,5,3,16,133,51,244,39*64,1759655437000
NMEA,$GAGSV,5,4,16,112,26,311,24,121,15,159,31,126,26,184,24,129,61,004,41,1*7F,1759655437000
NMEA,$GAGSV,5,5,16,130,14,055,25,133,51,244,34,1*72,1759655437000
NMEA,$BDGSV,3,1,11,206,29,043,17,209,44,045,31,213,10,133,28,214,08,300,23*6B,1759655437000
NMEA,$BDGSV,3,2,11,216,21,041,17,221,64,022,46,226,43,180,31,234,13,240,33*66,1759655437000
NMEA,$BDGSV,3,3,11,221,64,022,42,234,13,240,31,236,15,041,17,5*77,1759655437000
NMEA,$GPGSA,A,3,07,16,,,,,,,,,,,1.2,0.6,1.0*36,1759655437000
NMEA,$GNGSA,A,3,68,69,78,79,83,,,,,,,,1.2,0.6,1.0*23,1759655437000
NMEA,$GAGSA,A,3,119,126,129,130,133,,,,,,,,1.2,0.6,1.0*12,1759655437000
NMEA,$BDGSA,A,3,209,226,,,,,,,,,,,1.2,0.6,1.0*2A,1759655437000
NMEA,$PSSGR,GSA,A,3,03,04,06,09,30,,,,,,,,1.2,0.6,1.0,1,8*4A,1759655437000
NMEA,$PSSGR,GSA,A,3,112,,,,,,,,,,,,1.2,0.6,1.0,3,1*78,1759655437000
NMEA,$PSSGR,GSA,A,3,221,234,,,,,,,,,,,1.2,0.6,1.0,4,5*4D,1759655437000
NMEA,$GPRMC,091037.000,A,3205.0209,N,03448.1513,E,0.0,,051025,,,A*4D,1759655437000
NMEA,$GPGGA,091038.000,3205.0206,N,03448.1514,E,1,23,0.4,17.7,M,17.1,M,,*66,1759655438000
NMEA,$PSAMSA,091038.000,3205.0206,N,03448.1514,E,0,M,,*60,1759655438000
NMEA,$GPGLL,3205.0206,N,03448.1514,E,091038.000,A,A*50,1759655438000
NMEA,$GPVTG,0.0,T,,M,0.2,N,0.4,K,A*0B,1759655438000
NMEA,$GPGSV,5,1,17,01,10,175,29,03,48,124,42,04,49,040,30,06,37,284,34*78,1759655438000
NMEA,$GPGSV,5,2,17,07,49,223,42,09,55,327,30,11,12,317,28,16,26,080,41*79,1759655438000
NMEA,$GPGSV,5,3,17,26,10,045,27,30,17,224,36*7C,1759655438000
NMEA,$GPGSV,5,4,17,01,10,175,27,03,48,124,43,04,49,040,32,06,37,284,29,8*68,1759655438000
NMEA,$GPGSV,5,5,17,09,55,327,30,30,17,224,32,8*67,1759655438000
NMEA,$GLGSV,3,1,09,67,10,090,23,68,42,049,42,69,40,336,36,78,44,056,35*67,1759655438000
NMEA,$GLGSV,3,2,09,79,50,144,33,80,08,184,30,83,15,216,33,84,30,272,25*6C,1759655438000
NMEA,$GLGSV,3,3,09,85,13,321,26*57,1759655438000
NMEA,$GAGSV,5,1,17,107,23,063,24,112,26,311,28,119,39,288,26,121,15,159,27*6A,1759655438000
NMEA,$GAGSV,5,2,17,126,26,184,29,127,29,106,21,129,61,004,46,130,14,055,32*68,1759655438000
NMEA,$GAGSV,5,3,17,133,51,244,39*65,1759655438000
NMEA,$GAGSV,5,4,17,112,26,311,23,121,15,159,31,126,26,184,24,129,61,004,40,1*78,1759655438000
NMEA,$GAGSV,5,5,17,130,14,055,25,133,51,244,33,1*74,1759655438000
NMEA,$BDGSV,4,1,12,206,29,043,14,209,44,045,31,213,10,133,31,214,08,300,23*64,1759655438000
NMEA,$BDGSV,4,2,12,216,21,041,14,221,64,022,46,226,43,180,29,234,13,240,33*68,1759655438000
NMEA,$BDGSV,4,3,12,236,15,041,14*6F,1759655438000
NMEA,$BDGSV,4,4,12,221,64,022,42,234,13,240,31,5*74,1759655438000
NMEA,$GPGSA,A,3,07,16,,,,,,,,,,,1.0,0.4,0.8*3F,1759655438000
NMEA,$GNGSA,A,3,68,69,78,79,80,83,,,,,,,1.0,0.4,0.8*22,1759655438000
NMEA,$GAGSA,A,3,127,129,130,133,,,,,,,,,1.0,0.4,0.8*23,1759655438000
NMEA,$BDGSA,A,3,209,213,214,,,,,,,,,,1.0,0.4,0.8*12,1759655438000
NMEA,$PSSGR,GSA,A,3,01,03,04,06,09,30,,,,,,,1.0,0.4,0.8,1,8*42,1759655438000
NMEA,$PSSGR,GSA,A,3,221,234,,,,,,,,,,,1.0,0.4,0.8,4,5*44,1759655438000
NMEA,$GPRMC,091038.000,A,3205.0206,N,03448.1514,E,0.2,0.0,051025,,,A*66,1759655438000
NMEA,$GPGGA,091039.000,3205.0205,N,03448.1518,E,1,22,0.4,17.0,M,17.1,M,,*6E,1759655439000
NMEA,$PSAMSA,091039.000,3205.0205,N,03448.1518,E,0,M,,*6E,1759655439000
NMEA,$GPGLL,3205.0205,N,03448.1518,E,091039.000,A,A*5E,1759655439000
NMEA,$GPVTG,0.0,T,,M,0.3,N,0.5,K,A*0B,1759655439000
NMEA,$GPGSV,5,1,17,03,48,124,42,04,49,040,38,06,37,284,34,07,49,223,42*77,1759655439000
NMEA,$GPGSV,5,2,17,09,55,327,31,11,12,317,28,16,26,080,41,26,10,045,27*76,1759655439000
NMEA,$GPGSV,5,3,17,30,17,224,36*4D,1759655439000
NMEA,$GPGSV,5,4,17,01,10,175,27,03,48,124,43,04,49,040,31,06,37,284,28,8*6A,1759655439000
NMEA,$GPGSV,5,5,17,09,55,327,30,30,17,224,32,8*67,1759655439000
NMEA,$GLGSV,3,1,09,67,10,090,23,68,42,049,42,69,40,336,37,78,44,056,35*66,1759655439000
NMEA,$GLGSV,3,2,09,79,50,144,33,80,08,184,30,83,15,216,33,84,30,272,25*6C,1759655439000
NMEA,$GLGSV,3,3,09,85,13,321,26*57,1759655439000
NMEA,$GAGSV,5,1,16,107,23,063,25,112,26,311,29,119,39,288,26,121,15,159,27*6B,1759655439000
NMEA,$GAGSV,5,2,16,126,26,184,30,127,29,106,22,129,61,004,46,130,14,055,32*62,1759655439000
NMEA,$GAGSV,5,3,16,133,51,244,38*65,1759655439000
NMEA,$GAGSV,5,4,16,121,15,159,31,126,26,184,24,129,61,004,40,130,14,055,25,1*7D,1759655439000
NMEA,$GAGSV,5,5,16,133,51,244,33,1*75,1759655439000
NMEA,$BDGSV,4,1,12,206,29,043,12,209,44,045,31,213,10,133,35,214,08,300,23*66,1759655439000
NMEA,$BDGSV,4,2,12,216,21,041,13,221,64,022,46,226,43,180,30,234,13,240,32*66,1759655439000
NMEA,$BDGSV,4,3,12,236,15,041,12*69,1759655439000
NMEA,$BDGSV,4,4,12,221,64,022,42,234,13,240,30,5*75,1759655439000
NMEA,$GPGSA,A,3,07,16,,,,,,,,,,,1.0,0.4,0.8*3F,1759655439000
NMEA,$GNGSA,A,3,68,69,78,79,80,83,,,,,,,1.0,0.4,0.8*22,1759655439000
NMEA,$GAGSA,A,3,112,126,129,130,,,,,,,,,1.0,0.4,0.8*21,1759655439000
NMEA,$BDGSA,A,3,209,213,214,,,,,,,,,,1.0,0.4,0.8*12,1759655439000
NMEA,$PSSGR,GSA,A,3,03,04,06,09,,,,,,,,,1.0,0.4,0.8,1,8*40,1759655439000
NMEA,$PSSGR,GSA,A,3,221,234,,,,,,,,,,,1.0,0.4,0.8,4,5*44,1759655439000
NMEA,$GPRMC,091039.000,A,3205.0205,N,03448.1518,E,0.3,0.0,051025,,,A*69,1759655439000
NMEA,$GPGGA,091040.000,3205.0207,N,03448.1523,E,1,18,0.6,16.9,M,17.1,M,,*69,1759655440000
NMEA,$PSAMSA,091040.000,3205.0207,N,03448.1523,E,0,M,,*6A,1759655440000
NMEA,$GPGLL,3205.0207,N,03448.1523,E,091040.000,A,A*5A,1759655440000
NMEA,$GPVTG,67.8,T,,M,0.5,N,0.9,K,A*38,1759655440000
NMEA,$GPGSV,5,1,17,01,10,175,28,03,48,124,42,04,49,040,41,06,37,284,34*7F,1759655440000
NMEA,$GPGSV,5,2,17,07,49,223,42,09,55,327,31,11,12,317,28,16,26,080,41*78,1759655440000
NMEA,$GPGSV,5,3,17,26,10,045,27,30,17,224,36*7C,1759655440000
NMEA,$GPGSV,5,4,17,01,10,175,26,03,48,124,42,04,49,040,31,06,37,284,28,8*6A,1759655440000
NMEA,$GPGSV,5,5,17,09,55,327,29,30,17,224,31,8*6C,1759655440000
NMEA,$GLGSV,3,1,09,67,10,090,23,68,42,049,42,69,40,336,37,78,44,056,35*66,1759655440000
NMEA,$GLGSV,3,2,09,79,50,144,33,80,08,184,30,83,15,216,33,84,30,272,27*6E,1759655440000
NMEA,$GLGSV,3,3,09,85,13,321,27*56,1759655440000
NMEA,$GAGSV,4,1,16,107,23,063,25,112,26,311,29,119,39,288,25,121,00,000,30*66,1759655440000
NMEA,$GAGSV,4,2,16,126,26,184,30,127,29,106,22,129,61,004,46,130,14,055,32*63,1759655440000
NMEA,$GAGSV,4,3,16,133,51,244,38*64,1759655440000
NMEA,$GAGSV,4,4,16,121,15,159,26,126,26,184,24,129,61,004,39,133,51,244,32,1*72,1759655440000
NMEA,$BDGSV,3,1,09,209,44,045,32,213,10,133,35,214,08,300,23,221,64,022,46*62,1759655440000
NMEA,$BDGSV,3,2,09,226,43,180,30,234,13,240,31*68,1759655440000
NMEA,$BDGSV,3,3,09,221,64,022,41,234,13,240,30,5*7C,1759655440000
NMEA,$GPGSA,A,3,16,,,,,,,,,,,,1.0,0.6,0.8*3A,1759655440000
NMEA,$GNGSA,A,3,68,69,79,,,,,,,,,,1.0,0.6,0.8*2C,1759655440000
NMEA,$GAGSA,A,3,129,130,133,,,,,,,,,,1.0,0.6,0.8*15,1759655440000
NMEA,$BDGSA,A,3,209,213,214,221,226,,,,,,,,1.0,0.6,0.8*17,1759655440000
NMEA,$PSSGR,GSA,A,3,03,04,06,09,30,,,,,,,,1.0,0.6,0.8,1,8*41,1759655440000
NMEA,$PSSGR,GSA,A,3,234,,,,,,,,,,,,1.0,0.6,0.8,4,5*77,1759655440000
NMEA,$GPRMC,091040.000,A,3205.0207,N,03448.1523,E,0.5,67.8,051025,,,A*52,1759655440000
NMEA,$GPGGA,091041.000,3205.0206,N,03448.1528,E,1,21,0.4,16.5,M,17.1,M,,*66,1759655441000
NMEA,$PSAMSA,091041.000,3205.0206,N,03448.1528,E,0,M,,*61,1759655441000
NMEA,$GPGLL,3205.0206,N,03448.1528,E,091041.000,A,A*51,1759655441000
NMEA,$GPVTG,106.0,T,,M,0.9,N,1.6,K,A*04,1759655441000
NMEA,$GPGSV,5,1,17,01,10,175,28,03,48,124,43,04,49,040,41,06,37,284,34*7E,1759655441000
NMEA,$GPGSV,5,2,17,07,49,223,42,09,55,327,32,11,12,317,28,16,26,080,41*7B,1759655441000
NMEA,$GPGSV,5,3,17,26,10,045,27,30,17,224,36*7C,1759655441000
NMEA,$GPGSV,5,4,17,01,10,175,26,03,48,124,42,04,49,040,31,06,37,284,27,8*65,1759655441000
NMEA,$GPGSV,5,5,17,09,55,327,29,11,12,317,20,30,17,224,31,8*58,1759655441000
NMEA,$GLGSV,3,1,09,67,10,090,23,68,42,049,42,69,40,336,37,78,44,056,35*66,1759655441000
NMEA,$GLGSV,3,2,09,79,50,144,33,80,08,184,30,83,15,216,31,84,30,272,27*6C,1759655441000
NMEA,$GLGSV,3,3,09,85,13,321,27*56,1759655441000
NMEA,$GAGSV,5,1,17,107,23,063,25,112,26,311,30,119,39,288,25,121,15,159,24*62,1759655441000
NMEA,$GAGSV,5,2,17,126,26,184,30,127,29,106,22,129,61,004,46,130,14,055,32*63,1759655441000
NMEA,$GAGSV,5,3,17,133,51,244,38*64,1759655441000
NMEA,$GAGSV,5,4,17,112,26,311,28,121,15,159,32,126,26,184,24,129,61,004,39,1*7E,1759655441000
NMEA,$GAGSV,5,5,17,133,51,244,32,1*75,1759655441000
NMEA,$BDGSV,3,1,09,209,44,045,32,213,10,133,35,214,08,300,23,221,64,022,46*62,1759655441000
NMEA,$BDGSV,3,2,09,226,43,180,30,234,13,240,31*68,1759655441000
NMEA,$BDGSV,3,3,09,221,64,022,41,234,13,240,29,5*74,1759655441000
NMEA,$GPGSA,A,3,07,16,,,,,,,,,,,1.0,0.4,0.8*3F,1759655441000
NMEA,$GNGSA,A,3,68,69,78,79,,,,,,,,,1.0,0.4,0.8*21,1759655441000
NMEA,$GAGSA,A,3,129,130,133,,,,,,,,,,1.0,0.4,0.8*17,1759655441000
NMEA,$BDGSA,A,3,209,213,214,221,226,234,,,,,,,1.0,0.4,0.8*20,1759655441000
NMEA,$PSSGR,GSA,A,3,01,03,04,06,09,30,,,,,,,1.0,0.4,0.8,1,8*42,1759655441000
NMEA,$GPRMC,091041.000,A,3205.0206,N,03448.1528,E,0.9,106.0,051025,,,A*6B,1759655441000
NMEA,$GPGGA,091042.000,3205.0206,N,03448.1533,E,1,19,0.6,16.2,M,17.1,M,,*61,1759655442000
NMEA,$PSAMSA,091042.000,3205.0206,N,03448.1533,E,0,M,,*68,1759655442000
NMEA,$GPGLL,3205.0206,N,03448.1533,E,091042.000,A,A*58,1759655442000
NMEA,$GPVTG,46.0,T,,M,0.9,N,1.7,K,A*30,1759655442000
NMEA,$GPGSV,5,1,17,03,48,124,43,04,49,040,40,06,37,284,34,07,49,223,42*79,1759655442000
NMEA,$GPGSV,5,2,17,09,55,327,32,11,12,317,28,16,26,080,41,30,17,224,35*73,1759655442000
NMEA,$GPGSV,5,3,17*79,1759655442000
NMEA,$GPGSV,5,4,17,01,10,175,26,03,48,124,41,04,49,040,31,06,37,284,27,8*66,1759655442000
NMEA,$GPGSV,5,5,17,09,55,327,29,11,12,317,21,30,17,224,30,8*58,1759655442000
NMEA,$GLGSV,3,1,09,67,10,090,23,68,42,049,41,69,40,336,37,78,44,056,36*66,1759655442000
NMEA,$GLGSV,3,2,09,79,50,144,33,80,08,184,30,83,15,216,31,84,30,272,27*6C,1759655442000
NMEA,$GLGSV,3,3,09,85,13,321,27*56,1759655442000
NMEA,$GAGSV,5,1,17,107,23,063,26,112,26,311,30,119,39,288,25,121,15,159,25*60,1759655442000
NMEA,$GAGSV,5,2,17,126,26,184,30,127,29,106,22,129,61,004,46,130,14,055,32*63,1759655442000
NMEA,$GAGSV,5,3,17,133,51,244,38*64,1759655442000
NMEA,$GAGSV,5,4,17,112,26,311,34,121,15,159,32,126,26,184,23,129,61,004,39,1*74,1759655442000
NMEA,$GAGSV,5,5,17,133,51,244,32,1*75,1759655442000
NMEA,$BDGSV,3,1,09,209,44,045,32,213,10,133,35,214,08,300,23,221,64,022,47*63,1759655442000
NMEA,$BDGSV,3,2,09,226,43,180,31,234,13,240,31*69,1759655442000
NMEA,$BDGSV,3,3,09,221,64,022,41,234,13,240,28,5*75,1759655442000
NMEA,$GPGSA,A,3,07,16,,,,,,,,,,,1.2,0.6,1.0*36,1759655442000
NMEA,$GNGSA,A,3,68,69,78,79,,,,,,,,,1.2,0.6,1.0*28,1759655442000
NMEA,$GAGSA,A,3,130,,,,,,,,,,,,1.2,0.6,1.0*15,1759655442000
NMEA,$BDGSA,A,3,209,213,221,226,,,,,,,,,1.2,0.6,1.0*2B,1759655442000
NMEA,$PSSGR,GSA,A,3,01,03,04,06,09,30,,,,,,,1.2,0.6,1.0,1,8*4B,1759655442000
NMEA,$PSSGR,GSA,A,3,112,,,,,,,,,,,,1.2,0.6,1.0,3,1*78,1759655442000
NMEA,$PSSGR,GSA,A,3,234,,,,,,,,,,,,1.2,0.6,1.0,4,5*7C,1759655442000
NMEA,$GPRMC,091042.000,A,3205.0206,N,03448.1533,E,0.9,46.0,051025,,,A*57,1759655442000
NMEA,$GPGGA,091043.000,3205.0204,N,03448.1534,E,1,22,0.4,15.2,M,17.1,M,,*6C,1759655443000
NMEA,$PSAMSA,091043.000,3205.0204,N,03448.1534,E,0,M,,*6C,1759655443000
NMEA,$GPGLL,3205.0204,N,03448.1534,E,091043.000,A,A*5C,1759655443000
NMEA,$GPVTG,85.4,T,,M,0.7,N,1.3,K,A*31,1759655443000
NMEA,$GPGSV,5,1,17,01,10,175,28,03,48,124,43,04,49,040,40,06,37,284,34*7F,1759655443000
NMEA,$GPGSV,5,2,17,07,49,223,42,09,55,327,33,11,12,317,28,16,26,080,41*7A,1759655443000
NMEA,$GPGSV,5,3,17,30,17,224,34*4F,1759655443000
NMEA,$GPGSV,5,4,17,01,10,175,25,03,48,124,41,04,49,040,32,06,37,284,26,8*67,1759655443000
NMEA,$GPGSV,5,5,17,09,55,327,28,11,12,317,21,30,17,224,30,8*59,1759655443000
NMEA,$GLGSV,3,1,09,67,10,090,23,68,42,049,40,69,40,336,37,78,44,056,36*67,1759655443000
NMEA,$GLGSV,3,2,09,79,50,144,34,80,08,184,30,83,15,216,31,84,30,272,27*6B,1759655443000
NMEA,$GLGSV,3,3,09,85,13,321,27*56,1759655443000
NMEA,$GAGSV,5,1,17,107,23,063,26,112,26,311,30,119,39,288,25,121,15,159,25*60,1759655443000
NMEA,$GAGSV,5,2,17,126,26,184,30,127,29,106,22,129,61,004,46,130,14,055,32*63,1759655443000
NMEA,$GAGSV,5,3,17,133,51,244,38*64,1759655443000
NMEA,$GAGSV,5,4,17,112,26,311,33,121,15,159,31,126,26,184,23,129,61,004,38,1*71,1759655443000
NMEA,$GAGSV,5,5,17,133,51,244,31,1*76,1759655443000
NMEA,$BDGSV,3,1,10,209,44,045,32,213,10,133,35,214,08,300,23,216,21,041,27*6D,1759655443000
NMEA,$BDGSV,3,2,10,221,64,022,47,226,43,180,32,234,13,240,31*62,1759655443000
NMEA,$BDGSV,3,3,10,221,64,022,40,234,13,240,28,5*7C,1759655443000
NMEA,$GPGSA,A,3,07,16,,,,,,,,,,,1.0,0.4,1.0*36,1759655443000
NMEA,$GNGSA,A,3,68,69,78,79,,,,,,,,,1.0,0.4,1.0*28,1759655443000
NMEA,$GAGSA,A,3,126,129,130,133,,,,,,,,,1.0,0.4,1.0*2B,1759655443000
NMEA,$BDGSA,A,3,209,213,221,226,,,,,,,,,1.0,0.4,1.0*2B,1759655443000
NMEA,$PSSGR,GSA,A,3,01,03,04,06,09,30,,,,,,,1.0,0.4,1.0,1,8*4B,1759655443000
NMEA,$PSSGR,GSA,A,3,112,,,,,,,,,,,,1.0,0.4,1.0,3,1*78,1759655443000
NMEA,$PSSGR,GSA,A,3,234,,,,,,,,,,,,1.0,0.4,1.0,4,5*7C,1759655443000
NMEA,$GPRMC,091043.000,A,3205.0204,N,03448.1534,E,0.7,85.4,051025,,,A*56,1759655443000
NMEA,$GPGGA,091044.000,3205.0205,N,03448.1539,E,1,22,0.4,14.5,M,17.1,M,,*61,1759655444000
NMEA,$PSAMSA,091044.000,3205.0205,N,03448.1539,E,0,M,,*67,1759655444000
NMEA,$GPGLL,3205.0205,N,03448.1539,E,091044.000,A,A*57,1759655444000
NMEA,$GPVTG,76.9,T,,M,1.3,N,2.4,K,A*31,1759655444000
NMEA,$GPGSV,5,1,17,01,10,175,28,03,48,124,43,04,49,040,40,06,37,284,33*78,1759655444000
NMEA,$GPGSV,5,2,17,07,49,223,41,09,55,327,33,11,12,317,28,16,26,080,41*79,1759655444000
NMEA,$GPGSV,5,3,17*79,1759655444000
NMEA,$GPGSV,5,4,17,01,10,175,25,03,48,124,40,04,49,040,32,06,37,284,26,8*66,1759655444000
NMEA,$GPGSV,5,5,17,09,55,327,28,11,12,317,21,30,17,224,29,8*51,1759655444000
NMEA,$GLGSV,3,1,09,67,10,090,23,68,42,049,40,69,40,336,37,78,44,056,36*67,1759655444000
NMEA,$GLGSV,3,2,09,79,50,144,34,80,08,184,30,83,15,216,30,84,30,272,26*6B,1759655444000
NMEA,$GLGSV,3,3,09,85,13,321,27*56,1759655444000
NMEA,$GAGSV,5,1,15,107,23,063,26,112,26,311,30,119,39,288,26,121,15,159,26*62,1759655444000
NMEA,$GAGSV,5,2,15,126,26,184,30,127,29,106,22,129,61,004,45,130,14,055,32*62,1759655444000
NMEA,$GAGSV,5,3,15,133,51,244,37*69,1759655444000
NMEA,$GAGSV,5,4,15,107,23,063,24,112,26,311,33,126,26,184,23,129,61,004,38,1*7E,1759655444000
NMEA,$GAGSV,5,5,15,133,51,244,31,1*74,1759655444000
NMEA,$BDGSV,4,1,12,206,29,043,30,209,44,045,32,213,10,133,35,214,08,300,23*65,1759655444000
NMEA,$BDGSV,4,2,12,216,21,041,27,221,64,022,47,226,43,180,32,234,13,240,31*61,1759655444000
NMEA,$BDGSV,4,3,12,236,15,041,28*60,1759655444000
NMEA,$BDGSV,4,4,12,221,64,022,40,226,43,180,19,234,13,240,28,5*7E,1759655444000
NMEA,$GPGSA,A,3,07,16,,,,,,,,,,,1.0,0.4,0.8*3F,1759655444000
NMEA,$GNGSA,A,3,68,69,78,79,,,,,,,,,1.0,0.4,0.8*21,1759655444000
NMEA,$GAGSA,A,3,126,130,133,,,,,,,,,,1.0,0.4,0.8*18,1759655444000
NMEA,$BDGSA,A,3,209,213,214,221,226,234,,,,,,,1.0,0.4,0.8*20,1759655444000
NMEA,$PSSGR,GSA,A,3,01,03,04,06,09,,,,,,,,1.0,0.4,0.8,1,8*41,1759655444000
NMEA,$PSSGR,GSA,A,3,112,129,,,,,,,,,,,1.0,0.4,0.8,3,1*4B,1759655444000
NMEA,$GPRMC,091044.000,A,3205.0205,N,03448.1539,E,1.3,76.9,051025,,,A*59,1759655444000
NMEA,$GPGGA,091045.000,3205.0204,N,03448.1541,E,1,22,0.4,14.4,M,17.1,M,,*6F,1759655445000
NMEA,$PSAMSA,091045.000,3205.0204,N,03448.1541,E,0,M,,*68,1759655445000
NMEA,$GPGLL,3205.0204,N,03448.1541,E,091045.000,A,A*58,1759655445000
NMEA,$GPVTG,101.6,T,,M,0.7,N,1.3,K,A*0E,1759655445000
NMEA,$GPGSV,5,1,17,03,48,124,44,04,49,040,40,06,37,284,33,07,49,223,41*7A,1759655445000
NMEA,$GPGSV,5,2,17,09,55,327,33,11,12,317,28,16,26,080,42,30,17,224,30*74,1759655445000
NMEA,$GPGSV,5,3,17*79,1759655445000
NMEA,$GPGSV,5,4,17,01,10,175,24,03,48,124,40,04,49,040,33,06,37,284,25,8*65,1759655445000
NMEA,$GPGSV,5,5,17,09,55,327,28,11,12,317,21,30,17,224,28,8*50,1759655445000
NMEA,$GLGSV,3,1,09,67,10,090,23,68,42,049,39,69,40,336,37,78,44,056,36*69,1759655445000
NMEA,$GLGSV,3,2,09,79,50,144,34,80,08,184,30,83,15,216,30,84,30,272,27*6A,1759655445000
NMEA,$GLGSV,3,3,09,85,13,321,27*56,1759655445000
NMEA,$GAGSV,4,1,15,107,23,063,26,112,26,311,30,119,39,288,26,121,15,159,26*63,1759655445000
NMEA,$GAGSV,4,2,15,126,26,184,30,127,29,106,22,129,61,004,45,130,14,055,32*63,1759655445000
NMEA,$GAGSV,4,3,15,133,51,244,37*68,1759655445000
NMEA,$GAGSV,4,4,15,107,23,063,24,112,26,311,32,129,61,004,37,133,51,244,30,1*78,1759655445000
NMEA,$BDGSV,4,1,12,206,29,043,28,209,44,045,32,213,10,133,36,214,08,300,23*6F,1759655445000
NMEA,$BDGSV,4,2,12,216,21,041,26,221,64,022,47,226,43,180,32,234,13,240,31*60,1759655445000
NMEA,$BDGSV,4,3,12,236,15,041,27*6F,1759655445000
NMEA,$BDGSV,4,4,12,221,64,022,40,226,43,180,19,234,13,240,27,5*71,1759655445000
NMEA,$GPGSA,A,3,07,16,,,,,,,,,,,1.0,0.4,1.0*36,1759655445000
NMEA,$GNGSA,A,3,68,69,78,79,,,,,,,,,1.0,0.4,1.0*28,1759655445000
NMEA,$GAGSA,A,3,126,129,130,133,,,,,,,,,1.0,0.4,1.0*2B,1759655445000
NMEA,$BDGSA,A,3,209,213,221,226,234,,,,,,,,1.0,0.4,1.0*1E,1759655445000
NMEA,$PSSGR,GSA,A,3,03,04,06,09,30,,,,,,,,1.0,0.4,1.0,1,8*4A,1759655445000
NMEA,$PSSGR,GSA,A,3,107,112,,,,,,,,,,,1.0,0.4,1.0,3,1*4E,1759655445000
NMEA,$GPRMC,091045.000,A,3205.0204,N,03448.1541,E,0.7,101.6,051025,,,A*6D,1759655445000
NMEA,$GPGGA,091046.000,3205.0201,N,03448.1544,E,1,15,0.8,14.0,M,17.1,M,,*60,1759655446000
NMEA,$PSAMSA,091046.000,3205.0201,N,03448.1544,E,0,M,,*6B,1759655446000
NMEA,$GPGLL,3205.0201,N,03448.1544,E,091046.000,A,A*5B,1759655446000
NMEA,$GPVTG,101.8,T,,M,1.5,N,2.7,K,A*04,1759655446000
NMEA,$GPGSV,5,1,17,01,10,175,28,03,48,124,44,04,49,040,39,06,37,284,33*71,1759655446000
NMEA,$GPGSV,5,2,17,07,49,223,41,09,55,327,33,11,12,317,28,16,26,080,42*7A,1759655446000
NMEA,$GPGSV,5,3,17,30,17,224,31*4A,1759655446000
NMEA,$GPGSV,5,4,17,01,10,175,24,03,48,124,40,04,49,040,33,06,37,284,25,8*65,1759655446000
NMEA,$GPGSV,5,5,17,09,55,327,27,11,12,317,21,26,10,045,14,30,17,224,28,8*6E,1759655446000
NMEA,$GLGSV,3,1,09,67,10,090,23,68,42,049,39,69,40,336,38,78,44,056,36*66,1759655446000
NMEA,$GLGSV,3,2,09,79,50,144,33,80,08,184,30,83,15,216,30,84,30,272,27*6D,1759655446000
NMEA,$GLGSV,3,3,09,85,13,321,26*57,1759655446000
NMEA,$GAGSV,4,1,15,107,23,063,26,112,26,311,30,119,39,288,26,121,15,159,26*63,1759655446000
NMEA,$GAGSV,4,2,15,126,26,184,30,127,29,106,22,129,61,004,44,130,14,055,32*62,1759655446000
NMEA,$GAGSV,4,3,15,133,51,244,37*68,1759655446000
NMEA,$GAGSV,4,4,15,107,23,063,24,112,26,311,32,129,61,004,37,133,51,244,30,1*78,1759655446000
NMEA,$BDGSV,4,1,13,206,29,043,27,209,44,045,32,213,10,133,46,214,08,300,23*66,1759655446000
NMEA,$BDGSV,4,2,13,216,21,041,27,221,64,022,46,226,43,180,32,234,13,240,30*60,1759655446000
NMEA,$BDGSV,4,3,13,236,15,041,29*60,1759655446000
NMEA,$BDGSV,4,4,13,221,64,022,40,226,43,180,17,234,13,240,27,236,15,041,24,5*7E,1759655446000
NMEA,$GPGSA,A,3,16,,,,,,,,,,,,1.6,0.8,1.4*3F,1759655446000
NMEA,$GNGSA,A,3,68,69,,,,,,,,,,,1.6,0.8,1.4*27,1759655446000
NMEA,$GAGSA,A,3,119,121,129,130,133,,,,,,,,1.6,0.8,1.4*1B,1759655446000
NMEA,$BDGSA,A,3,209,213,221,,,,,,,,,,1.6,0.8,1.4*13,1759655446000
NMEA,$PSSGR,GSA,A,3,03,04,06,09,,,,,,,,,1.6,0.8,1.4,1,8*47,1759655446000
NMEA,$GPRMC,091046.000,A,3205.0201,N,03448.1544,E,1.5,101.8,051025,,,A*63,1759655446000
NMEA,$GPGGA,091047.000,3205.0201,N,03448.1553,E,1,19,0.6,13.3,M,17.1,M,,*61,1759655447000
NMEA,$PSAMSA,091047.000,3205.0201,N,03448.1553,E,0,M,,*6C,1759655447000
NMEA,$GPGLL,3205.0201,N,03448.1553,E,091047.000,A,A*5C,1759655447000
NMEA,$GPVTG,101.2,T,,M,2.0,N,3.7,K,A*09,1759655447000
NMEA,$GPGSV,5,1,17,01,10,175,28,03,48,124,44,04,49,040,39,06,37,284,33*71,1759655447000
NMEA,$GPGSV,5,2,17,07,49,223,41,09,55,327,34,11,12,317,27,16,26,080,42*72,1759655447000
NMEA,$GPGSV,5,3,17,30,17,224,31*4A,1759655447000
NMEA,$GPGSV,5,4,17,01,10,175,24,03,48,124,39,04,49,040,33,06,37,284,25,8*6B,1759655447000
NMEA,$GPGSV,5,5,17,09,55,327,27,11,12,317,21,30,17,224,28,8*5F,1759655447000
NMEA,$GLGSV,3,1,09,67,09,090,23,68,42,049,38,69,40,337,38,78,44,056,36*6E,1759655447000
NMEA,$GLGSV,3,2,09,79,50,143,33,80,09,184,28,83,15,216,30,84,29,272,27*6A,1759655447000
NMEA,$GLGSV,3,3,09,85,13,321,26*57,1759655447000
NMEA,$GAGSV,4,1,16,107,23,063,26,112,26,311,30,119,39,288,26,121,15,159,27*61,1759655447000
NMEA,$GAGSV,4,2,16,126,26,184,30,127,29,106,22,129,61,004,44,130,14,055,32*61,1759655447000
NMEA,$GAGSV,4,3,16,133,51,244,37*6B,1759655447000
NMEA,$GAGSV,4,4,16,107,23,063,23,112,26,311,31,129,61,004,36,133,51,244,29,1*76,1759655447000
NMEA,$BDGSV,4,1,13,206,29,043,25,209,44,045,32,213,10,133,46,214,08,300,23*64,1759655447000
NMEA,$BDGSV,4,2,13,216,21,041,27,221,64,022,46,226,43,180,33,234,13,240,30*61,1759655447000
NMEA,$BDGSV,4,3,13,236,15,041,30*68,1759655447000
NMEA,$BDGSV,4,4,13,221,64,022,39,226,43,180,16,234,13,240,26,236,15,041,28,5*7C,1759655447000
NMEA,$GPGSA,A,3,07,16,,,,,,,,,,,1.4,0.6,1.2*32,1759655447000
NMEA,$GNGSA,A,3,68,69,78,79,83,,,,,,,,1.4,0.6,1.2*27,1759655447000
NMEA,$GAGSA,A,3,119,126,129,130,133,,,,,,,,1.4,0.6,1.2*16,1759655447000
NMEA,$BDGSA,A,3,209,213,221,,,,,,,,,,1.4,0.6,1.2*19,1759655447000
NMEA,$PSSGR,GSA,A,3,03,04,06,09,,,,,,,,,1.4,0.6,1.2,1,8*4D,1759655447000
NMEA,$GPRMC,091047.000,A,3205.0201,N,03448.1553,E,2.0,101.2,051025,,,A*68,1759655447000
NMEA,$GPGGA,091048.000,3205.0198,N,03448.1559,E,1,15,0.6,13.0,M,17.1,M,,*68,1759655448000
NMEA,$PSAMSA,091048.000,3205.0198,N,03448.1559,E,0,M,,*6A,1759655448000
NMEA,$GPGLL,3205.0198,N,03448.1559,E,091048.000,A,A*5A,1759655448000
NMEA,$GPVTG,101.0,T,,M,1.9,N,3.6,K,A*00,1759655448000
NMEA,$GPGSV,5,1,15,01,10,175,28,03,48,124,44,04,49,040,39,06,37,284,34*74,1759655448000
NMEA,$GPGSV,5,2,15,07,49,223,40,09,55,327,34,11,12,317,27,16,26,080,42*71,1759655448000
NMEA,$GPGSV,5,3,15,30,17,224,31*48,1759655448000
NMEA,$GPGSV,5,4,15,03,48,124,39,04,49,040,33,06,37,284,24,09,55,327,27,8*67,1759655448000
NMEA,$GPGSV,5,5,15,11,12,317,21,30,17,224,27,8*68,1759655448000
NMEA,$GLGSV,3,1,09,67,09,090,24,68,42,049,38,69,40,337,38,78,44,056,35*6A,1759655448000
NMEA,$GLGSV,3,2,09,79,50,143,33,80,09,184,30,83,15,216,30,84,29,272,27*63,1759655448000
NMEA,$GLGSV,3,3,09,85,13,321,26*57,1759655448000
NMEA,$GAGSV,4,1,16,107,23,063,26,112,26,311,30,119,39,288,26,121,15,159,27*61,1759655448000
NMEA,$GAGSV,4,2,16,126,26,184,30,127,29,106,22,129,61,004,43,130,14,055,32*66,1759655448000
NMEA,$GAGSV,4,3,16,133,51,244,37*6B,1759655448000
NMEA,$GAGSV,4,4,16,107,23,063,24,112,26,311,31,129,61,004,35,133,51,244,29,1*72,1759655448000
NMEA,$BDGSV,4,1,14,206,29,043,22,209,44,045,33,213,10,133,45,214,08,300,23*66,1759655448000
NMEA,$BDGSV,4,2,14,216,21,041,27,221,64,022,45,222,30,093,27,226,43,180,33*69,1759655448000
NMEA,$BDGSV,4,3,14,234,13,240,30,236,15,041,30*6D,1759655448000
NMEA,$BDGSV,4,4,14,221,64,022,39,222,30,093,29,226,43,180,14,236,15,041,30,5*75,1759655448000
NMEA,$GPGSA,A,3,16,,,,,,,,,,,,1.4,0.6,1.2*35,1759655448000
NMEA,$GNGSA,A,3,69,79,,,,,,,,,,,1.4,0.6,1.2*2D,1759655448000
NMEA,$GAGSA,A,3,119,129,130,133,,,,,,,,,1.4,0.6,1.2*23,1759655448000
NMEA,$BDGSA,A,3,209,213,,,,,,,,,,,1.4,0.6,1.2*28,1759655448000
NMEA,$PSSGR,GSA,A,3,03,04,06,09,,,,,,,,,1.4,0.6,1.2,1,8*4D,1759655448000
NMEA,$PSSGR,GSA,A,3,112,,,,,,,,,,,,1.4,0.6,1.2,3,1*7C,1759655448000
NMEA,$PSSGR,GSA,A,3,221,,,,,,,,,,,,1.4,0.6,1.2,4,5*7C,1759655448000
NMEA,$GPRMC,091048.000,A,3205.0198,N,03448.1559,E,1.9,101.0,051025,,,A*66,1759655448000
NMEA,$GPGGA,091049.000,3205.0194,N,03448.1562,E,1,15,0.8,12.7,M,17.1,M,,*65,1759655449000
NMEA,$PSAMSA,091049.000,3205.0194,N,03448.1562,E,0,M,,*6F,1759655449000
NMEA,$GPGLL,3205.0194,N,03448.1562,E,091049.000,A,A*5F,1759655449000
NMEA,$GPVTG,116.8,T,,M,1.5,N,2.7,K,A*02,1759655449000
NMEA,$GPGSV,5,1,16,01,10,175,29,03,48,124,44,04,49,040,39,06,37,284,34*76,1759655449000
NMEA,$GPGSV,5,2,16,07,49,223,40,09,55,327,34,11,12,317,27,16,26,080,43*73,1759655449000
NMEA,$GPGSV,5,3,16,30,17,224,31*4B,1759655449000
NMEA,$GPGSV,5,4,16,03,48,124,39,04,49,040,34,06,37,284,24,09,55,327,30,8*65,1759655449000
NMEA,$GPGSV,5,5,16,11,12,317,21,30,17,224,27,8*6B,1759655449000
NMEA,$GLGSV,3,1,09,67,09,090,24,68,42,049,38,69,40,337,38,78,44,056,35*6A,1759655449000
NMEA,$GLGSV,3,2,09,79,50,143,42,80,09,184,30,83,15,216,30,84,29,272,27*65,1759655449000
NMEA,$GLGSV,3,3,09,85,13,321,26*57,1759655449000
NMEA,$GAGSV,4,1,16,107,23,063,27,112,26,311,31,119,39,288,26,121,15,159,28*6E,1759655449000
NMEA,$GAGSV,4,2,16,126,26,184,30,127,29,106,23,129,61,004,43,130,14,055,32*67,1759655449000
NMEA,$GAGSV,4,3,16,133,51,244,37*6B,1759655449000
NMEA,$GAGSV,4,4,16,107,23,063,24,112,26,311,30,129,61,004,34,133,51,244,29,1*72,1759655449000
NMEA,$BDGSV,4,1,16,205,50,133,34,206,29,043,19,209,44,045,33,213,10,133,45*65,1759655449000
NMEA,$BDGSV,4,2,16,214,08,300,23,216,21,041,27,221,64,022,44,222,30,093,26*6E,1759655449000
NMEA,$BDGSV,4,3,16,226,43,180,33,234,13,240,30,236,15,041,30*67,1759655449000
NMEA,$BDGSV,4,4,16,221,64,022,39,222,30,093,29,226,43,180,14,236,15,041,30,5*77,1759655449000
NMEA,$GPGSA,A,3,16,,,,,,,,,,,,1.4,0.8,1.2*3B,1759655449000
NMEA,$GNGSA,A,3,69,78,79,,,,,,,,,,1.4,0.8,1.2*2C,1759655449000
NMEA,$GAGSA,A,3,129,130,133,,,,,,,,,,1.4,0.8,1.2*14,1759655449000
NMEA,$BDGSA,A,3,209,213,,,,,,,,,,,1.4,0.8,1.2*26,1759655449000
NMEA,$PSSGR,GSA,A,3,03,04,06,09,,,,,,,,,1.4,0.8,1.2,1,8*43,1759655449000
NMEA,$PSSGR,GSA,A,3,112,,,,,,,,,,,,1.4,0.8,1.2,3,1*72,1759655449000
NMEA,$PSSGR,GSA,A,3,221,,,,,,,,,,,,1.4,0.8,1.2,4,5*72,1759655449000
NMEA,$GPRMC,091049.000,A,3205.0194,N,03448.1562,E,1.5,116.8,051025,,,A*61,1759655449000
NMEA,$GPGGA,091050.000,3205.0192,N,03448.1567,E,1,24,0.4,12.5,M,17.1,M,,*62,1759655450000
NMEA,$PSAMSA,091050.000,3205.0192,N,03448.1567,E,0,M,,*64,1759655450000
NMEA,$GPGLL,3205.0192,N,03448.1567,E,091050.000,A,A*54,1759655450000
NMEA,$GPVTG,119.8,T,,M,1.5,N,2.7,K,A*0D,1759655450000
NMEA,$GPGSV,5,1,16,03,48,124,44,04,49,040,39,06,37,284,34,07,49,223,40*73,1759655450000
NMEA,$GPGSV,5,2,16,09,55,327,35,11,12,317,27,16,26,080,44,30,17,224,31*7B,1759655450000
NMEA,$GPGSV,5,3,16*78,1759655450000
NMEA,$GPGSV,5,4,16,03,48,124,38,04,49,040,34,06,37,284,24,09,55,327,29,8*6C,1759655450000
NMEA,$GPGSV,5,5,16,11,12,317,21,30,17,224,27,8*6B,1759655450000
NMEA,$GLGSV,3,1,09,67,09,090,24,68,42,049,38,69,40,337,38,78,44,056,35*6A,1759655450000
NMEA,$GLGSV,3,2,09,79,50,143,43,80,09,184,30,83,15,216,30,84,29,272,27*64,1759655450000
NMEA,$GLGSV,3,3,09,85,13,321,26*57,1759655450000
NMEA,$GAGSV,5,1,17,107,23,063,27,112,26,311,31,119,39,288,26,121,15,159,28*6E,1759655450000
NMEA,$GAGSV,5,2,17,126,26,184,30,127,29,106,23,129,61,004,42,130,14,055,32*66,1759655450000
NMEA,$GAGSV,5,3,17,133,51,244,36*6A,1759655450000
NMEA,$GAGSV,5,4,17,107,23,063,23,112,26,311,29,127,29,106,24,129,61,004,33,1*78,1759655450000
NMEA,$GAGSV,5,5,17,130,14,055,26,133,51,244,31,1*75,1759655450000
NMEA,$BDGSV,4,1,16,205,50,133,34,206,29,043,16,209,44,045,33,213,10,133,45*6A,1759655450000
NMEA,$BDGSV,4,2,16,214,08,300,23,216,21,041,28,221,64,022,43,222,30,093,26*66,1759655450000
NMEA,$BDGSV,4,3,16,226,43,180,33,234,13,240,30,236,15,041,30*67,1759655450000
NMEA,$BDGSV,4,4,16,221,64,022,39,222,30,093,29,226,43,180,14,236,15,041,29,5*7F,1759655450000
NMEA,$GPGSA,A,3,07,16,,,,,,,,,,,1.0,0.4,0.8*3F,1759655450000
NMEA,$GNGSA,A,3,68,69,78,79,83,84,,,,,,,1.0,0.4,0.8*26,1759655450000
NMEA,$GAGSA,A,3,112,119,121,129,130,,,,,,,,1.0,0.4,0.8*1F,1759655450000
NMEA,$BDGSA,A,3,209,213,226,,,,,,,,,,1.0,0.4,0.8*13,1759655450000
NMEA,$PSSGR,GSA,A,3,03,04,06,09,30,,,,,,,,1.0,0.4,0.8,1,8*43,1759655450000
NMEA,$PSSGR,GSA,A,3,221,236,,,,,,,,,,,1.0,0.4,0.8,4,5*46,1759655450000
NMEA,$GPRMC,091050.000,A,3205.0192,N,03448.1567,E,1.5,119.8,051025,,,A*65,1759655450000
NMEA,$GPGGA,091051.000,3205.0184,N,03448.1569,E,1,25,0.4,12.7,M,17.1,M,,*69,1759655451000
NMEA,$PSAMSA,091051.000,3205.0184,N,03448.1569,E,0,M,,*6C,1759655451000
NMEA,$GPGLL,3205.0184,N,03448.1569,E,091051.000,A,A*5C,1759655451000
NMEA,$GPVTG,125.2,T,,M,1.7,N,3.1,K,A*0D,1759655451000
NMEA,$GPGSV,5,1,15,03,48,124,45,04,49,041,39,06,37,284,33,07,49,223,40*77,1759655451000
NMEA,$GPGSV,5,2,15,09,55,327,44,11,12,317,27,16,26,080,45,30,17,224,31*7F,1759655451000
NMEA,$GPGSV,5,3,15*7B,1759655451000
NMEA,$GPGSV,5,4,15,01,10,175,24,03,48,124,38,04,49,041,36,06,37,284,24,8*6D,1759655451000
NMEA,$GPGSV,5,5,15,09,55,327,29,30,17,224,27,8*69,1759655451000
NMEA,$GLGSV,3,1,09,67,09,090,25,68,42,049,37,69,40,337,38,78,44,056,35*64,1759655451000
NMEA,$GLGSV,3,2,09,79,50,143,43,80,09,184,30,83,15,216,30,84,29,272,27*64,1759655451000
NMEA,$GLGSV,3,3,09,85,13,321,26*57,1759655451000
NMEA,$GAGSV,5,1,17,107,23,063,27,112,26,311,30,119,39,288,26,121,15,159,28*6F,1759655451000
NMEA,$GAGSV,5,2,17,126,26,184,30,127,29,106,23,129,61,004,42,130,14,055,32*66,1759655451000
NMEA,$GAGSV,5,3,17,133,51,244,36*6A,1759655451000
NMEA,$GAGSV,5,4,17,107,23,063,22,112,26,311,29,127,29,106,31,129,61,004,33,1*7D,1759655451000
NMEA,$GAGSV,5,5,17,130,14,055,26,133,51,244,31,1*75,1759655451000
NMEA,$BDGSV,4,1,15,205,50,133,33,206,29,043,14,209,44,045,33,213,10,133,45*6C,1759655451000
NMEA,$BDGSV,4,2,15,214,08,300,23,216,21,041,28,221,64,022,43,222,30,093,26*65,1759655451000
NMEA,$BDGSV,4,3,15,226,43,180,33,234,13,240,30,236,15,041,30*64,1759655451000
NMEA,$BDGSV,4,4,15,221,64,022,39,222,30,093,28,236,15,041,32,5*7A,1759655451000
NMEA,$GPGSA,A,3,07,09,16,,,,,,,,,,1.0,0.4,0.8*36,1759655451000
NMEA,$GNGSA,A,3,68,69,78,79,80,84,,,,,,,1.0,0.4,0.8*25,1759655451000
NMEA,$GAGSA,A,3,119,121,126,129,130,133,,,,,,,1.0,0.4,0.8*29,1759655451000
NMEA,$BDGSA,A,3,209,213,226,,,,,,,,,,1.0,0.4,0.8*13,1759655451000
NMEA,$PSSGR,GSA,A,3,03,04,06,30,,,,,,,,,1.0,0.4,0.8,1,8*4A,1759655451000
NMEA,$PSSGR,GSA,A,3,112,,,,,,,,,,,,1.0,0.4,0.8,3,1*71,1759655451000
NMEA,$PSSGR,GSA,A,3,221,236,,,,,,,,,,,1.0,0.4,0.8,4,5*46,1759655451000
NMEA,$GPRMC,091051.000,A,3205.0184,N,03448.1569,E,1.7,125.2,051025,,,A*6A,1759655451000
NMEA,$GPGGA,091052.000,3205.0182,N,03448.1578,E,1,17,0.6,12.2,M,17.1,M,,*6A,1759655452000
NMEA,$PSAMSA,091052.000,3205.0182,N,03448.1578,E,0,M,,*69,1759655452000
NMEA,$GPGLL,3205.0182,N,03448.1578,E,091052.000,A,A*59,1759655452000
NMEA,$GPVTG,111.0,T,,M,1.5,N,2.8,K,A*02,1759655452000
NMEA,$GPGSV,5,1,15,03,48,124,45,04,49,041,39,06,37,284,33,07,49,223,40*77,1759655452000
NMEA,$GPGSV,5,2,15,09,55,327,44,11,12,317,27,16,26,080,46,30,17,224,31*7C,1759655452000
NMEA,$GPGSV,5,3,15*7B,1759655452000
NMEA,$GPGSV,5,4,15,01,10,175,21,03,48,124,38,04,49,041,40,06,37,284,23,8*6E,1759655452000
NMEA,$GPGSV,5,5,15,09,55,327,29,8*5D,1759655452000
NMEA,$GLGSV,3,1,09,67,09,090,25,68,42,049,37,69,40,337,38,78,44,056,35*64,1759655452000
NMEA,$GLGSV,3,2,09,79,50,143,43,80,09,184,30,83,15,216,30,84,29,272,27*64,1759655452000
NMEA,$GLGSV,3,3,09,85,13,321,26*57,1759655452000
NMEA,$GAGSV,5,1,17,107,23,063,27,112,26,311,30,119,39,288,26,121,15,159,28*6F,1759655452000
NMEA,$GAGSV,5,2,17,126,26,184,31,127,29,106,24,129,61,004,42,130,14,055,32*60,1759655452000
NMEA,$GAGSV,5,3,17,133,51,244,36*6A,1759655452000
NMEA,$GAGSV,5,4,17,107,23,063,22,112,26,311,28,127,29,106,33,129,61,004,33,1*7E,1759655452000
NMEA,$GAGSV,5,5,17,130,14,055,25,133,51,244,31,1*76,1759655452000
NMEA,$BDGSV,5,1,16,205,50,133,33,206,29,043,13,209,44,045,33,213,10,133,44*68,1759655452000
NMEA,$BDGSV,5,2,16,214,08,300,23,216,21,041,28,221,64,022,42,222,30,093,26*66,1759655452000
NMEA,$BDGSV,5,3,16,226,43,180,33,234,13,240,30,236,15,041,30*66,1759655452000
NMEA,$BDGSV,5,4,16*6E,1759655452000
NMEA,$BDGSV,5,5,16,221,64,022,38,222,30,093,28,236,15,041,32,5*78,1759655452000
NMEA,$GPGSA,A,3,07,09,16,,,,,,,,,,1.4,0.6,1.2*3B,1759655452000
NMEA,$GNGSA,A,3,68,78,79,,,,,,,,,,1.4,0.6,1.2*23,1759655452000
NMEA,$GAGSA,A,3,119,129,130,133,,,,,,,,,1.4,0.6,1.2*23,1759655452000
NMEA,$BDGSA,A,3,209,213,221,,,,,,,,,,1.4,0.6,1.2*19,1759655452000
NMEA,$PSSGR,GSA,A,3,03,04,06,,,,,,,,,,1.4,0.6,1.2,1,8*44,1759655452000
NMEA,$PSSGR,GSA,A,3,112,,,,,,,,,,,,1.4,0.6,1.2,3,1*7C,1759655452000
NMEA,$GPRMC,091052.000,A,3205.0182,N,03448.1578,E,1.5,111.0,051025,,,A*68,1759655452000
NMEA,$GPGGA,091053.000,3205.0182,N,03448.1579,E,1,16,0.8,12.1,M,17.1,M,,*66,1759655453000
NMEA,$PSAMSA,091053.000,3205.0182,N,03448.1579,E,0,M,,*69,1759655453000
NMEA,$GPGLL,3205.0182,N,03448.1579,E,091053.000,A,A*59,1759655453000
NMEA,$GPVTG,110.5,T,,M,0.7,N,1.4,K,A*0A,1759655453000
NMEA,$GPGSV,4,1,16,01,10,175,29,03,48,124,45,04,49,041,39,06,37,284,34*77,1759655453000
NMEA,$GPGSV,4,2,16,07,49,223,40,09,55,327,45,11,12,317,27,16,26,080,47*70,1759655453000
NMEA,$GPGSV,4,3,16,30,17,224,31*4A,1759655453000
NMEA,$GPGSV,4,4,16,03,48,124,38,04,49,041,40,06,37,284,23,09,55,327,30,8*60,1759655453000
NMEA,$GLGSV,3,1,09,67,09,090,25,68,42,049,37,69,40,337,38,78,44,056,35*64,1759655453000
NMEA,$GLGSV,3,2,09,79,50,143,43,80,09,184,30,83,15,216,30,84,29,272,27*64,1759655453000
NMEA,$GLGSV,3,3,09,85,13,321,26*57,1759655453000
NMEA,$GAGSV,5,1,17,107,23,063,27,112,26,311,29,119,39,288,26,121,15,159,28*67,1759655453000
NMEA,$GAGSV,5,2,17,126,26,184,31,127,29,106,24,129,61,004,42,130,14,055,32*60,1759655453000
NMEA,$GAGSV,5,3,17,133,51,244,36*6A,1759655453000
NMEA,$GAGSV,5,4,17,107,23,063,21,112,26,311,28,121,15,159,19,127,29,106,33,1*77,1759655453000
NMEA,$GAGSV,5,5,17,129,61,004,33,130,14,055,25,133,51,244,30,1*7E,1759655453000
NMEA,$BDGSV,4,1,15,205,50,133,33,209,44,045,33,213,10,133,43,214,08,300,23*6A,1759655453000
NMEA,$BDGSV,4,2,15,216,21,041,28,221,64,022,42,222,30,093,25,226,43,180,33*62,1759655453000
NMEA,$BDGSV,4,3,15,234,13,240,30,236,15,041,29*64,1759655453000
NMEA,$BDGSV,4,4,15,221,64,022,38,222,30,093,28,236,15,041,31,5*78,1759655453000
NMEA,$GPGSA,A,3,09,16,,,,,,,,,,,1.6,0.8,1.4*36,1759655453000
NMEA,$GNGSA,A,3,68,69,78,79,,,,,,,,,1.6,0.8,1.4*26,1759655453000
NMEA,$GAGSA,A,3,119,129,133,,,,,,,,,,1.6,0.8,1.4*1B,1759655453000
NMEA,$BDGSA,A,3,209,213,,,,,,,,,,,1.6,0.8,1.4*22,1759655453000
NMEA,$PSSGR,GSA,A,3,03,04,06,,,,,,,,,,1.6,0.8,1.4,1,8*4E,1759655453000
NMEA,$PSSGR,GSA,A,3,112,,,,,,,,,,,,1.6,0.8,1.4,3,1*76,1759655453000
NMEA,$PSSGR,GSA,A,3,221,,,,,,,,,,,,1.6,0.8,1.4,4,5*76,1759655453000
NMEA,$GPRMC,091053.000,A,3205.0182,N,03448.1579,E,0.7,110.5,051025,,,A*6F,1759655453000
NMEA,$GPGGA,091054.000,3205.0183,N,03448.1580,E,1,16,0.6,11.4,M,17.1,M,,*6E,1759655454000
NMEA,$PSAMSA,091054.000,3205.0183,N,03448.1580,E,0,M,,*69,1759655454000
NMEA,$GPGLL,3205.0183,N,03448.1580,E,091054.000,A,A*59,1759655454000
NMEA,$GPVTG,110.3,T,,M,0.1,N,0.1,K,A*0E,1759655454000
NMEA,$GPGSV,5,1,16,01,10,175,29,03,48,124,45,04,49,041,39,06,37,284,34*76,1759655454000
NMEA,$GPGSV,5,2,16,07,49,223,40,09,55,327,45,11,12,317,26,16,26,080,47*70,1759655454000
NMEA,$GPGSV,5,3,16,30,17,224,31*4B,1759655454000
NMEA,$GPGSV,5,4,16,01,10,175,27,03,48,124,38,04,49,041,39,06,37,284,23,8*65,1759655454000
NMEA,$GPGSV,5,5,16,09,55,327,31,30,17,224,26,8*62,1759655454000
NMEA,$GLGSV,3,1,09,67,09,090,26,68,42,049,37,69,40,337,38,78,44,056,35*67,1759655454000
NMEA,$GLGSV,3,2,09,79,50,143,43,80,09,184,30,83,15,216,30,84,29,272,28*6B,1759655454000
NMEA,$GLGSV,3,3,09,85,13,321,26*57,1759655454000
NMEA,$GAGSV,5,1,17,107,23,063,27,112,26,311,29,119,39,288,26,121,15,159,28*67,1759655454000
NMEA,$GAGSV,5,2,17,126,26,184,31,127,29,106,24,129,61,004,42,130,14,055,32*60,1759655454000
NMEA,$GAGSV,5,3,17,133,51,244,36*6A,1759655454000
NMEA,$GAGSV,5,4,17,107,23,063,21,112,26,311,27,121,15,159,20,126,26,184,24,1*70,1759655454000
NMEA,$GAGSV,5,5,17,127,29,106,33,129,61,004,33,130,14,055,24,133,51,244,31,1*76,1759655454000
NMEA,$BDGSV,4,1,14,205,50,133,33,209,44,045,33,213,10,133,41,214,08,300,22*68,1759655454000
NMEA,$BDGSV,4,2,14,216,21,041,28,221,64,022,42,222,30,093,25,226,43,180,33*63,1759655454000
NMEA,$BDGSV,4,3,14,234,13,240,30,236,15,041,29*65,1759655454000
NMEA,$BDGSV,4,4,14,221,64,022,37,222,30,093,28,236,15,041,31,5*76,1759655454000
NMEA,$GPGSA,A,3,09,16,,,,,,,,,,,1.4,0.6,1.2*3C,1759655454000
NMEA,$GNGSA,A,3,68,69,78,79,84,,,,,,,,1.4,0.6,1.2*20,1759655454000
NMEA,$GAGSA,A,3,129,130,133,,,,,,,,,,1.4,0.6,1.2*1A,1759655454000
NMEA,$BDGSA,A,3,221,226,234,,,,,,,,,,1.4,0.6,1.2*11,1759655454000
NMEA,$PSSGR,GSA,A,3,03,04,,,,,,,,,,,1.4,0.6,1.2,1,8*42,1759655454000
NMEA,$PSSGR,GSA,A,3,112,,,,,,,,,,,,1.4,0.6,1.2,3,1*7C,1759655454000
NMEA,$GPRMC,091054.000,A,3205.0183,N,03448.1580,E,0.1,110.3,051025,,,A*6F,1759655454000
NMEA,$GPGGA,091055.000,3205.0180,N,03448.1583,E,1,17,0.6,11.6,M,17.1,M,,*6C,1759655455000
NMEA,$PSAMSA,091055.000,3205.0180,N,03448.1583,E,0,M,,*68,1759655455000
NMEA,$GPGLL,3205.0180,N,03448.1583,E,091055.000,A,A*58,1759655455000
NMEA,$GPVTG,110.3,T,,M,0.8,N,1.4,K,A*03,1759655455000
NMEA,$GPGSV,5,1,16,01,10,175,30,03,48,124,45,04,49,041,39,06,37,284,34*7E,1759655455000
NMEA,$GPGSV,5,2,16,07,49,223,39,09,55,327,46,11,12,317,26,16,26,080,47*7D,1759655455000
NMEA,$GPGSV,5,3,16,30,17,224,31*4B,1759655455000
NMEA,$GPGSV,5,4,16,01,10,175,27,03,48,124,37,04,49,041,39,06,37,284,23,8*6A,1759655455000
NMEA,$GPGSV,5,5,16,09,55,327,33,30,17,224,27,8*61,1759655455000
NMEA,$GLGSV,3,1,09,67,09,090,26,68,42,049,37,69,40,337,38,78,44,056,35*67,1759655455000
NMEA,$GLGSV,3,2,09,79,50,143,43,80,09,184,30,83,15,216,30,84,29,272,31*63,1759655455000
NMEA,$GLGSV,3,3,09,85,13,321,26*57,1759655455000
NMEA,$GAGSV,4,1,16,107,23,063,27,112,26,311,29,121,15,159,28,126,26,184,31*6C,1759655455000
NMEA,$GAGSV,4,2,16,127,29,106,24,129,61,004,42,130,14,055,32,133,51,244,37*6D,1759655455000
NMEA,$GAGSV,4,3,16,107,23,063,21,112,26,311,26,119,39,288,25,121,15,159,20,1*7A,1759655455000
NMEA,$GAGSV,4,4,16,127,29,106,32,129,61,004,33,130,14,055,24,133,51,244,33,1*74,1759655455000
NMEA,$BDGSV,4,1,15,205,50,133,33,209,44,045,33,213,10,133,40,214,08,300,22*68,1759655455000
NMEA,$BDGSV,4,2,15,216,21,041,28,221,64,022,41,222,30,093,30,226,43,180,33*65,1759655455000
NMEA,$BDGSV,4,3,15,234,13,240,31,236,15,041,29*65,1759655455000
NMEA,$BDGSV,4,4,15,221,64,022,37,222,30,093,27,234,13,240,30,236,15,041,31,5*7A,1759655455000
NMEA,$GPGSA,A,3,03,09,16,,,,,,,,,,1.2,0.6,1.0*3B,1759655455000
NMEA,$GNGSA,A,3,69,79,84,,,,,,,,,,1.2,0.6,1.0*25,1759655455000
NMEA,$GAGSA,A,3,126,129,130,,,,,,,,,,1.2,0.6,1.0*1A,1759655455000
NMEA,$BDGSA,A,3,209,226,,,,,,,,,,,1.2,0.6,1.0*2A,1759655455000
NMEA,$PSSGR,GSA,A,3,04,30,,,,,,,,,,,1.2,0.6,1.0,1,8*46,1759655455000
NMEA,$PSSGR,GSA,A,3,112,133,,,,,,,,,,,1.2,0.6,1.0,3,1*49,1759655455000
NMEA,$PSSGR,GSA,A,3,221,234,,,,,,,,,,,1.2,0.6,1.0,4,5*4D,1759655455000
NMEA,$GPRMC,091055.000,A,3205.0180,N,03448.1583,E,0.8,110.3,051025,,,A*67,1759655455000
NMEA,$GPGGA,091056.000,3205.0185,N,03448.1585,E,1,22,0.4,11.4,M,17.1,M,,*6A,1759655456000
NMEA,$PSAMSA,091056.000,3205.0185,N,03448.1585,E,0,M,,*68,1759655456000
NMEA,$GPGLL,3205.0185,N,03448.1585,E,091056.000,A,A*58,1759655456000
NMEA,$GPVTG,110.3,T,,M,1.2,N,2.2,K,A*0D,1759655456000
NMEA,$GPGSV,5,1,17,01,10,175,30,03,48,124,44,04,49,041,39,06,37,284,34*7E,1759655456000
NMEA,$GPGSV,5,2,17,07,49,223,39,09,55,327,46,11,12,317,26,16,26,080,47*7C,1759655456000
NMEA,$GPGSV,5,3,17,26,10,045,24,30,17,224,31*78,1759655456000
NMEA,$GPGSV,5,4,17,01,10,175,27,03,48,124,35,04,49,041,39,06,37,284,28,8*62,1759655456000
NMEA,$GPGSV,5,5,17,09,55,327,35,30,17,224,27,8*66,1759655456000
NMEA,$GLGSV,3,1,09,67,09,090,26,68,42,049,37,69,40,337,38,78,44,056,35*67,1759655456000
NMEA,$GLGSV,3,2,09,79,50,143,43,80,09,184,30,83,15,216,31,84,29,272,35*66,1759655456000
NMEA,$GLGSV,3,3,09,85,13,321,26*57,1759655456000
NMEA,$GAGSV,5,1,15,107,23,063,27,112,26,311,28,119,39,288,23,121,15,159,28*61,1759655456000
NMEA,$GAGSV,5,2,15,126,26,184,31,127,29,106,24,129,61,004,43,130,14,055,32*63,1759655456000
NMEA,$GAGSV,5,3,15,133,51,244,43*6A,1759655456000
NMEA,$GAGSV,5,4,15,107,23,063,21,121,15,159,20,127,29,106,31,129,61,004,33,1*7B,1759655456000
NMEA,$GAGSV,5,5,15,133,51,244,38,1*7D,1759655456000
NMEA,$BDGSV,5,1,15,209,44,045,33,213,10,133,39,214,08,300,22,216,21,041,28*6D,1759655456000
NMEA,$BDGSV,5,2,15,221,64,022,41,222,30,093,34,226,43,180,33,234,13,240,40*6C,1759655456000
NMEA,$BDGSV,5,3,15,236,15,041,29*67,1759655456000
NMEA,$BDGSV,5,4,15,205,50,133,32,221,64,022,36,222,30,093,27,226,43,180,25,5*71,1759655456000
NMEA,$BDGSV,5,5,15,234,13,240,35,236,15,041,31,5*76,1759655456000
NMEA,$GPGSA,A,3,07,16,,,,,,,,,,,1.0,0.4,0.8*3F,1759655456000
NMEA,$GNGSA,A,3,68,69,78,79,84,,,,,,,,1.0,0.4,0.8*2D,1759655456000
NMEA,$GAGSA,A,3,126,129,130,133,,,,,,,,,1.0,0.4,0.8*22,1759655456000
NMEA,$BDGSA,A,3,209,213,226,,,,,,,,,,1.0,0.4,0.8*13,1759655456000
NMEA,$PSSGR,GSA,A,3,03,04,06,09,30,,,,,,,,1.0,0.4,0.8,1,8*43,1759655456000
NMEA,$PSSGR,GSA,A,3,221,234,236,,,,,,,,,,1.0,0.4,0.8,4,5*73,1759655456000
NMEA,$GPRMC,091056.000,A,3205.0185,N,03448.1585,E,1.2,110.3,051025,,,A*6C,1759655456000
NMEA,$GPGGA,091057.000,3205.0187,N,03448.1580,E,1,23,0.4,11.4,M,17.1,M,,*6D,1759655457000
NMEA,$PSAMSA,091057.000,3205.0187,N,03448.1580,E,0,M,,*6E,1759655457000
NMEA,$GPGLL,3205.0187,N,03448.1580,E,091057.000,A,A*5E,1759655457000
NMEA,$GPVTG,110.3,T,,M,0.7,N,1.3,K,A*0B,1759655457000
NMEA,$GPGSV,5,1,17,01,10,175,30,03,48,124,42,04,49,041,40,06,37,284,34*76,1759655457000
NMEA,$GPGSV,5,2,17,07,49,223,39,09,55,327,46,11,12,317,26,16,26,080,46*7D,1759655457000
NMEA,$GPGSV,5,3,17,26,10,045,24,30,17,224,31*78,1759655457000
NMEA,$GPGSV,5,4,17,01,10,175,26,03,48,124,34,04,49,041,38,06,37,284,28,8*63,1759655457000
NMEA,$GPGSV,5,5,17,09,55,327,42,30,17,224,27,8*66,1759655457000
NMEA,$GLGSV,3,1,09,67,09,090,26,68,42,049,36,69,40,337,38,78,44,056,35*66,1759655457000
NMEA,$GLGSV,3,2,09,79,50,143,43,80,09,184,30,83,15,216,31,84,29,272,35*66,1759655457000
NMEA,$GLGSV,3,3,09,85,13,321,26*57,1759655457000
NMEA,$GAGSV,5,1,17,107,23,063,27,112,26,311,28,119,39,288,23,121,15,159,28*63,1759655457000
NMEA,$GAGSV,5,2,17,126,26,184,32,127,29,106,27,129,61,004,43,130,14,055,32*61,1759655457000
NMEA,$GAGSV,5,3,17,133,51,244,44*6F,1759655457000
NMEA,$GAGSV,5,4,17,107,23,063,20,121,15,159,23,127,29,106,29,129,61,004,33,1*72,1759655457000
NMEA,$GAGSV,5,5,17,133,51,244,39,1*7E,1759655457000
NMEA,$BDGSV,5,1,15,205,50,133,29,209,44,045,34,213,10,133,39,214,08,300,22*6B,1759655457000
NMEA,$BDGSV,5,2,15,216,21,041,26,221,64,022,41,222,30,093,34,226,43,180,33*6E,1759655457000
NMEA,$BDGSV,5,3,15,234,13,240,40,236,15,041,29*62,1759655457000
NMEA,$BDGSV,5,4,15,221,64,022,36,222,30,093,26,226,43,180,25,234,13,240,35,5*75,1759655457000
NMEA,$BDGSV,5,5,15,236,15,041,31,5*71,1759655457000
NMEA,$GPGSA,A,3,07,16,,,,,,,,,,,1.2,0.4,1.0*34,1759655457000
NMEA,$GNGSA,A,3,68,69,78,79,84,,,,,,,,1.2,0.4,1.0*26,1759655457000
NMEA,$GAGSA,A,3,126,129,130,133,,,,,,,,,1.2,0.4,1.0*29,1759655457000
NMEA,$BDGSA,A,3,209,213,226,,,,,,,,,,1.2,0.4,1.0*18,1759655457000
NMEA,$PSSGR,GSA,A,3,01,03,04,06,09,30,,,,,,,1.2,0.4,1.0,1,8*49,1759655457000
NMEA,$PSSGR,GSA,A,3,121,,,,,,,,,,,,1.2,0.4,1.0,3,1*7A,1759655457000
NMEA,$PSSGR,GSA,A,3,221,234,,,,,,,,,,,1.2,0.4,1.0,4,5*4F,1759655457000
NMEA,$GPRMC,091057.000,A,3205.0187,N,03448.1580,E,0.7,110.3,051025,,,A*6E,1759655457000
NMEA,$GPGGA,091058.000,3205.0192,N,03448.1579,E,1,23,0.4,11.6,M,17.1,M,,*62,1759655458000
NMEA,$PSAMSA,091058.000,3205.0192,N,03448.1579,E,0,M,,*63,1759655458000
NMEA,$GPGLL,3205.0192,N,03448.1579,E,091058.000,A,A*53,1759655458000
NMEA,$GPVTG,110.3,T,,M,0.9,N,1.7,K,A*01,1759655458000
NMEA,$GPGSV,5,1,17,01,10,175,30,03,48,124,40,04,49,041,40,06,37,284,34*74,1759655458000
NMEA,$GPGSV,5,2,17,07,50,223,39,09,55,327,46,11,12,317,26,16,26,080,46*75,1759655458000
NMEA,$GPGSV,5,3,17,26,10,045,24,30,17,224,31*78,1759655458000
NMEA,$GPGSV,5,4,17,01,10,175,26,03,48,124,35,04,49,041,38,06,37,284,30,8*6B,1759655458000
NMEA,$GPGSV,5,5,17,09,55,327,42,11,12,317,20,30,17,224,28,8*5D,1759655458000
NMEA,$GLGSV,3,1,09,67,09,090,26,68,42,049,36,69,40,337,45,78,44,056,35*6C,1759655458000
NMEA,$GLGSV,3,2,09,79,50,143,42,80,09,184,30,83,15,216,31,84,29,272,35*67,1759655458000
NMEA,$GLGSV,3,3,09,85,13,321,26*57,1759655458000
NMEA,$GAGSV,5,1,17,107,23,063,28,112,26,311,28,119,39,288,23,121,15,159,28*6C,1759655458000
NMEA,$GAGSV,5,2,17,126,26,184,32,127,29,106,31,129,61,004,43,130,14,055,32*66,1759655458000
NMEA,$GAGSV,5,3,17,133,51,244,44*6F,1759655458000
NMEA,$GAGSV,5,4,17,107,23,063,20,112,26,311,24,121,15,159,23,126,26,184,23,1*76,1759655458000
NMEA,$GAGSV,5,5,17,127,29,106,28,129,61,004,34,133,51,244,39,1*72,1759655458000
NMEA,$BDGSV,5,1,15,205,50,133,26,209,44,045,35,213,10,133,38,214,08,300,21*67,1759655458000
NMEA,$BDGSV,5,2,15,216,21,041,23,221,64,022,40,222,30,093,34,226,43,180,33*6A,1759655458000
NMEA,$BDGSV,5,3,15,234,13,240,39,236,15,041,29*6C,1759655458000
NMEA,$BDGSV,5,4,15,221,64,022,35,222,30,093,26,226,43,180,29,234,13,240,38,5*77,1759655458000
NMEA,$BDGSV,5,5,15,236,15,041,30,5*70,1759655458000
NMEA,$GPGSA,A,3,07,16,,,,,,,,,,,1.0,0.4,0.8*3F,1759655458000
NMEA,$GNGSA,A,3,68,69,78,79,84,,,,,,,,1.0,0.4,0.8*2D,1759655458000
NMEA,$GAGSA,A,3,121,126,129,130,,,,,,,,,1.0,0.4,0.8*21,1759655458000
NMEA,$BDGSA,A,3,209,213,214,221,,,,,,,,,1.0,0.4,0.8*23,1759655458000
NMEA,$PSSGR,GSA,A,3,03,04,06,09,30,,,,,,,,1.0,0.4,0.8,1,8*43,1759655458000
NMEA,$PSSGR,GSA,A,3,226,234,,,,,,,,,,,1.0,0.4,0.8,4,5*43,1759655458000
NMEA,$GPRMC,091058.000,A,3205.0192,N,03448.1579,E,0.9,110.3,051025,,,A*6D,1759655458000
NMEA,$GPGGA,091059.000,3205.0194,N,03448.1577,E,1,25,0.4,11.8,M,17.1,M,,*63,1759655459000
NMEA,$PSAMSA,091059.000,3205.0194,N,03448.1577,E,0,M,,*6A,1759655459000
NMEA,$GPGLL,3205.0194,N,03448.1577,E,091059.000,A,A*5A,1759655459000
NMEA,$GPVTG,110.3,T,,M,1.1,N,2.0,K,A*0C,1759655459000
NMEA,$GPGSV,5,1,16,01,10,175,30,03,48,124,39,04,49,041,40,06,37,284,34*7B,1759655459000
NMEA,$GPGSV,5,2,16,07,50,223,39,09,55,327,46,11,12,317,26,16,26,079,46*72,1759655459000
NMEA,$GPGSV,5,3,16,26,10,045,24,30,17,224,31*79,1759655459000
NMEA,$GPGSV,5,4,16,01,10,175,26,03,48,124,34,04,49,041,37,06,37,284,29,8*6C,1759655459000
NMEA,$GPGSV,5,5,16,09,55,327,42,30,17,224,28,8*68,1759655459000
NMEA,$GLGSV,3,1,09,67,09,090,26,68,42,049,36,69,40,337,45,78,44,056,35*6C,1759655459000
NMEA,$GLGSV,3,2,09,79,50,143,41,80,09,184,29,83,15,216,31,84,29,272,35*6C,1759655459000
NMEA,$GLGSV,3,3,09,85,13,321,26*57,1759655459000
NMEA,$GAGSV,5,1,15,107,23,063,28,112,26,311,30,119,39,288,23,121,15,159,28*67,1759655459000
NMEA,$GAGSV,5,2,15,126,26,184,31,127,29,106,31,129,61,004,44,130,14,055,32*60,1759655459000
NMEA,$GAGSV,5,3,15,133,51,244,44*6D,1759655459000
NMEA,$GAGSV,5,4,15,107,23,063,20,126,26,184,26,127,29,106,26,129,61,004,34,1*7A,1759655459000
NMEA,$GAGSV,5,5,15,133,51,244,41,1*73,1759655459000
NMEA,$BDGSV,5,1,15,209,44,045,36,213,10,133,37,214,08,300,21,216,21,041,20*6D,1759655459000
NMEA,$BDGSV,5,2,15,221,64,023,40,222,30,093,34,226,43,180,33,234,13,240,39*62,1759655459000
NMEA,$BDGSV,5,3,15,236,15,041,30*6F,1759655459000
NMEA,$BDGSV,5,4,15,205,50,133,23,221,64,023,34,222,30,093,26,226,43,180,29,5*7F,1759655459000
NMEA,$BDGSV,5,5,15,234,13,240,39,236,15,041,29,5*73,1759655459000
NMEA,$GPGSA,A,3,07,16,,,,,,,,,,,1.0,0.4,0.8*3F,1759655459000
NMEA,$GNGSA,A,3,68,69,78,79,83,84,,,,,,,1.0,0.4,0.8*26,1759655459000
NMEA,$GAGSA,A,3,112,119,121,126,129,130,,,,,,,1.0,0.4,0.8*2A,1759655459000
NMEA,$BDGSA,A,3,209,213,214,221,,,,,,,,,1.0,0.4,0.8*23,1759655459000
NMEA,$PSSGR,GSA,A,3,03,04,06,09,30,,,,,,,,1.0,0.4,0.8,1,8*43,1759655459000
NMEA,$PSSGR,GSA,A,3,234,,,,,,,,,,,,1.0,0.4,0.8,4,5*75,1759655459000
NMEA,$GPRMC,091059.000,A,3205.0194,N,03448.1577,E,1.1,110.3,051025,,,A*6D,1759655459000
NMEA,$GPGGA,091100.000,3205.0202,N,03448.1575,E,1,21,0.6,11.8,M,17.1,M,,*66,1759655460000
NMEA,$PSAMSA,091100.000,3205.0202,N,03448.1575,E,0,M,,*69,1759655460000
NMEA,$GPGLL,3205.0202,N,03448.1575,E,091100.000,A,A*59,1759655460000
NMEA,$GPVTG,110.3,T,,M,1.7,N,3.1,K,A*0A,1759655460000
NMEA,$GPGSV,5,1,17,01,10,175,30,03,48,124,38,04,49,041,40,06,37,284,34*7B,1759655460000
NMEA,$GPGSV,5,2,17,07,50,223,39,09,55,327,46,11,12,317,26,16,26,079,46*73,1759655460000
NMEA,$GPGSV,5,3,17,26,10,045,24,30,17,224,31*78,1759655460000
NMEA,$GPGSV,5,4,17,01,10,175,26,03,48,124,33,04,49,041,36,06,37,284,29,8*6B,1759655460000
NMEA,$GPGSV,5,5,17,09,55,327,42,30,17,224,28,8*69,1759655460000
NMEA,$GLGSV,3,1,09,67,09,090,26,68,42,049,36,69,40,337,45,78,44,056,35*6C,1759655460000
NMEA,$GLGSV,3,2,09,79,50,143,41,80,09,184,29,83,15,216,31,84,29,272,35*6C,1759655460000
NMEA,$GLGSV,3,3,09,85,13,321,26*57,1759655460000
NMEA,$GAGSV,5,1,17,107,23,063,28,112,26,311,31,119,39,288,23,121,15,159,28*64,1759655460000
NMEA,$GAGSV,5,2,17,126,26,184,32,127,29,106,31,129,61,004,44,130,14,055,32*61,1759655460000
NMEA,$GAGSV,5,3,17,133,51,244,44*6F,1759655460000
NMEA,$GAGSV,5,4,17,107,23,063,22,126,26,184,26,127,29,106,25,129,61,004,34,1*79,1759655460000
NMEA,$GAGSV,5,5,17,133,51,244,41,1*71,1759655460000
NMEA,$BDGSV,5,1,15,205,50,133,20,209,44,045,36,213,10,133,37,214,08,300,21*6D,1759655460000
NMEA,$BDGSV,5,2,15,216,21,041,17,221,64,023,39,222,30,093,34,226,43,180,33*62,1759655460000
NMEA,$BDGSV,5,3,15,234,13,240,39,236,15,041,30*64,1759655460000
NMEA,$BDGSV,5,4,15,221,64,023,33,222,30,093,26,226,43,180,28,234,13,240,39,5*70,1759655460000
NMEA,$BDGSV,5,5,15,236,15,041,29,5*78,1759655460000
NMEA,$GPGSA,A,3,07,16,,,,,,,,,,,1.2,0.6,1.0*36,1759655460000
NMEA,$GNGSA,A,3,68,69,78,79,84,,,,,,,,1.2,0.6,1.0*24,1759655460000
NMEA,$GAGSA,A,3,119,129,130,,,,,,,,,,1.2,0.6,1.0*16,1759655460000
NMEA,$BDGSA,A,3,209,213,,,,,,,,,,,1.2,0.6,1.0*2C,1759655460000
NMEA,$PSSGR,GSA,A,3,01,03,04,06,09,30,,,,,,,1.2,0.6,1.0,1,8*4B,1759655460000
NMEA,$PSSGR,GSA,A,3,221,234,,,,,,,,,,,1.2,0.6,1.0,4,5*4D,1759655460000
NMEA,$GPRMC,091100.000,A,3205.0202,N,03448.1575,E,1.7,110.3,051025,,,A*68,1759655460000
NMEA,$GPGGA,091101.000,3205.0204,N,03448.1572,E,1,21,0.6,11.9,M,17.1,M,,*67,1759655461000
NMEA,$PSAMSA,091101.000,3205.0204,N,03448.1572,E,0,M,,*69,1759655461000
NMEA,$GPGLL,3205.0204,N,03448.1572,E,091101.000,A,A*59,1759655461000
NMEA,$GPVTG,110.3,T,,M,1.5,N,2.7,K,A*0F,1759655461000
NMEA,$GPGSV,5,1,17,01,10,175,30,03,48,124,37,04,49,041,40,06,37,284,34*74,1759655461000
NMEA,$GPGSV,5,2,17,07,50,223,38,09,55,327,46,11,12,317,26,16,26,079,46*72,1759655461000
NMEA,$GPGSV,5,3,17,26,10,045,24,30,17,224,30*79,1759655461000
NMEA,$GPGSV,5,4,17,01,10,175,25,03,48,124,33,04,49,041,35,06,37,284,28,8*6A,1759655461000
NMEA,$GPGSV,5,5,17,09,55,327,41,30,17,224,27,8*65,1759655461000
NMEA,$GLGSV,3,1,09,67,09,090,26,68,42,049,36,69,40,337,45,78,44,056,35*6C,1759655461000
NMEA,$GLGSV,3,2,09,79,50,143,40,80,09,184,29,83,15,216,32,84,29,272,35*6E,1759655461000
NMEA,$GLGSV,3,3,09,85,13,321,26*57,1759655461000
NMEA,$GAGSV,5,1,17,107,23,063,28,112,26,311,31,119,39,288,23,121,15,159,28*64,1759655461000
NMEA,$GAGSV,5,2,17,126,26,184,32,127,29,106,32,129,61,004,44,130,14,055,33*63,1759655461000
NMEA,$GAGSV,5,3,17,133,51,244,44*6F,1759655461000
NMEA,$GAGSV,5,4,17,107,23,063,23,112,26,311,24,126,26,184,26,127,29,106,24,1*74,1759655461000
NMEA,$GAGSV,5,5,17,129,61,004,34,130,14,055,24,133,51,244,40,1*7F,1759655461000
NMEA,$BDGSV,5,1,15,205,50,133,17,209,44,045,36,213,10,133,36,214,08,300,21*68,1759655461000
NMEA,$BDGSV,5,2,15,216,21,041,14,221,64,023,38,222,30,093,34,226,44,180,32*66,1759655461000
NMEA,$BDGSV,5,3,15,234,13,240,39,236,15,041,30*64,1759655461000
NMEA,$BDGSV,5,4,15,221,64,023,32,222,30,093,25,226,44,180,28,234,13,240,39,5*75,1759655461000
NMEA,$BDGSV,5,5,15,236,15,041,29,5*78,1759655461000
NMEA,$GPGSA,A,3,04,07,16,,,,,,,,,,1.2,0.6,1.0*32,1759655461000
NMEA,$GNGSA,A,3,68,69,78,79,84,,,,,,,,1.2,0.6,1.0*24,1759655461000
NMEA,$GAGSA,A,3,119,129,130,133,,,,,,,,,1.2,0.6,1.0*27,1759655461000
NMEA,$BDGSA,A,3,209,213,221,,,,,,,,,,1.2,0.6,1.0*1D,1759655461000
NMEA,$PSSGR,GSA,A,3,01,03,06,09,30,,,,,,,,1.2,0.6,1.0,1,8*4F,1759655461000
NMEA,$PSSGR,GSA,A,3,234,,,,,,,,,,,,1.2,0.6,1.0,4,5*7C,1759655461000
NMEA,$GPRMC,091101.000,A,3205.0204,N,03448.1572,E,1.5,110.3,051025,,,A*6A,1759655461000
NMEA,$GPGGA,091102.000,3205.0208,N,03448.1570,E,1,20,0.6,12.0,M,17.1,M,,*61,1759655462000
NMEA,$PSAMSA,091102.000,3205.0208,N,03448.1570,E,0,M,,*64,1759655462000
NMEA,$GPGLL,3205.0208,N,03448.1570,E,091102.000,A,A*54,1759655462000
NMEA,$GPVTG,110.3,T,,M,1.5,N,2.8,K,A*00,1759655462000
NMEA,$GPGSV,5,1,17,01,10,175,30,03,48,124,37,04,49,041,40,06,37,284,34*74,1759655462000
NMEA,$GPGSV,5,2,17,07,50,223,38,09,55,327,46,11,12,317,26,16,26,079,44*70,1759655462000
NMEA,$GPGSV,5,3,17,26,10,045,30,30,17,224,30*7C,1759655462000
NMEA,$GPGSV,5,4,17,01,10,175,25,03,48,124,32,04,49,041,33,06,37,284,28,8*6D,1759655462000
NMEA,$GPGSV,5,5,17,09,55,327,41,30,17,224,27,8*65,1759655462000
NMEA,$GLGSV,3,1,09,67,09,090,26,68,42,049,36,69,40,337,45,78,44,056,35*6C,1759655462000
NMEA,$GLGSV,3,2,09,79,50,143,39,80,09,184,30,83,15,216,35,84,29,272,35*6F,1759655462000
NMEA,$GLGSV,3,3,09,85,13,321,26*57,1759655462000
NMEA,$GAGSV,5,1,16,107,23,063,29,112,26,311,31,119,39,288,23,121,15,159,28*64,1759655462000
NMEA,$GAGSV,5,2,16,126,26,184,32,127,29,106,32,129,61,004,44,130,14,055,33*62,1759655462000
NMEA,$GAGSV,5,3,16,133,51,244,44*6E,1759655462000
NMEA,$GAGSV,5,4,16,107,23,063,23,126,26,184,25,127,29,106,24,129,61,004,34,1*7B,1759655462000
NMEA,$GAGSV,5,5,16,130,14,055,29,133,51,244,40,1*7D,1759655462000
NMEA,$BDGSV,5,1,15,209,44,045,36,213,10,133,35,214,08,300,21,216,21,041,13*6F,1759655462000
NMEA,$BDGSV,5,2,15,221,64,023,37,222,30,093,34,226,44,180,32,234,13,240,39*64,1759655462000
NMEA,$BDGSV,5,3,15,236,15,041,30*6F,1759655462000
NMEA,$BDGSV,5,4,15,205,50,133,14,221,64,023,32,222,30,093,25,226,44,180,27,5*77,1759655462000
NMEA,$BDGSV,5,5,15,234,13,240,40,236,15,041,28,5*7C,1759655462000
NMEA,$GPGSA,A,3,04,07,16,26,,,,,,,,,1.0,0.6,0.8*3D,1759655462000
NMEA,$GNGSA,A,3,68,69,78,79,84,,,,,,,,1.0,0.6,0.8*2F,1759655462000
NMEA,$GAGSA,A,3,129,,,,,,,,,,,,1.0,0.6,0.8*16,1759655462000
NMEA,$BDGSA,A,3,209,,,,,,,,,,,,1.0,0.6,0.8*17,1759655462000
NMEA,$PSSGR,GSA,A,3,01,03,06,09,30,,,,,,,,1.0,0.6,0.8,1,8*44,1759655462000
NMEA,$PSSGR,GSA,A,3,130,133,,,,,,,,,,,1.0,0.6,0.8,3,1*42,1759655462000
NMEA,$PSSGR,GSA,A,3,221,234,,,,,,,,,,,1.0,0.6,0.8,4,5*46,1759655462000
NMEA,$GPRMC,091102.000,A,3205.0208,N,03448.1570,E,1.5,110.3,051025,,,A*67,1759655462000
NMEA,$GPGGA,091103.000,3205.0214,N,03448.1568,E,1,20,0.6,11.9,M,17.1,M,,*6E,1759655463000
NMEA,$PSAMSA,091103.000,3205.0214,N,03448.1568,E,0,M,,*61,1759655463000
NMEA,$GPGLL,3205.0214,N,03448.1568,E,091103.000,A,A*51,1759655463000
NMEA,$GPVTG,354.4,T,,M,1.6,N,3.0,K,A*0F,1759655463000
NMEA,$GPGSV,5,1,17,01,10,175,31,03,48,124,36,04,49,041,39,06,37,284,34*7A,1759655463000
NMEA,$GPGSV,5,2,17,07,50,223,38,09,55,327,46,11,12,317,25,16,26,079,43*74,1759655463000
NMEA,$GPGSV,5,3,17,26,10,045,30,30,17,224,30*7C,1759655463000
NMEA,$GPGSV,5,4,17,01,10,175,25,03,48,124,32,04,49,041,33,06,37,284,27,8*62,1759655463000
NMEA,$GPGSV,5,5,17,09,55,327,41,30,17,224,27,8*65,1759655463000
NMEA,$GLGSV,3,1,09,67,09,090,26,68,42,049,36,69,40,337,45,78,44,056,35*6C,1759655463000
NMEA,$GLGSV,3,2,09,79,50,143,39,80,09,184,30,83,15,216,35,84,29,272,35*6F,1759655463000
NMEA,$GLGSV,3,3,09,85,13,321,26*57,1759655463000
NMEA,$GAGSV,5,1,17,107,23,063,29,112,26,311,32,119,39,288,23,121,15,159,28*66,1759655463000
NMEA,$GAGSV,5,2,17,126,26,184,32,127,29,106,32,129,61,005,44,130,14,055,42*64,1759655463000
NMEA,$GAGSV,5,3,17,133,51,244,44*6F,1759655463000
NMEA,$GAGSV,5,4,17,107,23,063,22,126,26,184,24,127,29,106,26,129,61,005,34,1*79,1759655463000
NMEA,$GAGSV,5,5,17,130,14,055,32,133,51,244,40,1*76,1759655463000
NMEA,$BDGSV,5,1,15,205,50,133,12,209,44,045,36,213,10,133,33,214,08,300,20*69,1759655463000
NMEA,$BDGSV,5,2,15,221,64,023,37,222,30,093,35,226,44,180,32,234,13,240,38*64,1759655463000
NMEA,$BDGSV,5,3,15,236,15,041,27*69,1759655463000
NMEA,$BDGSV,5,4,15,221,64,023,32,222,30,093,25,226,44,180,27,234,13,240,40,5*74,1759655463000
NMEA,$BDGSV,5,5,15,236,15,041,28,5*79,1759655463000
NMEA,$GPGSA,A,3,07,,,,,,,,,,,,1.2,0.6,1.0*31,1759655463000
NMEA,$GNGSA,A,3,68,69,78,79,84,,,,,,,,1.2,0.6,1.0*24,1759655463000
NMEA,$GAGSA,A,3,119,121,129,130,133,,,,,,,,1.2,0.6,1.0*15,1759655463000
NMEA,$BDGSA,A,3,209,,,,,,,,,,,,1.2,0.6,1.0*1C,1759655463000
NMEA,$PSSGR,GSA,A,3,01,03,04,06,09,30,,,,,,,1.2,0.6,1.0,1,8*4B,1759655463000
NMEA,$PSSGR,GSA,A,3,221,234,,,,,,,,,,,1.2,0.6,1.0,4,5*4D,1759655463000
NMEA,$GPRMC,091103.000,A,3205.0214,N,03448.1568,E,1.6,354.4,051025,,,A*64,1759655463000
NMEA,$GPGGA,091104.000,3205.0218,N,03448.1565,E,1,23,0.6,12.0,M,17.1,M,,*61,1759655464000
NMEA,$PSAMSA,091104.000,3205.0218,N,03448.1565,E,0,M,,*67,1759655464000
NMEA,$GPGLL,3205.0218,N,03448.1565,E,091104.000,A,A*57,1759655464000
NMEA,$GPVTG,344.0,T,,M,1.4,N,2.7,K,A*0E,1759655464000
NMEA,$GPGSV,5,1,17,01,10,175,33,03,48,124,36,04,49,041,39,06,37,284,34*78,1759655464000
NMEA,$GPGSV,5,2,17,07,50,223,40,09,55,327,46,11,12,317,25,16,26,079,41*79,1759655464000
NMEA,$GPGSV,5,3,17,30,17,224,30*4B,1759655464000
NMEA,$GPGSV,5,4,17,01,10,175,25,03,48,124,32,04,49,041,32,06,37,284,27,8*63,1759655464000
NMEA,$GPGSV,5,5,17,09,55,327,40,30,17,224,26,8*65,1759655464000
NMEA,$GLGSV,3,1,09,67,09,090,26,68,42,049,36,69,40,337,44,78,44,056,35*6D,1759655464000
NMEA,$GLGSV,3,2,09,79,50,143,39,80,09,184,30,83,15,216,35,84,29,272,34*6E,1759655464000
NMEA,$GLGSV,3,3,09,85,13,321,26*57,1759655464000
