NMEA,$GPGGA,132144.000,3154.0012,N,03500.4177,E,1,23,0.6,248.3,M,16.6,M,,*55,1759152104000
NMEA,$PSAMSA,132144.000,3154.0012,N,03500.4177,E,0,M,,*6B,1759152104000
NMEA,$GPGLL,3154.0012,N,03500.4177,E,132144.000,A,A*5B,1759152104000
NMEA,$GPVTG,348.5,T,,M,0.4,N,0.8,K,A*0B,1759152104000
NMEA,$GPGSV,4,1,11,05,36,283,32,07,38,055,49,09,22,128,27,13,31,317,34*70,1759152104000
NMEA,$GPGSV,4,2,11,14,78,203,40,17,17,156,40,21,45,239,30,22,60,207,33*7C,1759152104000
NMEA,$GPGSV,4,3,11,30,59,019,43*4E,1759152104000
NMEA,$GPGSV,4,4,11,14,78,203,35,30,59,019,33,8*67,1759152104000
NMEA,$GLGSV,2,1,06,65,42,329,32,71,22,149,31,72,76,145,39,74,39,024,38*6E,1759152104000
NMEA,$GLGSV,2,2,06,75,64,289,39,76,17,236,34*6D,1759152104000
NMEA,$GAGSV,4,1,11,107,52,107,36,119,18,313,22,121,34,210,35,127,81,115,42*60,1759152104000
NMEA,$GAGSV,4,2,11,129,63,335,40,130,34,043,43*65,1759152104000
NMEA,$GAGSV,4,3,11,107,52,107,25,121,34,210,30,127,81,115,33,129,63,335,34,1*72,1759152104000
NMEA,$GAGSV,4,4,11,130,34,043,32,1*76,1759152104000
NMEA,$BDGSV,3,1,10,207,30,077,36,209,24,063,35,210,36,089,29,214,28,317,32*63,1759152104000
NMEA,$BDGSV,3,2,10,221,63,178,40,224,25,250,37,226,67,294,37*6A,1759152104000
NMEA,$BDGSV,3,3,10,221,63,178,35,224,25,250,27,226,67,294,31,5*77,1759152104000
NMEA,$GPGSA,A,3,05,07,13,21,22,,,,,,,,1.2,0.6,1.0*35,1759152104000
NMEA,$GNGSA,A,3,65,72,74,75,76,,,,,,,,1.2,0.6,1.0*2E,1759152104000
NMEA,$GAGSA,A,3,107,127,129,130,,,,,,,,,1.2,0.6,1.0*2D,1759152104000
NMEA,$BDGSA,A,3,207,209,210,214,224,,,,,,,,1.2,0.6,1.0*19,1759152104000
NMEA,$PSSGR,GSA,A,3,14,30,,,,,,,,,,,1.2,0.6,1.0,1,8*47,1759152104000
NMEA,$PSSGR,GSA,A,3,221,226,,,,,,,,,,,1.2,0.6,1.0,4,5*4E,1759152104000
NMEA,$GPRMC,132144.000,A,3154.0012,N,03500.4177,E,0.4,348.5,290925,,,A*67,1759152104000
NMEA,$GPGGA,132145.000,3154.0015,N,03500.4185,E,1,22,0.6,246.7,M,16.6,M,,*55,1759152105000
NMEA,$PSAMSA,132145.000,3154.0015,N,03500.4185,E,0,M,,*60,1759152105000
NMEA,$GPGLL,3154.0015,N,03500.4185,E,132145.000,A,A*50,1759152105000
NMEA,$GPVTG,345.9,T,,M,0.7,N,1.2,K,A*02,1759152105000
NMEA,$GPGSV,4,1,11,05,36,283,32,07,38,055,48,09,22,128,27,13,31,317,34*71,1759152105000
NMEA,$GPGSV,4,2,11,14,78,203,40,17,17,156,39,21,45,239,30,22,60,207,33*72,1759152105000
NMEA,$GPGSV,4,3,11,30,59,019,43*4E,1759152105000
NMEA,$GPGSV,4,4,11,14,78,203,35,30,59,019,34,8*60,1759152105000
NMEA,$GLGSV,2,1,06,65,42,329,32,71,22,149,31,72,76,145,39,74,39,024,38*6E,1759152105000
NMEA,$GLGSV,2,2,06,75,64,289,37,76,17,236,34*63,1759152105000
NMEA,$GAGSV,4,1,11,107,52,107,37,119,18,313,22,121,34,210,35,127,81,115,42*61,1759152105000
NMEA,$GAGSV,4,2,11,129,63,335,40,130,34,043,43*65,1759152105000
NMEA,$GAGSV,4,3,11,107,52,107,25,121,34,210,29,127,81,115,33,129,63,335,33,1*7D,1759152105000
NMEA,$GAGSV,4,4,11,130,34,043,34,1*70,1759152105000
NMEA,$BDGSV,3,1,10,207,30,077,36,209,24,063,36,210,36,089,29,214,28,317,32*60,1759152105000
NMEA,$BDGSV,3,2,10,221,63,178,39,224,25,250,37,226,67,294,34*67,1759152105000
NMEA,$BDGSV,3,3,10,221,63,178,34,224,25,250,26,226,67,294,30,5*76,1759152105000
NMEA,$GPGSA,A,3,05,07,13,14,21,22,,,,,,,1.4,0.6,1.2*34,1759152105000
NMEA,$GNGSA,A,3,65,72,74,75,,,,,,,,,1.4,0.6,1.2*2B,1759152105000
NMEA,$GAGSA,A,3,107,119,127,129,130,,,,,,,,1.4,0.6,1.2*10,1759152105000
NMEA,$BDGSA,A,3,209,210,214,224,,,,,,,,,1.4,0.6,1.2*28,1759152105000
NMEA,$PSSGR,GSA,A,3,30,,,,,,,,,,,,1.4,0.6,1.2,1,8*46,1759152105000
NMEA,$PSSGR,GSA,A,3,221,226,,,,,,,,,,,1.4,0.6,1.2,4,5*4A,1759152105000
NMEA,$GPRMC,132145.000,A,3154.0015,N,03500.4185,E,0.7,345.9,290925,,,A*6E,1759152105000
NMEA,$GPGGA,132146.000,3154.0014,N,03500.4185,E,1,23,0.6,246.4,M,16.6,M,,*55,1759152106000
NMEA,$PSAMSA,132146.000,3154.0014,N,03500.4185,E,1,M,,*63,1759152106000
NMEA,$GPGLL,3154.0014,N,03500.4185,E,132146.000,A,A*52,1759152106000
NMEA,$GPVTG,343.2,T,,M,0.0,N,0.0,K,A*0B,1759152106000
NMEA,$GPGSV,4,1,11,05,36,283,32,07,38,055,47,09,22,128,27,13,31,317,34*7E,1759152106000
NMEA,$GPGSV,4,2,11,14,78,203,40,17,17,156,37,21,45,239,30,22,60,207,33*7C,1759152106000
NMEA,$GPGSV,4,3,11,30,59,019,42*4F,1759152106000
NMEA,$GPGSV,4,4,11,14,78,203,33,30,59,019,34,8*66,1759152106000
NMEA,$GLGSV,2,1,06,65,42,329,32,71,22,149,30,72,76,145,39,74,39,024,38*6F,1759152106000
NMEA,$GLGSV,2,2,06,75,64,289,36,76,17,236,34*62,1759152106000
NMEA,$GAGSV,4,1,11,107,52,107,37,119,18,313,22,121,34,210,35,127,81,115,42*61,1759152106000
NMEA,$GAGSV,4,2,11,129,63,335,39,130,34,043,44*6C,1759152106000
NMEA,$GAGSV,4,3,11,107,52,107,25,121,34,210,28,127,81,115,33,129,63,335,32,1*7D,1759152106000
NMEA,$GAGSV,4,4,11,130,34,043,34,1*70,1759152106000
NMEA,$BDGSV,3,1,09,207,30,077,36,209,24,063,37,210,36,089,29,214,28,317,32*69,1759152106000
NMEA,$BDGSV,3,2,09,221,63,178,38,224,25,250,37,226,67,294,33*69,1759152106000
NMEA,$BDGSV,3,3,09,221,63,178,34,226,67,294,30,5*7E,1759152106000
NMEA,$GPGSA,A,3,07,13,14,21,22,,,,,,,,1.2,0.6,1.0*35,1759152106000
NMEA,$GNGSA,A,3,65,72,74,75,76,,,,,,,,1.2,0.6,1.0*2E,1759152106000
NMEA,$GAGSA,A,3,107,119,127,129,130,,,,,,,,1.2,0.6,1.0*14,1759152106000
NMEA,$BDGSA,A,3,207,209,210,214,221,224,,,,,,,1.2,0.6,1.0*28,1759152106000
NMEA,$PSSGR,GSA,A,3,30,,,,,,,,,,,,1.2,0.6,1.0,1,8*42,1759152106000
NMEA,$PSSGR,GSA,A,3,226,,,,,,,,,,,,1.2,0.6,1.0,4,5*7F,1759152106000
NMEA,$GPRMC,132146.000,A,3154.0014,N,03500.4185,E,0.0,,290925,,,A*4E,1759152106000
NMEA,$GPGGA,132147.000,3154.0013,N,03500.4191,E,1,22,0.6,245.0,M,16.6,M,,*50,1759152107000
NMEA,$PSAMSA,132147.000,3154.0013,N,03500.4191,E,0,M,,*61,1759152107000
NMEA,$GPGLL,3154.0013,N,03500.4191,E,132147.000,A,A*51,1759152107000
NMEA,$GPVTG,343.2,T,,M,0.3,N,0.5,K,A*0D,1759152107000
NMEA,$GPGSV,4,1,11,05,36,283,31,07,38,055,46,09,22,128,28,13,31,317,34*73,1759152107000
NMEA,$GPGSV,4,2,11,14,78,203,40,17,17,156,36,21,45,239,30,22,60,207,33*7D,1759152107000
NMEA,$GPGSV,4,3,11,30,59,019,42*4F,1759152107000
NMEA,$GPGSV,4,4,11,14,78,203,33,30,59,019,35,8*67,1759152107000
NMEA,$GLGSV,2,1,06,65,42,329,32,71,22,149,28,72,76,145,39,74,39,024,38*66,1759152107000
NMEA,$GLGSV,2,2,06,75,64,289,35,76,17,236,34*61,1759152107000
NMEA,$GAGSV,4,1,11,107,52,107,38,119,18,313,22,121,34,210,35,127,81,115,42*6E,1759152107000
NMEA,$GAGSV,4,2,11,129,63,335,39,130,34,043,44*6C,1759152107000
NMEA,$GAGSV,4,3,11,107,52,107,25,121,34,210,26,127,81,115,33,129,63,335,31,1*70,1759152107000
NMEA,$GAGSV,4,4,11,130,34,043,34,1*70,1759152107000
NMEA,$BDGSV,4,1,11,207,30,077,36,209,24,063,37,210,36,089,29,214,28,317,31*64,1759152107000
NMEA,$BDGSV,4,2,11,221,63,178,38,222,14,153,26,224,25,250,37,226,67,294,31*61,1759152107000
NMEA,$BDGSV,4,3,11*6F,1759152107000
NMEA,$BDGSV,4,4,11,221,63,178,33,226,67,294,29,5*78,1759152107000
NMEA,$GPGSA,A,3,07,13,21,22,,,,,,,,,1.2,0.6,1.0*30,1759152107000
NMEA,$GNGSA,A,3,65,72,74,75,76,,,,,,,,1.2,0.6,1.0*2E,1759152107000
NMEA,$GAGSA,A,3,107,119,127,129,130,,,,,,,,1.2,0.6,1.0*14,1759152107000
NMEA,$BDGSA,A,3,209,210,214,221,224,,,,,,,,1.2,0.6,1.0*1D,1759152107000
NMEA,$PSSGR,GSA,A,3,14,30,,,,,,,,,,,1.2,0.6,1.0,1,8*47,1759152107000
NMEA,$PSSGR,GSA,A,3,226,,,,,,,,,,,,1.2,0.6,1.0,4,5*7F,1759152107000
NMEA,$GPRMC,132147.000,A,3154.0013,N,03500.4191,E,0.3,343.2,290925,,,A*66,1759152107000
NMEA,$GPGGA,132148.000,3154.0014,N,03500.4191,E,1,24,0.6,245.1,M,16.6,M,,*5F,1759152108000
NMEA,$PSAMSA,132148.000,3154.0014,N,03500.4191,E,1,M,,*68,1759152108000
NMEA,$GPGLL,3154.0014,N,03500.4191,E,132148.000,A,A*59,1759152108000
NMEA,$GPVTG,343.2,T,,M,0.0,N,0.0,K,A*0B,1759152108000
NMEA,$GPGSV,4,1,11,05,36,283,30,07,38,055,46,09,22,128,28,13,31,317,34*72,1759152108000
NMEA,$GPGSV,4,2,11,14,78,203,41,17,17,156,35,21,45,239,30,22,60,207,32*7E,1759152108000
NMEA,$GPGSV,4,3,11,30,59,019,41*4C,1759152108000
NMEA,$GPGSV,4,4,11,14,78,203,32,30,59,019,35,8*66,1759152108000
NMEA,$GLGSV,2,1,06,65,42,329,32,71,22,149,27,72,76,145,39,74,39,024,38*69,1759152108000
NMEA,$GLGSV,2,2,06,75,64,289,34,76,17,236,34*60,1759152108000
NMEA,$GAGSV,3,1,10,107,52,107,38,119,18,313,22,121,34,210,35,127,81,115,42*68,1759152108000
NMEA,$GAGSV,3,2,10,129,63,335,38,130,34,043,44*6B,1759152108000
NMEA,$GAGSV,3,3,10,121,34,210,25,127,81,115,33,129,63,335,31,130,34,043,34,1*70,1759152108000
NMEA,$BDGSV,4,1,11,207,30,077,35,209,24,063,37,210,36,089,30,214,28,317,31*6F,1759152108000
NMEA,$BDGSV,4,2,11,221,63,178,37,222,14,153,25,224,25,250,37,226,67,294,30*6C,1759152108000
NMEA,$BDGSV,4,3,11*6F,1759152108000
NMEA,$BDGSV,4,4,11,221,63,178,32,226,67,294,29,5*79,1759152108000
NMEA,$GPGSA,A,3,07,13,14,21,22,,,,,,,,1.0,0.6,0.8*3E,1759152108000
NMEA,$GNGSA,A,3,65,72,74,75,76,,,,,,,,1.0,0.6,0.8*25,1759152108000
NMEA,$GAGSA,A,3,107,119,121,127,130,,,,,,,,1.0,0.6,0.8*17,1759152108000
NMEA,$BDGSA,A,3,207,209,210,214,221,224,,,,,,,1.0,0.6,0.8*23,1759152108000
NMEA,$PSSGR,GSA,A,3,30,,,,,,,,,,,,1.0,0.6,0.8,1,8*49,1759152108000
NMEA,$PSSGR,GSA,A,3,129,,,,,,,,,,,,1.0,0.6,0.8,3,1*7B,1759152108000
NMEA,$PSSGR,GSA,A,3,226,,,,,,,,,,,,1.0,0.6,0.8,4,5*74,1759152108000
NMEA,$GPRMC,132148.000,A,3154.0014,N,03500.4191,E,0.0,,290925,,,A*45,1759152108000
NMEA,$GPGGA,132149.000,3154.0014,N,03500.4196,E,1,25,0.4,244.8,M,16.6,M,,*52,1759152109000
NMEA,$PSAMSA,132149.000,3154.0014,N,03500.4196,E,0,M,,*6F,1759152109000
NMEA,$GPGLL,3154.0014,N,03500.4196,E,132149.000,A,A*5F,1759152109000
NMEA,$GPVTG,343.2,T,,M,0.3,N,0.6,K,A*0E,1759152109000
NMEA,$GPGSV,4,1,12,05,36,283,29,07,38,055,45,09,22,128,28,13,31,317,35*7B,1759152109000
NMEA,$GPGSV,4,2,12,14,78,203,41,17,17,156,34,21,45,239,30,22,60,207,32*7C,1759152109000
NMEA,$GPGSV,4,3,12,30,59,019,41*4F,1759152109000
NMEA,$GPGSV,4,4,12,14,78,203,31,21,45,239,19,30,59,019,35,8*54,1759152109000
NMEA,$GLGSV,2,1,06,65,42,329,32,71,22,149,26,72,76,145,39,74,39,024,38*68,1759152109000
NMEA,$GLGSV,2,2,06,75,64,289,34,76,17,236,34*60,1759152109000
NMEA,$GAGSV,3,1,11,107,52,107,38,119,18,313,22,121,34,210,34,127,81,115,42*68,1759152109000
NMEA,$GAGSV,3,2,11,129,63,335,37,130,34,043,45*64,1759152109000
NMEA,$GAGSV,3,3,11,121,34,210,27,127,81,115,33,129,63,335,31,130,34,043,34,1*73,1759152109000
NMEA,$BDGSV,4,1,11,207,30,077,34,209,24,063,38,210,36,089,30,214,28,317,31*61,1759152109000
NMEA,$BDGSV,4,2,11,221,63,178,37,222,14,153,22,224,25,250,37,226,67,294,29*63,1759152109000
NMEA,$BDGSV,4,3,11*6F,1759152109000
NMEA,$BDGSV,4,4,11,221,63,178,32,226,67,294,28,5*78,1759152109000
NMEA,$GPGSA,A,3,05,07,13,17,21,22,,,,,,,1.0,0.4,0.8*3A,1759152109000
NMEA,$GNGSA,A,3,65,72,74,75,76,,,,,,,,1.0,0.4,0.8*27,1759152109000
NMEA,$GAGSA,A,3,107,119,127,130,,,,,,,,,1.0,0.4,0.8*27,1759152109000
NMEA,$BDGSA,A,3,207,209,210,214,221,224,,,,,,,1.0,0.4,0.8*21,1759152109000
NMEA,$PSSGR,GSA,A,3,14,30,,,,,,,,,,,1.0,0.4,0.8,1,8*4E,1759152109000
NMEA,$PSSGR,GSA,A,3,129,,,,,,,,,,,,1.0,0.4,0.8,3,1*79,1759152109000
NMEA,$PSSGR,GSA,A,3,226,,,,,,,,,,,,1.0,0.4,0.8,4,5*76,1759152109000
NMEA,$GPRMC,132149.000,A,3154.0014,N,03500.4196,E,0.3,343.2,290925,,,A*68,1759152109000
NMEA,$GPGGA,132150.000,3154.0011,N,03500.4199,E,1,25,0.4,245.1,M,16.6,M,,*58,1759152110000
NMEA,$PSAMSA,132150.000,3154.0011,N,03500.4199,E,0,M,,*6D,1759152110000
NMEA,$GPGLL,3154.0011,N,03500.4199,E,132150.000,A,A*5D,1759152110000
NMEA,$GPVTG,343.2,T,,M,0.1,N,0.2,K,A*08,1759152110000
NMEA,$GPGSV,4,1,11,05,36,283,28,07,38,055,45,09,22,128,28,13,31,317,35*79,1759152110000
NMEA,$GPGSV,4,2,11,14,78,203,40,17,17,156,33,21,45,239,30,22,60,207,32*79,1759152110000
NMEA,$GPGSV,4,3,11,30,59,019,41*4C,1759152110000
NMEA,$GPGSV,4,4,11,14,78,203,31,30,59,019,35,8*65,1759152110000
NMEA,$GLGSV,2,1,06,65,43,329,32,71,22,149,25,72,76,145,39,74,39,024,38*6A,1759152110000
NMEA,$GLGSV,2,2,06,75,64,289,33,76,17,236,34*67,1759152110000
NMEA,$GAGSV,4,1,11,107,52,107,38,119,18,313,22,121,35,210,35,127,81,114,42*6E,1759152110000
NMEA,$GAGSV,4,2,11,129,63,335,36,130,33,043,45*65,1759152110000
NMEA,$GAGSV,4,3,11,107,52,107,25,121,35,210,27,127,81,114,32,129,63,335,30,1*71,1759152110000
NMEA,$GAGSV,4,4,11,130,33,043,34,1*77,1759152110000
NMEA,$BDGSV,4,1,11,207,31,077,34,209,24,063,38,210,36,089,30,214,28,317,31*60,1759152110000
NMEA,$BDGSV,4,2,11,221,62,178,36,222,13,153,19,224,25,250,37,226,67,294,28*6D,1759152110000
NMEA,$BDGSV,4,3,11*6F,1759152110000
NMEA,$BDGSV,4,4,11,221,62,178,31,226,67,294,27,5*75,1759152110000
NMEA,$GPGSA,A,3,05,07,13,17,21,22,,,,,,,1.0,0.4,0.8*3A,1759152110000
NMEA,$GNGSA,A,3,65,72,74,75,76,,,,,,,,1.0,0.4,0.8*27,1759152110000
NMEA,$GAGSA,A,3,107,119,127,130,,,,,,,,,1.0,0.4,0.8*27,1759152110000
NMEA,$BDGSA,A,3,207,209,210,214,221,224,,,,,,,1.0,0.4,0.8*21,1759152110000
NMEA,$PSSGR,GSA,A,3,14,30,,,,,,,,,,,1.0,0.4,0.8,1,8*4E,1759152110000
NMEA,$PSSGR,GSA,A,3,129,,,,,,,,,,,,1.0,0.4,0.8,3,1*79,1759152110000
NMEA,$PSSGR,GSA,A,3,226,,,,,,,,,,,,1.0,0.4,0.8,4,5*76,1759152110000
NMEA,$GPRMC,132150.000,A,3154.0011,N,03500.4199,E,0.1,343.2,290925,,,A*68,1759152110000
NMEA,$GPGGA,132151.000,3154.0011,N,03500.4205,E,1,26,0.4,246.0,M,16.6,M,,*5E,1759152111000
NMEA,$PSAMSA,132151.000,3154.0011,N,03500.4205,E,0,M,,*6A,1759152111000
NMEA,$GPGLL,3154.0011,N,03500.4205,E,132151.000,A,A*5A,1759152111000
NMEA,$GPVTG,343.2,T,,M,0.2,N,0.4,K,A*0D,1759152111000
NMEA,$GPGSV,4,1,12,05,36,283,28,07,38,055,45,09,22,128,28,13,31,317,34*7B,1759152111000
NMEA,$GPGSV,4,2,12,14,78,203,40,17,17,156,33,21,45,239,30,22,60,207,32*7A,1759152111000
NMEA,$GPGSV,4,3,12,30,59,019,41*4F,1759152111000
NMEA,$GPGSV,4,4,12,14,78,203,31,30,59,019,34,8*67,1759152111000
NMEA,$GLGSV,2,1,06,65,43,329,32,71,22,149,25,72,76,145,39,74,39,024,38*6A,1759152111000
NMEA,$GLGSV,2,2,06,75,64,289,33,76,17,236,34*67,1759152111000
NMEA,$GAGSV,4,1,11,107,52,107,38,119,18,313,22,121,35,210,35,127,81,114,42*6E,1759152111000
NMEA,$GAGSV,4,2,11,129,63,335,36,130,33,043,45*65,1759152111000
NMEA,$GAGSV,4,3,11,107,52,107,29,121,35,210,25,127,81,114,32,129,63,335,30,1*7F,1759152111000
NMEA,$GAGSV,4,4,11,130,33,043,34,1*77,1759152111000
NMEA,$BDGSV,4,1,11,207,31,077,34,209,24,063,38,210,36,089,30,214,28,317,31*60,1759152111000
NMEA,$BDGSV,4,2,11,221,62,178,36,222,13,153,16,224,25,250,38,226,67,294,28*6D,1759152111000
NMEA,$BDGSV,4,3,11*6F,1759152111000
NMEA,$BDGSV,4,4,11,221,62,178,30,226,67,294,27,5*74,1759152111000
NMEA,$GPGSA,A,3,05,07,13,17,21,22,,,,,,,1.0,0.4,0.8*3A,1759152111000
NMEA,$GNGSA,A,3,65,71,72,74,75,76,,,,,,,1.0,0.4,0.8*21,1759152111000
NMEA,$GAGSA,A,3,107,119,127,130,,,,,,,,,1.0,0.4,0.8*27,1759152111000
NMEA,$BDGSA,A,3,207,209,210,214,221,224,,,,,,,1.0,0.4,0.8*21,1759152111000
NMEA,$PSSGR,GSA,A,3,14,30,,,,,,,,,,,1.0,0.4,0.8,1,8*4E,1759152111000
NMEA,$PSSGR,GSA,A,3,129,,,,,,,,,,,,1.0,0.4,0.8,3,1*79,1759152111000
NMEA,$PSSGR,GSA,A,3,226,,,,,,,,,,,,1.0,0.4,0.8,4,5*76,1759152111000
NMEA,$GPRMC,132151.000,A,3154.0011,N,03500.4205,E,0.2,343.2,290925,,,A*6C,1759152111000
NMEA,$GPGGA,132152.000,3154.0009,N,03500.4207,E,1,24,0.6,245.8,M,16.6,M,,*5D,1759152112000
NMEA,$PSAMSA,132152.000,3154.0009,N,03500.4207,E,0,M,,*62,1759152112000
NMEA,$GPGLL,3154.0009,N,03500.4207,E,132152.000,A,A*52,1759152112000
NMEA,$GPVTG,343.2,T,,M,0.4,N,0.8,K,A*07,1759152112000
NMEA,$GPGSV,4,1,13,05,36,283,28,07,38,055,46,08,09,045,17,09,22,128,28*7D,1759152112000
NMEA,$GPGSV,4,2,13,13,31,317,34,14,78,203,40,17,17,156,32,21,45,239,30*7A,1759152112000
NMEA,$GPGSV,4,3,13,22,60,207,32,30,59,019,41*7C,1759152112000
NMEA,$GPGSV,4,4,13,14,78,203,31,30,59,019,33,8*61,1759152112000
NMEA,$GLGSV,2,1,06,65,43,329,31,71,22,149,32,72,76,145,40,74,39,024,38*61,1759152112000
NMEA,$GLGSV,2,2,06,75,64,289,32,76,17,236,34*66,1759152112000
NMEA,$GAGSV,4,1,11,107,52,107,38,119,18,313,22,121,35,210,35,127,81,114,42*6E,1759152112000
NMEA,$GAGSV,4,2,11,129,63,335,35,130,33,043,44*67,1759152112000
NMEA,$GAGSV,4,3,11,107,52,107,30,121,35,210,24,127,81,114,34,129,63,335,30,1*70,1759152112000
NMEA,$GAGSV,4,4,11,130,33,043,33,1*70,1759152112000
NMEA,$BDGSV,4,1,11,207,31,077,35,209,24,063,38,210,36,089,30,214,28,317,31*61,1759152112000
NMEA,$BDGSV,4,2,11,221,62,178,36,222,13,153,14,224,25,250,38,226,67,294,28*6F,1759152112000
NMEA,$BDGSV,4,3,11*6F,1759152112000
NMEA,$BDGSV,4,4,11,221,62,178,30,226,67,294,26,5*75,1759152112000
NMEA,$GPGSA,A,3,05,07,08,13,21,22,,,,,,,1.0,0.6,0.8*36,1759152112000
NMEA,$GNGSA,A,3,65,72,74,75,76,,,,,,,,1.0,0.6,0.8*25,1759152112000
NMEA,$GAGSA,A,3,107,127,130,,,,,,,,,,1.0,0.6,0.8*1C,1759152112000
NMEA,$BDGSA,A,3,207,209,210,214,221,224,,,,,,,1.0,0.6,0.8*23,1759152112000
NMEA,$PSSGR,GSA,A,3,14,30,,,,,,,,,,,1.0,0.6,0.8,1,8*4C,1759152112000
NMEA,$PSSGR,GSA,A,3,129,,,,,,,,,,,,1.0,0.6,0.8,3,1*7B,1759152112000
NMEA,$PSSGR,GSA,A,3,226,,,,,,,,,,,,1.0,0.6,0.8,4,5*74,1759152112000
NMEA,$GPRMC,132152.000,A,3154.0009,N,03500.4207,E,0.4,343.2,290925,,,A*62,1759152112000
NMEA,$GPGGA,132153.000,3154.0012,N,03500.4210,E,1,25,0.6,246.2,M,16.6,M,,*58,1759152113000
NMEA,$PSAMSA,132153.000,3154.0012,N,03500.4210,E,0,M,,*6F,1759152113000
NMEA,$GPGLL,3154.0012,N,03500.4210,E,132153.000,A,A*5F,1759152113000
NMEA,$GPVTG,343.2,T,,M,0.5,N,0.9,K,A*07,1759152113000
NMEA,$GPGSV,4,1,13,05,36,283,28,07,38,055,46,08,09,045,17,09,22,128,28*7D,1759152113000
NMEA,$GPGSV,4,2,13,13,31,317,34,14,78,203,40,17,17,156,32,21,45,239,30*7A,1759152113000
NMEA,$GPGSV,4,3,13,22,60,207,32,30,59,019,40*7D,1759152113000
NMEA,$GPGSV,4,4,13,14,78,203,30,30,59,019,33,8*60,1759152113000
NMEA,$GLGSV,2,1,06,65,43,329,31,71,22,149,32,72,76,145,40,74,39,024,38*61,1759152113000
NMEA,$GLGSV,2,2,06,75,64,289,32,76,17,236,36*64,1759152113000
NMEA,$GAGSV,4,1,11,107,52,107,38,119,18,313,22,121,35,210,35,127,81,114,42*6E,1759152113000
NMEA,$GAGSV,4,2,11,129,63,335,35,130,33,043,44*67,1759152113000
NMEA,$GAGSV,4,3,11,107,52,107,30,121,35,210,23,127,81,114,34,129,63,335,30,1*77,1759152113000
NMEA,$GAGSV,4,4,11,130,33,043,33,1*70,1759152113000
NMEA,$BDGSV,3,1,11,207,31,077,35,209,24,063,38,210,36,089,30,214,28,317,31*66,1759152113000
NMEA,$BDGSV,3,2,11,221,62,178,36,222,13,153,12,224,25,250,38,226,67,294,27*61,1759152113000
NMEA,$BDGSV,3,3,11,221,62,178,30,224,25,250,19,226,67,294,26,5*79,1759152113000
NMEA,$GPGSA,A,3,05,07,08,13,21,22,,,,,,,1.0,0.6,0.8*36,1759152113000
NMEA,$GNGSA,A,3,65,72,74,75,76,,,,,,,,1.0,0.6,0.8*25,1759152113000
NMEA,$GAGSA,A,3,107,119,127,,,,,,,,,,1.0,0.6,0.8*17,1759152113000
NMEA,$BDGSA,A,3,207,209,210,214,221,224,,,,,,,1.0,0.6,0.8*23,1759152113000
NMEA,$PSSGR,GSA,A,3,14,30,,,,,,,,,,,1.0,0.6,0.8,1,8*4C,1759152113000
NMEA,$PSSGR,GSA,A,3,129,130,,,,,,,,,,,1.0,0.6,0.8,3,1*49,1759152113000
NMEA,$PSSGR,GSA,A,3,226,,,,,,,,,,,,1.0,0.6,0.8,4,5*74,1759152113000
NMEA,$GPRMC,132153.000,A,3154.0012,N,03500.4210,E,0.5,343.2,290925,,,A*6E,1759152113000
NMEA,$GPGGA,132154.000,3154.0013,N,03500.4214,E,1,24,0.6,246.6,M,16.6,M,,*5F,1759152114000
NMEA,$PSAMSA,132154.000,3154.0013,N,03500.4214,E,0,M,,*6D,1759152114000
NMEA,$GPGLL,3154.0013,N,03500.4214,E,132154.000,A,A*5D,1759152114000
NMEA,$GPVTG,343.2,T,,M,0.5,N,1.0,K,A*0F,1759152114000
NMEA,$GPGSV,4,1,13,05,36,283,28,07,38,055,46,08,09,045,17,09,22,128,28*7D,1759152114000
NMEA,$GPGSV,4,2,13,13,31,317,34,14,78,203,39,17,17,156,32,21,45,239,30*74,1759152114000
NMEA,$GPGSV,4,3,13,22,60,207,32,30,59,019,40*7D,1759152114000
NMEA,$GPGSV,4,4,13,14,78,203,31,30,59,019,34,8*66,1759152114000
NMEA,$GLGSV,2,1,06,65,43,329,30,71,22,149,32,72,76,145,40,74,39,024,38*60,1759152114000
NMEA,$GLGSV,2,2,06,75,64,289,32,76,17,236,40*65,1759152114000
NMEA,$GAGSV,4,1,11,107,52,107,40,119,18,313,22,121,35,210,35,127,81,114,42*61,1759152114000
NMEA,$GAGSV,4,2,11,129,63,335,34,130,33,043,43*61,1759152114000
NMEA,$GAGSV,4,3,11,107,52,107,30,121,35,210,23,127,81,114,33,129,63,335,30,1*70,1759152114000
NMEA,$GAGSV,4,4,11,130,33,043,34,1*77,1759152114000
NMEA,$BDGSV,3,1,10,207,31,077,35,209,24,063,38,210,36,089,30,214,28,317,31*67,1759152114000
NMEA,$BDGSV,3,2,10,221,62,178,35,224,25,250,38,226,67,294,27*67,1759152114000
NMEA,$BDGSV,3,3,10,221,62,178,29,224,25,250,19,226,67,294,25,5*73,1759152114000
NMEA,$GPGSA,A,3,05,07,08,13,17,21,22,,,,,,1.0,0.6,0.8*30,1759152114000
NMEA,$GNGSA,A,3,65,72,74,75,76,,,,,,,,1.0,0.6,0.8*25,1759152114000
NMEA,$GAGSA,A,3,107,127,,,,,,,,,,,1.0,0.6,0.8*2E,1759152114000
NMEA,$BDGSA,A,3,207,209,210,221,224,,,,,,,,1.0,0.6,0.8*14,1759152114000
NMEA,$PSSGR,GSA,A,3,14,30,,,,,,,,,,,1.0,0.6,0.8,1,8*4C,1759152114000
NMEA,$PSSGR,GSA,A,3,129,130,,,,,,,,,,,1.0,0.6,0.8,3,1*49,1759152114000
NMEA,$PSSGR,GSA,A,3,226,,,,,,,,,,,,1.0,0.6,0.8,4,5*74,1759152114000
NMEA,$GPRMC,132154.000,A,3154.0013,N,03500.4214,E,0.5,343.2,290925,,,A*6C,1759152114000
NMEA,$GPGGA,132155.000,3154.0014,N,03500.4215,E,1,26,0.4,246.5,M,16.6,M,,*5B,1759152115000
NMEA,$PSAMSA,132155.000,3154.0014,N,03500.4215,E,0,M,,*6A,1759152115000
NMEA,$GPGLL,3154.0014,N,03500.4215,E,132155.000,A,A*5A,1759152115000
NMEA,$GPVTG,343.2,T,,M,0.2,N,0.4,K,A*0D,1759152115000
NMEA,$GPGSV,4,1,12,05,36,283,27,07,38,055,46,08,09,045,17,09,22,128,28*73,1759152115000
NMEA,$GPGSV,4,2,12,13,31,317,34,14,78,203,39,17,17,156,31,21,45,239,30*76,1759152115000
NMEA,$GPGSV,4,3,12,22,60,207,32,30,59,019,40*7C,1759152115000
NMEA,$GPGSV,4,4,12,14,78,203,31,30,59,019,34,8*67,1759152115000
NMEA,$GLGSV,2,1,06,65,43,329,30,71,22,149,32,72,76,145,40,74,39,024,38*60,1759152115000
NMEA,$GLGSV,2,2,06,75,64,289,32,76,17,236,40*65,1759152115000
NMEA,$GAGSV,4,1,11,107,52,107,46,119,18,313,22,121,35,210,35,127,81,114,42*67,1759152115000
NMEA,$GAGSV,4,2,11,129,63,335,34,130,33,043,42*60,1759152115000
NMEA,$GAGSV,4,3,11,107,52,107,31,121,35,210,30,127,81,114,33,129,63,335,29,1*7B,1759152115000
NMEA,$GAGSV,4,4,11,130,33,043,33,1*70,1759152115000
NMEA,$BDGSV,3,1,10,207,31,077,35,209,24,063,38,210,36,089,30,214,28,317,31*67,1759152115000
NMEA,$BDGSV,3,2,10,221,62,178,35,224,25,250,38,226,67,294,31*60,1759152115000
NMEA,$BDGSV,3,3,10,221,62,178,28,224,25,250,24,226,67,294,25,5*7C,1759152115000
NMEA,$GPGSA,A,3,05,07,08,13,17,21,22,,,,,,1.0,0.4,0.8*32,1759152115000
NMEA,$GNGSA,A,3,65,72,74,75,76,,,,,,,,1.0,0.4,0.8*27,1759152115000
NMEA,$GAGSA,A,3,107,119,127,129,,,,,,,,,1.0,0.4,0.8*2F,1759152115000
NMEA,$BDGSA,A,3,207,209,210,214,221,224,226,,,,,,1.0,0.4,0.8*17,1759152115000
NMEA,$PSSGR,GSA,A,3,14,30,,,,,,,,,,,1.0,0.4,0.8,1,8*4E,1759152115000
NMEA,$PSSGR,GSA,A,3,130,,,,,,,,,,,,1.0,0.4,0.8,3,1*71,1759152115000
NMEA,$GPRMC,132155.000,A,3154.0014,N,03500.4215,E,0.2,343.2,290925,,,A*6C,1759152115000
NMEA,$GPGGA,132156.000,3154.0013,N,03500.4218,E,1,27,0.4,246.3,M,16.6,M,,*55,1759152116000
NMEA,$PSAMSA,132156.000,3154.0013,N,03500.4218,E,0,M,,*63,1759152116000
NMEA,$GPGLL,3154.0013,N,03500.4218,E,132156.000,A,A*53,1759152116000
NMEA,$GPVTG,343.2,T,,M,0.5,N,0.9,K,A*07,1759152116000
NMEA,$GPGSV,4,1,13,05,36,282,27,07,38,055,46,08,09,045,17,13,31,317,33*7E,1759152116000
NMEA,$GPGSV,4,2,13,14,78,203,39,17,17,156,31,21,45,239,30,22,60,207,32*77,1759152116000
NMEA,$GPGSV,4,3,13,30,59,019,40*4F,1759152116000
NMEA,$GPGSV,4,4,13,14,78,203,31,30,59,019,39,8*6B,1759152116000
NMEA,$GLGSV,2,1,06,65,43,329,30,71,22,149,32,72,76,145,40,74,39,024,39*61,1759152116000
NMEA,$GLGSV,2,2,06,75,64,289,31,76,17,236,40*66,1759152116000
NMEA,$GAGSV,4,1,11,107,52,107,46,119,18,313,22,121,35,210,35,127,81,114,42*67,1759152116000
NMEA,$GAGSV,4,2,11,129,63,335,34,130,33,043,41*63,1759152116000
NMEA,$GAGSV,4,3,11,107,52,107,31,121,35,210,30,127,81,114,33,129,63,335,29,1*7B,1759152116000
NMEA,$GAGSV,4,4,11,130,33,043,36,1*75,1759152116000
NMEA,$BDGSV,3,1,10,207,31,077,35,209,24,063,38,210,36,089,30,214,28,317,31*67,1759152116000
NMEA,$BDGSV,3,2,10,221,62,178,35,224,25,250,38,226,67,294,34*65,1759152116000
NMEA,$BDGSV,3,3,10,221,62,178,28,224,25,250,24,226,67,294,25,5*7C,1759152116000
NMEA,$GPGSA,A,3,05,07,08,13,17,21,22,,,,,,0.8,0.4,0.8*3B,1759152116000
NMEA,$GNGSA,A,3,65,71,72,74,75,76,,,,,,,0.8,0.4,0.8*28,1759152116000
NMEA,$GAGSA,A,3,107,119,127,129,,,,,,,,,0.8,0.4,0.8*26,1759152116000
NMEA,$BDGSA,A,3,207,209,210,214,221,224,226,,,,,,0.8,0.4,0.8*1E,1759152116000
NMEA,$PSSGR,GSA,A,3,14,30,,,,,,,,,,,0.8,0.4,0.8,1,8*47,1759152116000
NMEA,$PSSGR,GSA,A,3,130,,,,,,,,,,,,0.8,0.4,0.8,3,1*78,1759152116000
NMEA,$GPRMC,132156.000,A,3154.0013,N,03500.4218,E,0.5,343.2,290925,,,A*62,1759152116000
NMEA,$GPGGA,132157.000,3154.0013,N,03500.4215,E,1,25,0.6,245.7,M,16.6,M,,*5E,1759152117000
NMEA,$PSAMSA,132157.000,3154.0013,N,03500.4215,E,0,M,,*6F,1759152117000
NMEA,$GPGLL,3154.0013,N,03500.4215,E,132157.000,A,A*5F,1759152117000
NMEA,$GPVTG,343.2,T,,M,0.5,N,0.9,K,A*07,1759152117000
NMEA,$GPGSV,4,1,13,05,36,282,27,07,38,056,46,08,09,045,18,09,22,128,25*72,1759152117000
NMEA,$GPGSV,4,2,13,13,31,317,33,14,78,203,38,17,17,156,31,21,45,239,30*71,1759152117000
NMEA,$GPGSV,4,3,13,22,60,207,32,30,59,019,41*7C,1759152117000
NMEA,$GPGSV,4,4,13,14,78,203,30,30,59,019,39,8*6A,1759152117000
NMEA,$GLGSV,2,1,06,65,43,329,29,71,22,149,33,72,76,145,40,74,39,024,39*68,1759152117000
NMEA,$GLGSV,2,2,06,75,64,289,31,76,17,236,40*66,1759152117000
NMEA,$GAGSV,4,1,11,107,52,107,45,119,18,313,22,121,35,210,35,127,81,114,41*67,1759152117000
NMEA,$GAGSV,4,2,11,129,63,335,34,130,33,043,41*63,1759152117000
NMEA,$GAGSV,4,3,11,107,52,107,31,121,35,210,29,127,81,114,33,129,63,335,29,1*73,1759152117000
NMEA,$GAGSV,4,4,11,130,33,043,37,1*74,1759152117000
NMEA,$BDGSV,3,1,10,207,31,077,35,209,24,063,37,210,36,089,30,214,28,317,31*68,1759152117000
NMEA,$BDGSV,3,2,10,221,62,178,35,224,25,250,37,226,67,294,34*6A,1759152117000
NMEA,$BDGSV,3,3,10,221,62,178,27,224,25,250,25,226,67,294,24,5*73,1759152117000
NMEA,$GPGSA,A,3,05,07,08,13,21,22,,,,,,,1.0,0.6,0.8*36,1759152117000
NMEA,$GNGSA,A,3,65,72,74,75,76,,,,,,,,1.0,0.6,0.8*25,1759152117000
NMEA,$GAGSA,A,3,107,119,129,,,,,,,,,,1.0,0.6,0.8*19,1759152117000
NMEA,$BDGSA,A,3,207,209,210,214,221,224,226,,,,,,1.0,0.6,0.8*15,1759152117000
NMEA,$PSSGR,GSA,A,3,14,30,,,,,,,,,,,1.0,0.6,0.8,1,8*4C,1759152117000
NMEA,$PSSGR,GSA,A,3,127,130,,,,,,,,,,,1.0,0.6,0.8,3,1*47,1759152117000
NMEA,$GPRMC,132157.000,A,3154.0013,N,03500.4215,E,0.5,343.2,290925,,,A*6E,1759152117000
NMEA,$GPGGA,132158.000,3154.0013,N,03500.4215,E,1,25,0.6,246.0,M,16.6,M,,*55,1759152118000
NMEA,$PSAMSA,132158.000,3154.0013,N,03500.4215,E,0,M,,*60,1759152118000
NMEA,$GPGLL,3154.0013,N,03500.4215,E,132158.000,A,A*50,1759152118000
NMEA,$GPVTG,343.2,T,,M,0.6,N,1.1,K,A*0D,1759152118000
NMEA,$GPGSV,4,1,13,05,36,282,28,07,38,056,47,08,09,045,18,09,22,128,24*7D,1759152118000
NMEA,$GPGSV,4,2,13,13,31,317,33,14,78,203,38,17,17,156,31,21,45,239,30*71,1759152118000
NMEA,$GPGSV,4,3,13,22,60,207,32,30,59,019,42*7F,1759152118000
NMEA,$GPGSV,4,4,13,14,78,203,30,30,59,019,38,8*6B,1759152118000
NMEA,$GLGSV,2,1,06,65,43,329,29,71,22,149,33,72,76,145,40,74,39,024,39*68,1759152118000
NMEA,$GLGSV,2,2,06,75,64,289,31,76,17,236,39*68,1759152118000
NMEA,$GAGSV,4,1,11,107,52,107,45,119,18,313,22,121,35,210,35,127,81,114,41*67,1759152118000
NMEA,$GAGSV,4,2,11,129,63,335,34,130,33,043,41*63,1759152118000
NMEA,$GAGSV,4,3,11,107,52,107,31,121,35,210,29,127,81,114,33,129,63,335,28,1*72,1759152118000
NMEA,$GAGSV,4,4,11,130,33,043,36,1*75,1759152118000
NMEA,$BDGSV,3,1,10,207,31,077,35,209,24,063,37,210,36,089,30,214,28,317,31*68,1759152118000
NMEA,$BDGSV,3,2,10,221,62,178,35,224,25,250,37,226,67,294,34*6A,1759152118000
NMEA,$BDGSV,3,3,10,221,62,178,27,224,25,250,24,226,67,294,24,5*72,1759152118000
NMEA,$GPGSA,A,3,05,07,08,13,21,22,,,,,,,1.0,0.6,0.8*36,1759152118000
NMEA,$GNGSA,A,3,65,72,74,75,76,,,,,,,,1.0,0.6,0.8*25,1759152118000
NMEA,$GAGSA,A,3,107,119,127,129,,,,,,,,,1.0,0.6,0.8*2D,1759152118000
NMEA,$BDGSA,A,3,207,209,210,214,221,224,226,,,,,,1.0,0.6,0.8*15,1759152118000
NMEA,$PSSGR,GSA,A,3,14,30,,,,,,,,,,,1.0,0.6,0.8,1,8*4C,1759152118000
NMEA,$PSSGR,GSA,A,3,130,,,,,,,,,,,,1.0,0.6,0.8,3,1*73,1759152118000
NMEA,$GPRMC,132158.000,A,3154.0013,N,03500.4215,E,0.6,343.2,290925,,,A*62,1759152118000
NMEA,$GPGGA,132159.000,3154.0013,N,03500.4213,E,1,25,0.6,246.3,M,16.6,M,,*51,1759152119000
NMEA,$PSAMSA,132159.000,3154.0013,N,03500.4213,E,0,M,,*67,1759152119000
NMEA,$GPGLL,3154.0013,N,03500.4213,E,132159.000,A,A*57,1759152119000
NMEA,$GPVTG,343.2,T,,M,0.5,N,0.9,K,A*07,1759152119000
NMEA,$GPGSV,4,1,13,05,36,282,28,07,38,056,47,08,09,045,18,09,22,128,24*7D,1759152119000
NMEA,$GPGSV,4,2,13,13,31,317,33,14,78,203,38,17,17,156,31,21,45,239,30*71,1759152119000
NMEA,$GPGSV,4,3,13,22,60,207,32,30,59,019,42*7F,1759152119000
NMEA,$GPGSV,4,4,13,14,78,203,29,30,59,019,38,8*63,1759152119000
NMEA,$GLGSV,2,1,06,65,43,329,29,71,22,149,33,72,76,145,40,74,39,024,39*68,1759152119000
NMEA,$GLGSV,2,2,06,75,64,289,31,76,17,236,39*68,1759152119000
NMEA,$GAGSV,4,1,11,107,52,107,45,119,18,313,22,121,35,210,36,127,81,114,40*65,1759152119000
NMEA,$GAGSV,4,2,11,129,63,335,33,130,33,043,40*65,1759152119000
NMEA,$GAGSV,4,3,11,107,52,107,31,121,35,210,28,127,81,114,32,129,63,335,28,1*72,1759152119000
NMEA,$GAGSV,4,4,11,130,33,043,36,1*75,1759152119000
NMEA,$BDGSV,3,1,10,207,31,077,35,209,24,063,36,210,36,089,30,214,28,317,31*69,1759152119000
NMEA,$BDGSV,3,2,10,221,62,178,36,224,25,250,36,226,67,294,33*6F,1759152119000
NMEA,$BDGSV,3,3,10,221,62,178,26,224,25,250,24,226,67,294,23,5*74,1759152119000
NMEA,$GPGSA,A,3,05,07,08,13,21,22,,,,,,,1.0,0.6,0.8*36,1759152119000
NMEA,$GNGSA,A,3,65,72,74,75,76,,,,,,,,1.0,0.6,0.8*25,1759152119000
NMEA,$GAGSA,A,3,107,119,127,129,,,,,,,,,1.0,0.6,0.8*2D,1759152119000
NMEA,$BDGSA,A,3,207,209,210,214,221,224,226,,,,,,1.0,0.6,0.8*15,1759152119000
NMEA,$PSSGR,GSA,A,3,14,30,,,,,,,,,,,1.0,0.6,0.8,1,8*4C,1759152119000
NMEA,$PSSGR,GSA,A,3,130,,,,,,,,,,,,1.0,0.6,0.8,3,1*73,1759152119000
NMEA,$GPRMC,132159.000,A,3154.0013,N,03500.4213,E,0.5,343.2,290925,,,A*66,1759152119000
NMEA,$GPGGA,132200.000,3154.0014,N,03500.4216,E,1,26,0.4,246.7,M,16.6,M,,*59,1759152120000
NMEA,$PSAMSA,132200.000,3154.0014,N,03500.4216,E,0,M,,*6A,1759152120000
NMEA,$GPGLL,3154.0014,N,03500.4216,E,132200.000,A,A*5A,1759152120000
NMEA,$GPVTG,343.2,T,,M,0.7,N,1.3,K,A*0E,1759152120000
NMEA,$GPGSV,4,1,12,05,36,282,31,07,38,056,47,08,09,045,18,09,22,128,24*74,1759152120000
NMEA,$GPGSV,4,2,12,13,31,317,33,14,78,203,38,17,17,156,31,21,45,239,30*70,1759152120000
NMEA,$GPGSV,4,3,12,22,60,207,32,30,59,019,43*7F,1759152120000
NMEA,$GPGSV,4,4,12,14,78,203,29,30,59,019,38,8*62,1759152120000
NMEA,$GLGSV,2,1,06,65,43,329,29,71,22,149,33,72,76,145,40,74,39,024,39*68,1759152120000
NMEA,$GLGSV,2,2,06,75,64,289,31,76,17,236,39*68,1759152120000
NMEA,$GAGSV,4,1,11,107,52,107,44,119,18,313,22,121,35,210,36,127,81,114,40*64,1759152120000
NMEA,$GAGSV,4,2,11,129,63,335,33,130,33,043,40*65,1759152120000
NMEA,$GAGSV,4,3,11,107,52,107,31,121,35,210,28,127,81,114,31,129,63,335,31,1*79,1759152120000
NMEA,$GAGSV,4,4,11,130,33,043,37,1*74,1759152120000
NMEA,$BDGSV,3,1,11,207,31,077,35,209,24,063,36,210,36,089,30,214,28,317,31*68,1759152120000
NMEA,$BDGSV,3,2,11,221,62,178,36,224,25,250,35,226,67,294,33,235,05,134,22*6A,1759152120000
NMEA,$BDGSV,3,3,11,221,62,178,27,224,25,250,24,226,67,294,23,5*74,1759152120000
NMEA,$GPGSA,A,3,05,07,08,13,21,22,,,,,,,1.0,0.4,0.8*34,1759152120000
NMEA,$GNGSA,A,3,65,71,72,74,75,76,,,,,,,1.0,0.4,0.8*21,1759152120000
NMEA,$GAGSA,A,3,107,119,127,,,,,,,,,,1.0,0.4,0.8*15,1759152120000
NMEA,$BDGSA,A,3,207,209,210,214,221,224,226,,,,,,1.0,0.4,0.8*17,1759152120000
NMEA,$PSSGR,GSA,A,3,14,30,,,,,,,,,,,1.0,0.4,0.8,1,8*4E,1759152120000
NMEA,$PSSGR,GSA,A,3,129,130,,,,,,,,,,,1.0,0.4,0.8,3,1*4B,1759152120000
NMEA,$GPRMC,132200.000,A,3154.0014,N,03500.4216,E,0.7,343.2,290925,,,A*69,1759152120000
NMEA,$GPGGA,132201.000,3154.0015,N,03500.4216,E,1,25,0.4,247.2,M,16.6,M,,*5E,1759152121000
NMEA,$PSAMSA,132201.000,3154.0015,N,03500.4216,E,0,M,,*6A,1759152121000
NMEA,$GPGLL,3154.0015,N,03500.4216,E,132201.000,A,A*5A,1759152121000
NMEA,$GPVTG,343.2,T,,M,0.7,N,1.3,K,A*0E,1759152121000
NMEA,$GPGSV,4,1,13,05,36,282,32,07,38,056,47,08,09,045,18,09,22,128,24*76,1759152121000
NMEA,$GPGSV,4,2,13,13,31,317,33,14,78,204,38,17,17,156,32,21,45,239,30*75,1759152121000
NMEA,$GPGSV,4,3,13,22,60,207,32,30,59,019,44*79,1759152121000
NMEA,$GPGSV,4,4,13,14,78,204,29,21,45,239,20,30,59,019,37,8*53,1759152121000
NMEA,$GLGSV,2,1,06,65,43,329,29,71,22,149,32,72,76,145,40,74,39,024,39*69,1759152121000
NMEA,$GLGSV,2,2,06,75,64,289,31,76,17,236,38*69,1759152121000
NMEA,$GAGSV,4,1,11,107,52,107,44,119,18,313,22,121,35,210,36,127,81,114,40*64,1759152121000
NMEA,$GAGSV,4,2,11,129,63,335,33,130,33,043,40*65,1759152121000
NMEA,$GAGSV,4,3,11,107,52,107,31,121,35,210,27,127,81,114,30,129,63,335,30,1*76,1759152121000
NMEA,$GAGSV,4,4,11,130,33,043,36,1*75,1759152121000
NMEA,$BDGSV,3,1,11,207,31,077,35,209,24,063,35,210,36,089,30,214,28,317,31*6B,1759152121000
NMEA,$BDGSV,3,2,11,221,62,178,37,224,25,250,35,226,67,294,33,235,05,134,23*6A,1759152121000
NMEA,$BDGSV,3,3,11,221,62,178,27,224,25,250,24,226,67,294,23,5*74,1759152121000
NMEA,$GPGSA,A,3,05,07,13,14,17,22,,,,,,,1.0,0.4,0.8*3C,1759152121000
NMEA,$GNGSA,A,3,65,71,72,74,75,76,,,,,,,1.0,0.4,0.8*21,1759152121000
NMEA,$GAGSA,A,3,107,119,127,130,,,,,,,,,1.0,0.4,0.8*27,1759152121000
NMEA,$BDGSA,A,3,207,209,210,214,221,224,226,,,,,,1.0,0.4,0.8*17,1759152121000
NMEA,$PSSGR,GSA,A,3,30,,,,,,,,,,,,1.0,0.4,0.8,1,8*4B,1759152121000
NMEA,$PSSGR,GSA,A,3,129,,,,,,,,,,,,1.0,0.4,0.8,3,1*79,1759152121000
NMEA,$GPRMC,132201.000,A,3154.0015,N,03500.4216,E,0.7,343.2,290925,,,A*69,1759152121000
NMEA,$GPGGA,132202.000,3154.0016,N,03500.4215,E,1,24,0.6,246.7,M,16.6,M,,*5A,1759152122000
NMEA,$PSAMSA,132202.000,3154.0016,N,03500.4215,E,0,M,,*69,1759152122000
NMEA,$GPGLL,3154.0016,N,03500.4215,E,132202.000,A,A*59,1759152122000
NMEA,$GPVTG,343.2,T,,M,0.9,N,1.6,K,A*05,1759152122000
NMEA,$GPGSV,4,1,13,05,36,282,32,07,38,056,47,08,09,045,18,09,22,128,24*76,1759152122000
NMEA,$GPGSV,4,2,13,13,31,317,33,14,78,204,37,17,17,156,32,21,45,239,30*7A,1759152122000
NMEA,$GPGSV,4,3,13,22,60,207,32,30,59,019,44*79,1759152122000
NMEA,$GPGSV,4,4,13,14,78,204,28,21,45,239,20,30,59,019,37,8*52,1759152122000
NMEA,$GLGSV,2,1,06,65,43,329,29,71,22,149,32,72,76,145,39,74,39,024,39*67,1759152122000
NMEA,$GLGSV,2,2,06,75,64,289,31,76,17,236,37*66,1759152122000
NMEA,$GAGSV,4,1,11,107,52,107,43,119,18,313,22,121,35,210,36,127,81,114,40*63,1759152122000
NMEA,$GAGSV,4,2,11,129,63,335,33,130,33,043,40*65,1759152122000
NMEA,$GAGSV,4,3,11,107,52,107,31,121,35,210,27,127,81,114,30,129,63,335,33,1*75,1759152122000
NMEA,$GAGSV,4,4,11,130,33,043,36,1*75,1759152122000
NMEA,$BDGSV,3,1,11,207,31,077,35,209,24,063,35,210,36,089,31,214,28,317,31*6A,1759152122000
NMEA,$BDGSV,3,2,11,221,62,178,37,224,25,250,34,226,67,294,33,235,05,134,23*6B,1759152122000
NMEA,$BDGSV,3,3,11,221,62,178,27,224,25,250,24,226,67,294,22,5*75,1759152122000
NMEA,$GPGSA,A,3,05,07,13,21,22,,,,,,,,1.2,0.6,1.0*35,1759152122000
NMEA,$GNGSA,A,3,65,72,74,75,76,,,,,,,,1.2,0.6,1.0*2E,1759152122000
NMEA,$GAGSA,A,3,107,119,127,130,,,,,,,,,1.2,0.6,1.0*2E,1759152122000
NMEA,$BDGSA,A,3,207,209,210,214,221,224,226,,,,,,1.2,0.6,1.0*1E,1759152122000
NMEA,$PSSGR,GSA,A,3,14,30,,,,,,,,,,,1.2,0.6,1.0,1,8*47,1759152122000
NMEA,$PSSGR,GSA,A,3,129,,,,,,,,,,,,1.2,0.6,1.0,3,1*70,1759152122000
NMEA,$GPRMC,132202.000,A,3154.0016,N,03500.4215,E,0.9,343.2,290925,,,A*64,1759152122000
NMEA,$GPGGA,132203.000,3154.0019,N,03500.4218,E,1,23,0.6,246.8,M,16.6,M,,*51,1759152123000
NMEA,$PSAMSA,132203.000,3154.0019,N,03500.4218,E,0,M,,*6A,1759152123000
NMEA,$GPGLL,3154.0019,N,03500.4218,E,132203.000,A,A*5A,1759152123000
NMEA,$GPVTG,343.2,T,,M,0.7,N,1.4,K,A*09,1759152123000
NMEA,$GPGSV,4,1,13,05,36,282,31,07,38,056,47,08,09,045,18,09,22,128,24*75,1759152123000
NMEA,$GPGSV,4,2,13,13,31,317,33,14,78,204,37,17,17,156,32,21,45,239,30*7A,1759152123000
NMEA,$GPGSV,4,3,13,22,60,207,32,30,59,019,45*78,1759152123000
NMEA,$GPGSV,4,4,13,14,78,204,28,21,45,239,20,30,59,019,36,8*53,1759152123000
NMEA,$GLGSV,2,1,06,65,43,329,29,71,22,149,32,72,76,145,39,74,39,024,39*67,1759152123000
NMEA,$GLGSV,2,2,06,75,64,289,31,76,17,236,37*66,1759152123000
NMEA,$GAGSV,4,1,11,107,52,107,43,119,18,313,22,121,35,210,36,127,81,114,40*63,1759152123000
NMEA,$GAGSV,4,2,11,129,63,335,33,130,33,043,42*67,1759152123000
NMEA,$GAGSV,4,3,11,107,52,107,30,121,35,210,27,127,81,114,30,129,63,335,34,1*73,1759152123000
NMEA,$GAGSV,4,4,11,130,33,043,36,1*75,1759152123000
NMEA,$BDGSV,3,1,11,207,31,077,35,209,24,063,35,210,36,089,31,214,28,317,31*6A,1759152123000
NMEA,$BDGSV,3,2,11,221,62,178,37,224,25,250,34,226,67,294,33,235,05,134,23*6B,1759152123000
NMEA,$BDGSV,3,3,11,221,62,178,27,224,25,250,23,226,67,294,22,5*72,1759152123000
NMEA,$GPGSA,A,3,05,07,13,21,22,,,,,,,,1.2,0.6,1.0*35,1759152123000
NMEA,$GNGSA,A,3,65,72,74,75,76,,,,,,,,1.2,0.6,1.0*2E,1759152123000
NMEA,$GAGSA,A,3,107,119,127,130,,,,,,,,,1.2,0.6,1.0*2E,1759152123000
NMEA,$BDGSA,A,3,207,209,210,214,221,226,,,,,,,1.2,0.6,1.0*2A,1759152123000
NMEA,$PSSGR,GSA,A,3,14,30,,,,,,,,,,,1.2,0.6,1.0,1,8*47,1759152123000
NMEA,$PSSGR,GSA,A,3,129,,,,,,,,,,,,1.2,0.6,1.0,3,1*70,1759152123000
NMEA,$GPRMC,132203.000,A,3154.0019,N,03500.4218,E,0.7,343.2,290925,,,A*69,1759152123000
NMEA,$GPGGA,132204.000,3154.0021,N,03500.4216,E,1,27,0.4,246.9,M,16.6,M,,*54,1759152124000
NMEA,$PSAMSA,132204.000,3154.0021,N,03500.4216,E,0,M,,*68,1759152124000
NMEA,$GPGLL,3154.0021,N,03500.4216,E,132204.000,A,A*58,1759152124000
NMEA,$GPVTG,343.2,T,,M,0.7,N,1.3,K,A*0E,1759152124000
NMEA,$GPGSV,4,1,13,05,36,282,32,07,38,056,47,08,09,045,18,09,22,128,25*77,1759152124000
NMEA,$GPGSV,4,2,13,13,31,317,33,14,78,204,37,17,17,156,32,21,45,238,30*7B,1759152124000
NMEA,$GPGSV,4,3,13,22,60,207,32,30,59,019,45*78,1759152124000
NMEA,$GPGSV,4,4,13,14,78,204,28,21,45,238,20,30,59,019,36,8*52,1759152124000
NMEA,$GLGSV,2,1,06,65,43,329,29,71,22,149,32,72,76,145,39,74,39,024,39*67,1759152124000
NMEA,$GLGSV,2,2,06,75,64,289,31,76,17,236,36*67,1759152124000
NMEA,$GAGSV,4,1,11,107,52,107,43,119,18,313,22,121,35,210,36,127,81,114,40*63,1759152124000
NMEA,$GAGSV,4,2,11,129,63,335,34,130,33,043,47*65,1759152124000
NMEA,$GAGSV,4,3,11,107,52,107,30,121,35,210,26,127,81,114,30,129,63,335,36,1*70,1759152124000
NMEA,$GAGSV,4,4,11,130,33,043,38,1*7B,1759152124000
NMEA,$BDGSV,3,1,11,207,31,077,35,209,24,063,35,210,36,089,31,214,28,317,31*6A,1759152124000
NMEA,$BDGSV,3,2,11,221,62,178,37,224,25,250,33,226,67,294,33,235,05,134,23*6C,1759152124000
NMEA,$BDGSV,3,3,11,221,62,178,26,224,25,250,23,226,67,294,21,5*70,1759152124000
NMEA,$GPGSA,A,3,05,07,08,09,13,17,21,22,,,,,0.8,0.4,0.8*32,1759152124000
NMEA,$GNGSA,A,3,65,72,74,75,76,,,,,,,,0.8,0.4,0.8*2E,1759152124000
NMEA,$GAGSA,A,3,107,119,127,130,,,,,,,,,0.8,0.4,0.8*2E,1759152124000
NMEA,$BDGSA,A,3,207,209,210,214,221,224,226,,,,,,0.8,0.4,0.8*1E,1759152124000
NMEA,$PSSGR,GSA,A,3,14,30,,,,,,,,,,,0.8,0.4,0.8,1,8*47,1759152124000
NMEA,$PSSGR,GSA,A,3,129,,,,,,,,,,,,0.8,0.4,0.8,3,1*70,1759152124000
NMEA,$GPRMC,132204.000,A,3154.0021,N,03500.4216,E,0.7,343.2,290925,,,A*6B,1759152124000
NMEA,$GPGGA,132205.000,3154.0030,N,03500.4214,E,1,26,0.4,247.8,M,16.6,M,,*56,1759152125000
NMEA,$PSAMSA,132205.000,3154.0030,N,03500.4214,E,0,M,,*6B,1759152125000
NMEA,$GPGLL,3154.0030,N,03500.4214,E,132205.000,A,A*5B,1759152125000
NMEA,$GPVTG,343.2,T,,M,1.1,N,2.1,K,A*08,1759152125000
NMEA,$GPGSV,4,1,13,05,36,282,32,07,38,056,47,08,09,045,18,09,22,128,25*77,1759152125000
NMEA,$GPGSV,4,2,13,13,31,317,33,14,78,204,37,17,17,156,32,21,45,238,30*7B,1759152125000
NMEA,$GPGSV,4,3,13,22,60,207,32,30,59,019,45*78,1759152125000
NMEA,$GPGSV,4,4,13,14,78,204,28,21,45,238,20,30,59,019,35,8*51,1759152125000
NMEA,$GLGSV,2,1,06,65,43,329,29,71,22,149,32,72,76,145,39,74,39,024,39*67,1759152125000
NMEA,$GLGSV,2,2,06,75,64,290,31,76,17,236,36*6F,1759152125000
NMEA,$GAGSV,4,1,11,107,52,107,42,119,18,313,22,121,35,210,36,127,81,114,40*62,1759152125000
NMEA,$GAGSV,4,2,11,129,63,335,41,130,33,043,47*67,1759152125000
NMEA,$GAGSV,4,3,11,107,52,107,29,121,35,210,26,127,81,114,29,129,63,335,36,1*70,1759152125000
NMEA,$GAGSV,4,4,11,130,33,043,38,1*7B,1759152125000
NMEA,$BDGSV,3,1,11,207,31,077,35,209,24,063,35,210,36,089,31,214,28,317,31*6A,1759152125000
NMEA,$BDGSV,3,2,11,221,62,178,37,224,25,250,33,226,67,294,33,235,05,134,23*6C,1759152125000
NMEA,$BDGSV,3,3,11,221,62,178,26,224,25,250,22,226,67,294,21,5*71,1759152125000
NMEA,$GPGSA,A,3,05,07,08,13,17,21,22,30,,,,,1.0,0.4,0.8*31,1759152125000
NMEA,$GNGSA,A,3,65,72,74,75,76,,,,,,,,1.0,0.4,0.8*27,1759152125000
NMEA,$GAGSA,A,3,107,119,127,129,130,,,,,,,,1.0,0.4,0.8*1D,1759152125000
NMEA,$BDGSA,A,3,207,209,210,214,221,224,226,,,,,,1.0,0.4,0.8*17,1759152125000
NMEA,$PSSGR,GSA,A,3,14,,,,,,,,,,,,1.0,0.4,0.8,1,8*4D,1759152125000
NMEA,$GPRMC,132205.000,A,3154.0030,N,03500.4214,E,1.1,343.2,290925,,,A*6F,1759152125000
NMEA,$GPGGA,132206.000,3154.0035,N,03500.4211,E,1,26,0.4,248.3,M,16.6,M,,*51,1759152126000
NMEA,$PSAMSA,132206.000,3154.0035,N,03500.4211,E,0,M,,*68,1759152126000
NMEA,$GPGLL,3154.0035,N,03500.4211,E,132206.000,A,A*58,1759152126000
NMEA,$GPVTG,350.8,T,,M,0.5,N,0.9,K,A*0F,1759152126000
NMEA,$GPGSV,4,1,13,05,36,282,32,07,38,056,47,08,09,045,19,09,22,128,25*76,1759152126000
NMEA,$GPGSV,4,2,13,13,31,317,32,14,78,204,37,17,17,156,32,21,45,238,30*7A,1759152126000
NMEA,$GPGSV,4,3,13,22,60,207,32,30,59,019,45*78,1759152126000
NMEA,$GPGSV,4,4,13,14,78,204,28,21,45,238,20,30,59,019,35,8*51,1759152126000
NMEA,$GLGSV,2,1,06,65,43,329,29,71,22,149,32,72,76,145,38,74,39,024,39*66,1759152126000
NMEA,$GLGSV,2,2,06,75,64,290,31,76,17,236,36*6F,1759152126000
NMEA,$GAGSV,4,1,11,107,52,107,42,119,18,313,22,121,35,210,35,127,81,114,40*61,1759152126000
NMEA,$GAGSV,4,2,11,129,63,335,44,130,33,043,47*62,1759152126000
NMEA,$GAGSV,4,3,11,107,52,107,29,121,35,210,26,127,81,114,29,129,63,335,36,1*70,1759152126000
NMEA,$GAGSV,4,4,11,130,33,043,37,1*74,1759152126000
NMEA,$BDGSV,3,1,11,207,31,077,34,209,24,063,35,210,36,089,31,214,28,317,30*6A,1759152126000
NMEA,$BDGSV,3,2,11,221,62,178,37,224,25,250,33,226,67,294,32,235,05,134,23*6D,1759152126000
NMEA,$BDGSV,3,3,11,221,62,178,26,224,25,250,22,226,67,294,21,5*71,1759152126000
NMEA,$GPGSA,A,3,05,07,08,13,17,21,22,,,,,,1.0,0.4,0.8*32,1759152126000
NMEA,$GNGSA,A,3,65,71,72,74,75,76,,,,,,,1.0,0.4,0.8*21,1759152126000
NMEA,$GAGSA,A,3,107,127,129,130,,,,,,,,,1.0,0.4,0.8*24,1759152126000
NMEA,$BDGSA,A,3,207,209,210,214,221,224,226,,,,,,1.0,0.4,0.8*17,1759152126000
NMEA,$PSSGR,GSA,A,3,14,30,,,,,,,,,,,1.0,0.4,0.8,1,8*4E,1759152126000
NMEA,$GPRMC,132206.000,A,3154.0035,N,03500.4211,E,0.5,350.8,290925,,,A*61,1759152126000
NMEA,$GPGGA,132207.000,3154.0043,N,03500.4206,E,1,28,0.4,248.6,M,16.6,M,,*5C,1759152127000
NMEA,$PSAMSA,132207.000,3154.0043,N,03500.4206,E,0,M,,*6E,1759152127000
NMEA,$GPGLL,3154.0043,N,03500.4206,E,132207.000,A,A*5E,1759152127000
NMEA,$GPVTG,347.9,T,,M,0.4,N,0.8,K,A*08,1759152127000
NMEA,$GPGSV,4,1,12,05,36,282,32,07,38,056,47,08,09,045,19,09,22,128,26*74,1759152127000
NMEA,$GPGSV,4,2,12,13,31,317,32,14,78,204,37,17,17,156,32,21,45,238,30*7B,1759152127000
NMEA,$GPGSV,4,3,12,22,60,207,32,30,59,019,45*79,1759152127000
NMEA,$GPGSV,4,4,12,14,78,204,28,30,59,019,35,8*69,1759152127000
NMEA,$GLGSV,2,1,06,65,43,329,29,71,22,149,32,72,76,145,37,74,39,024,38*68,1759152127000
NMEA,$GLGSV,2,2,06,75,64,290,31,76,17,236,35*6C,1759152127000
NMEA,$GAGSV,4,1,11,107,52,107,42,119,18,313,22,121,35,210,35,127,81,114,41*60,1759152127000
NMEA,$GAGSV,4,2,11,129,63,335,44,130,33,043,47*62,1759152127000
NMEA,$GAGSV,4,3,11,107,52,107,29,121,35,210,29,127,81,114,29,129,63,335,36,1*7F,1759152127000
NMEA,$GAGSV,4,4,11,130,33,043,37,1*74,1759152127000
NMEA,$BDGSV,3,1,11,207,31,077,34,209,24,063,35,210,36,089,31,214,28,317,30*6A,1759152127000
NMEA,$BDGSV,3,2,11,221,62,178,37,224,25,250,32,226,67,294,32,235,05,134,23*6C,1759152127000
NMEA,$BDGSV,3,3,11,221,62,178,25,224,25,250,21,226,67,294,21,5*71,1759152127000
NMEA,$GPGSA,A,3,05,07,08,09,13,17,21,22,,,,,0.8,0.4,0.6*3C,1759152127000
NMEA,$GNGSA,A,3,65,71,72,74,75,76,,,,,,,0.8,0.4,0.6*26,1759152127000
NMEA,$GAGSA,A,3,107,119,127,129,130,,,,,,,,0.8,0.4,0.6*1A,1759152127000
NMEA,$BDGSA,A,3,207,209,210,214,221,224,226,,,,,,0.8,0.4,0.6*10,1759152127000
NMEA,$PSSGR,GSA,A,3,14,30,,,,,,,,,,,0.8,0.4,0.6,1,8*49,1759152127000
NMEA,$GPRMC,132207.000,A,3154.0043,N,03500.4206,E,0.4,347.9,290925,,,A*61,1759152127000
NMEA,$GPGGA,132208.000,3154.0047,N,03500.4201,E,1,26,0.4,249.2,M,16.6,M,,*5B,1759152128000
NMEA,$PSAMSA,132208.000,3154.0047,N,03500.4201,E,0,M,,*62,1759152128000
NMEA,$GPGLL,3154.0047,N,03500.4201,E,132208.000,A,A*52,1759152128000
NMEA,$GPVTG,331.9,T,,M,0.4,N,0.7,K,A*06,1759152128000
NMEA,$GPGSV,4,1,13,05,36,282,32,07,38,056,46,08,09,045,20,09,22,128,26*7E,1759152128000
NMEA,$GPGSV,4,2,13,13,31,317,32,14,78,204,37,17,17,156,32,21,45,238,30*7A,1759152128000
NMEA,$GPGSV,4,3,13,22,60,207,32,30,59,019,45*78,1759152128000
NMEA,$GPGSV,4,4,13,14,78,204,28,30,59,019,36,8*6B,1759152128000
NMEA,$GLGSV,2,1,06,65,43,329,29,71,22,149,32,72,76,145,37,74,39,024,38*68,1759152128000
NMEA,$GLGSV,2,2,06,75,64,290,31,76,17,236,35*6C,1759152128000
NMEA,$GAGSV,4,1,11,107,52,107,42,119,18,313,22,121,35,210,34,127,81,114,42*62,1759152128000
NMEA,$GAGSV,4,2,11,129,63,335,45,130,33,043,46*62,1759152128000
NMEA,$GAGSV,4,3,11,107,52,107,33,121,35,210,29,127,81,114,29,129,63,335,35,1*77,1759152128000
NMEA,$GAGSV,4,4,11,130,33,043,37,1*74,1759152128000
NMEA,$BDGSV,3,1,11,207,31,077,34,209,24,063,35,210,36,089,31,214,28,317,30*6A,1759152128000
NMEA,$BDGSV,3,2,11,221,62,178,37,224,25,250,32,226,67,294,33,235,05,134,23*6D,1759152128000
NMEA,$BDGSV,3,3,11,221,62,178,25,224,25,250,23,226,67,294,20,5*72,1759152128000
NMEA,$GPGSA,A,3,05,07,09,13,17,21,22,,,,,,1.0,0.4,0.8*33,1759152128000
NMEA,$GNGSA,A,3,65,71,72,74,75,76,,,,,,,1.0,0.4,0.8*21,1759152128000
NMEA,$GAGSA,A,3,107,121,127,129,130,,,,,,,,1.0,0.4,0.8*16,1759152128000
NMEA,$BDGSA,A,3,207,209,210,221,224,226,,,,,,,1.0,0.4,0.8*20,1759152128000
NMEA,$PSSGR,GSA,A,3,14,30,,,,,,,,,,,1.0,0.4,0.8,1,8*4E,1759152128000
NMEA,$GPRMC,132208.000,A,3154.0047,N,03500.4201,E,0.4,331.9,290925,,,A*6C,1759152128000
NMEA,$GPGGA,132209.000,3154.0052,N,03500.4201,E,1,29,0.4,249.5,M,16.6,M,,*56,1759152129000
NMEA,$PSAMSA,132209.000,3154.0052,N,03500.4201,E,0,M,,*67,1759152129000
NMEA,$GPGLL,3154.0052,N,03500.4201,E,132209.000,A,A*57,1759152129000
NMEA,$GPVTG,340.6,T,,M,1.0,N,1.9,K,A*05,1759152129000
NMEA,$GPGSV,4,1,14,05,36,282,32,07,38,056,46,08,09,045,20,09,22,128,26*79,1759152129000
NMEA,$GPGSV,4,2,14,13,31,317,32,14,78,204,36,17,17,156,32,21,45,238,30*7C,1759152129000
NMEA,$GPGSV,4,3,14,22,60,207,32,30,59,019,45*7F,1759152129000
NMEA,$GPGSV,4,4,14,14,78,204,27,30,59,019,36,8*63,1759152129000
NMEA,$GLGSV,2,1,06,65,43,329,29,71,22,149,32,72,76,145,37,74,39,024,37*67,1759152129000
NMEA,$GLGSV,2,2,06,75,64,290,31,76,17,236,35*6C,1759152129000
NMEA,$GAGSV,4,1,11,107,52,107,41,119,18,313,22,121,35,210,33,127,81,114,42*66,1759152129000
NMEA,$GAGSV,4,2,11,129,63,335,45,130,33,043,46*62,1759152129000
NMEA,$GAGSV,4,3,11,107,52,107,33,121,35,210,28,127,81,114,31,129,63,335,35,1*7F,1759152129000
NMEA,$GAGSV,4,4,11,130,33,043,36,1*75,1759152129000
NMEA,$BDGSV,3,1,10,207,31,077,34,209,24,063,35,210,36,089,31,214,28,317,30*6B,1759152129000
NMEA,$BDGSV,3,2,10,221,62,178,37,224,25,250,32,226,67,294,33,235,05,134,23*6C,1759152129000
NMEA,$BDGSV,3,3,10,221,62,178,25,224,25,250,26,5*7C,1759152129000
NMEA,$GPGSA,A,3,05,07,08,09,13,17,21,22,30,,,,0.8,0.4,0.6*3F,1759152129000
NMEA,$GNGSA,A,3,65,71,72,74,75,76,,,,,,,0.8,0.4,0.6*26,1759152129000
NMEA,$GAGSA,A,3,107,119,121,127,129,130,,,,,,,0.8,0.4,0.6*28,1759152129000
NMEA,$BDGSA,A,3,207,209,210,214,221,224,226,,,,,,0.8,0.4,0.6*10,1759152129000
NMEA,$PSSGR,GSA,A,3,14,,,,,,,,,,,,0.8,0.4,0.6,1,8*4A,1759152129000
NMEA,$GPRMC,132209.000,A,3154.0052,N,03500.4201,E,1.0,340.6,290925,,,A*65,1759152129000
NMEA,$GPGGA,132210.000,3154.0057,N,03500.4199,E,1,28,0.4,249.5,M,16.6,M,,*58,1759152130000
NMEA,$PSAMSA,132210.000,3154.0057,N,03500.4199,E,0,M,,*68,1759152130000
NMEA,$GPGLL,3154.0057,N,03500.4199,E,132210.000,A,A*58,1759152130000
NMEA,$GPVTG,333.4,T,,M,1.1,N,2.1,K,A*09,1759152130000
NMEA,$GPGSV,4,1,14,05,36,282,32,07,38,056,46,08,09,045,20,09,22,128,26*79,1759152130000
NMEA,$GPGSV,4,2,14,13,31,317,31,14,78,204,36,17,17,156,33,21,45,238,30*7E,1759152130000
NMEA,$GPGSV,4,3,14,22,60,207,32,30,59,019,45*7F,1759152130000
NMEA,$GPGSV,4,4,14,14,78,204,27,30,59,019,35,8*60,1759152130000
NMEA,$GLGSV,2,1,06,65,43,329,29,71,22,149,32,72,76,145,38,74,39,024,36*69,1759152130000
NMEA,$GLGSV,2,2,06,75,64,290,31,76,17,236,35*6C,1759152130000
NMEA,$GAGSV,4,1,11,107,52,107,41,119,18,313,22,121,35,210,33,127,81,114,42*66,1759152130000
NMEA,$GAGSV,4,2,11,129,63,335,45,130,33,043,46*62,1759152130000
NMEA,$GAGSV,4,3,11,107,52,107,33,121,35,210,27,127,81,114,31,129,63,335,35,1*70,1759152130000
NMEA,$GAGSV,4,4,11,130,33,043,36,1*75,1759152130000
NMEA,$BDGSV,4,1,11,207,31,077,34,209,24,063,36,210,36,089,31,214,28,317,30*6E,1759152130000
NMEA,$BDGSV,4,2,11,221,62,178,36,224,25,250,32,226,67,294,33,235,05,134,23*6B,1759152130000
NMEA,$BDGSV,4,3,11*6F,1759152130000
NMEA,$BDGSV,4,4,11,221,62,178,24,224,25,250,26,5*7C,1759152130000
NMEA,$GPGSA,A,3,05,07,08,09,13,17,21,22,,,,,0.8,0.4,0.8*32,1759152130000
NMEA,$GNGSA,A,3,65,71,72,74,75,76,,,,,,,0.8,0.4,0.8*28,1759152130000
NMEA,$GAGSA,A,3,107,119,121,127,129,130,,,,,,,0.8,0.4,0.8*26,1759152130000
NMEA,$BDGSA,A,3,207,209,210,221,224,226,,,,,,,0.8,0.4,0.8*29,1759152130000
NMEA,$PSSGR,GSA,A,3,14,30,,,,,,,,,,,0.8,0.4,0.8,1,8*47,1759152130000
NMEA,$GPRMC,132210.000,A,3154.0057,N,03500.4199,E,1.1,333.4,290925,,,A*6D,1759152130000
NMEA,$GPGGA,132211.000,3154.0063,N,03500.4192,E,1,29,0.4,249.7,M,16.6,M,,*56,1759152131000
NMEA,$PSAMSA,132211.000,3154.0063,N,03500.4192,E,0,M,,*65,1759152131000
NMEA,$GPGLL,3154.0063,N,03500.4192,E,132211.000,A,A*55,1759152131000
NMEA,$GPVTG,334.3,T,,M,1.3,N,2.5,K,A*0F,1759152131000
NMEA,$GPGSV,4,1,14,05,36,282,32,07,38,056,46,08,09,045,20,09,22,128,26*79,1759152131000
NMEA,$GPGSV,4,2,14,13,31,317,31,14,78,204,35,17,17,156,33,21,45,238,30*7D,1759152131000
NMEA,$GPGSV,4,3,14,22,60,207,32,30,59,019,45*7F,1759152131000
NMEA,$GPGSV,4,4,14,14,78,204,27,30,59,019,35,8*60,1759152131000
NMEA,$GLGSV,2,1,06,65,43,329,29,71,22,149,32,72,76,146,39,74,39,024,35*68,1759152131000
NMEA,$GLGSV,2,2,06,75,64,290,31,76,17,236,34*6D,1759152131000
NMEA,$GAGSV,4,1,11,107,52,107,41,119,18,313,22,121,35,210,32,127,81,114,43*66,1759152131000
NMEA,$GAGSV,4,2,11,129,63,335,45,130,33,043,46*62,1759152131000
NMEA,$GAGSV,4,3,11,107,52,107,33,121,35,210,27,127,81,114,31,129,63,335,34,1*71,1759152131000
NMEA,$GAGSV,4,4,11,130,33,043,36,1*75,1759152131000
NMEA,$BDGSV,4,1,11,207,31,077,35,209,24,063,36,210,36,089,32,214,28,317,30*6C,1759152131000
NMEA,$BDGSV,4,2,11,221,62,178,36,224,25,250,32,226,67,294,33,235,05,134,23*6B,1759152131000
NMEA,$BDGSV,4,3,11*6F,1759152131000
NMEA,$BDGSV,4,4,11,221,62,178,24,224,25,250,25,5*7F,1759152131000
NMEA,$GPGSA,A,3,05,07,08,09,13,17,21,22,,,,,0.8,0.4,0.6*3C,1759152131000
NMEA,$GNGSA,A,3,65,71,72,74,75,76,,,,,,,0.8,0.4,0.6*26,1759152131000
NMEA,$GAGSA,A,3,107,121,127,129,130,,,,,,,,0.8,0.4,0.6*11,1759152131000
NMEA,$BDGSA,A,3,207,209,210,214,221,224,226,235,,,,,0.8,0.4,0.6*24,1759152131000
NMEA,$PSSGR,GSA,A,3,14,30,,,,,,,,,,,0.8,0.4,0.6,1,8*49,1759152131000
NMEA,$GPRMC,132211.000,A,3154.0063,N,03500.4192,E,1.3,334.3,290925,,,A*62,1759152131000
NMEA,$GPGGA,132212.000,3154.0070,N,03500.4190,E,1,27,0.4,249.7,M,16.6,M,,*5B,1759152132000
NMEA,$PSAMSA,132212.000,3154.0070,N,03500.4190,E,0,M,,*66,1759152132000
NMEA,$GPGLL,3154.0070,N,03500.4190,E,132212.000,A,A*56,1759152132000
NMEA,$GPVTG,337.9,T,,M,1.3,N,2.4,K,A*07,1759152132000
NMEA,$GPGSV,4,1,13,05,36,282,32,07,38,056,46,08,09,045,20,09,22,128,26*7E,1759152132000
NMEA,$GPGSV,4,2,13,13,31,317,31,14,78,204,35,17,17,156,34,21,45,238,30*7D,1759152132000
NMEA,$GPGSV,4,3,13,22,60,207,32,30,59,019,45*78,1759152132000
NMEA,$GPGSV,4,4,13,09,22,128,27,14,78,204,27,30,59,019,35,8*50,1759152132000
NMEA,$GLGSV,2,1,06,65,43,329,29,71,22,149,32,72,76,146,39,74,39,024,35*68,1759152132000
NMEA,$GLGSV,2,2,06,75,64,290,31,76,17,236,34*6D,1759152132000
NMEA,$GAGSV,4,1,11,107,52,107,41,119,18,313,22,121,35,210,32,127,81,114,43*66,1759152132000
NMEA,$GAGSV,4,2,11,129,63,335,45,130,33,043,46*62,1759152132000
NMEA,$GAGSV,4,3,11,107,52,107,33,121,35,210,28,127,81,114,30,129,63,335,34,1*7F,1759152132000
NMEA,$GAGSV,4,4,11,130,33,043,35,1*76,1759152132000
NMEA,$BDGSV,4,1,11,207,31,077,35,209,24,063,36,210,36,089,32,214,28,317,30*6C,1759152132000
NMEA,$BDGSV,4,2,11,221,62,178,36,224,25,250,33,226,67,294,33,235,05,134,23*6A,1759152132000
NMEA,$BDGSV,4,3,11*6F,1759152132000
NMEA,$BDGSV,4,4,11,221,62,178,24,224,25,250,24,5*7E,1759152132000
NMEA,$GPGSA,A,3,05,07,08,13,17,21,22,,,,,,0.8,0.4,0.6*35,1759152132000
NMEA,$GNGSA,A,3,65,71,72,74,75,76,,,,,,,0.8,0.4,0.6*26,1759152132000
NMEA,$GAGSA,A,3,107,119,127,129,130,,,,,,,,0.8,0.4,0.6*1A,1759152132000
NMEA,$BDGSA,A,3,207,209,210,214,221,226,235,,,,,,0.8,0.4,0.6*10,1759152132000
NMEA,$PSSGR,GSA,A,3,14,30,,,,,,,,,,,0.8,0.4,0.6,1,8*49,1759152132000
NMEA,$GPRMC,132212.000,A,3154.0070,N,03500.4190,E,1.3,337.9,290925,,,A*68,1759152132000
NMEA,$GPGGA,132213.000,3154.0074,N,03500.4190,E,1,24,0.4,249.8,M,16.6,M,,*52,1759152133000
NMEA,$PSAMSA,132213.000,3154.0074,N,03500.4190,E,0,M,,*63,1759152133000
NMEA,$GPGLL,3154.0074,N,03500.4190,E,132213.000,A,A*53,1759152133000
NMEA,$GPVTG,337.9,T,,M,1.1,N,2.0,K,A*01,1759152133000
NMEA,$GPGSV,4,1,13,05,36,282,32,07,38,056,46,08,09,045,20,09,22,128,27*7F,1759152133000
NMEA,$GPGSV,4,2,13,13,31,317,31,14,78,204,35,17,17,156,34,21,45,238,30*7D,1759152133000
NMEA,$GPGSV,4,3,13,22,60,207,32,30,59,019,45*78,1759152133000
NMEA,$GPGSV,4,4,13,14,78,204,27,30,59,019,34,8*66,1759152133000
NMEA,$GLGSV,2,1,06,65,43,329,29,71,22,149,32,72,76,146,39,74,39,024,34*69,1759152133000
NMEA,$GLGSV,2,2,06,75,64,290,31,76,17,236,34*6D,1759152133000
NMEA,$GAGSV,4,1,11,107,52,107,41,119,18,313,22,121,35,210,32,127,81,114,43*66,1759152133000
NMEA,$GAGSV,4,2,11,129,63,335,44,130,33,043,46*63,1759152133000
NMEA,$GAGSV,4,3,11,107,52,107,33,121,35,210,28,127,81,114,30,129,63,335,34,1*7F,1759152133000
NMEA,$GAGSV,4,4,11,130,33,043,35,1*76,1759152133000
NMEA,$BDGSV,4,1,12,207,31,077,35,209,24,063,36,210,36,089,32,214,28,317,29*67,1759152133000
NMEA,$BDGSV,4,2,12,221,62,178,36,224,25,250,34,226,67,294,33,229,05,080,22*6C,1759152133000
NMEA,$BDGSV,4,3,12,235,05,134,22*6B,1759152133000
NMEA,$BDGSV,4,4,12,221,62,178,23,224,25,250,24,5*7A,1759152133000
NMEA,$GPGSA,A,3,05,08,09,13,17,21,22,,,,,,0.8,0.4,0.8*35,1759152133000
NMEA,$GNGSA,A,3,65,71,72,74,76,,,,,,,,0.8,0.4,0.8*2A,1759152133000
NMEA,$GAGSA,A,3,107,119,127,129,,,,,,,,,0.8,0.4,0.8*26,1759152133000
NMEA,$BDGSA,A,3,207,209,210,214,224,226,,,,,,,0.8,0.4,0.8*2F,1759152133000
NMEA,$PSSGR,GSA,A,3,14,30,,,,,,,,,,,0.8,0.4,0.8,1,8*47,1759152133000
NMEA,$GPRMC,132213.000,A,3154.0074,N,03500.4190,E,1.1,337.9,290925,,,A*6F,1759152133000
NMEA,$GPGGA,132214.000,3154.0079,N,03500.4187,E,1,21,0.6,250.0,M,16.6,M,,*59,1759152134000
NMEA,$PSAMSA,132214.000,3154.0079,N,03500.4187,E,0,M,,*6F,1759152134000
NMEA,$GPGLL,3154.0079,N,03500.4187,E,132214.000,A,A*5F,1759152134000
NMEA,$GPVTG,338.5,T,,M,0.6,N,1.1,K,A*06,1759152134000
NMEA,$GPGSV,4,1,14,05,36,282,32,07,38,056,46,08,09,045,20,09,22,128,32*7C,1759152134000
NMEA,$GPGSV,4,2,14,13,31,317,31,14,78,204,36,17,17,156,34,21,45,238,30*79,1759152134000
NMEA,$GPGSV,4,3,14,22,60,207,32,30,59,019,44*7E,1759152134000
NMEA,$GPGSV,4,4,14,14,78,204,27,30,59,019,35,8*60,1759152134000
NMEA,$GLGSV,2,1,06,65,43,329,29,71,22,149,32,72,76,146,39,74,39,024,34*69,1759152134000
NMEA,$GLGSV,2,2,06,75,64,290,31,76,17,236,34*6D,1759152134000
NMEA,$GAGSV,4,1,11,107,52,107,41,119,18,313,22,121,35,210,31,127,81,114,44*62,1759152134000
NMEA,$GAGSV,4,2,11,129,63,335,43,130,33,043,45*67,1759152134000
NMEA,$GAGSV,4,3,11,107,52,107,33,121,35,210,27,127,81,114,30,129,63,335,33,1*77,1759152134000
NMEA,$GAGSV,4,4,11,130,33,043,35,1*76,1759152134000
NMEA,$BDGSV,4,1,12,207,31,077,36,209,24,063,36,210,36,089,32,214,28,317,29*64,1759152134000
NMEA,$BDGSV,4,2,12,221,62,178,36,224,25,250,34,226,67,294,33,229,05,080,23*6D,1759152134000
NMEA,$BDGSV,4,3,12,235,05,134,22*6B,1759152134000
NMEA,$BDGSV,4,4,12,221,62,178,23,224,25,250,24,5*7A,1759152134000
NMEA,$GPGSA,A,3,05,07,08,09,14,17,21,,,,,,1.0,0.6,0.8*3E,1759152134000
NMEA,$GNGSA,A,3,71,72,74,75,76,,,,,,,,1.0,0.6,0.8*20,1759152134000
NMEA,$GAGSA,A,3,107,119,127,129,,,,,,,,,1.0,0.6,0.8*2D,1759152134000
NMEA,$BDGSA,A,3,207,209,210,221,,,,,,,,,1.0,0.6,0.8*20,1759152134000
NMEA,$PSSGR,GSA,A,3,30,,,,,,,,,,,,1.0,0.6,0.8,1,8*49,1759152134000
NMEA,$GPRMC,132214.000,A,3154.0079,N,03500.4187,E,0.6,338.5,290925,,,A*66,1759152134000
NMEA,$GPGGA,132215.000,3154.0081,N,03500.4188,E,1,27,0.4,250.1,M,16.6,M,,*55,1759152135000
NMEA,$PSAMSA,132215.000,3154.0081,N,03500.4188,E,0,M,,*66,1759152135000
NMEA,$GPGLL,3154.0081,N,03500.4188,E,132215.000,A,A*56,1759152135000
NMEA,$GPVTG,338.9,T,,M,0.3,N,0.6,K,A*09,1759152135000
NMEA,$GPGSV,4,1,14,05,36,282,32,07,38,056,46,08,09,045,20,09,22,128,34*7A,1759152135000
NMEA,$GPGSV,4,2,14,13,31,317,31,14,78,204,36,17,17,156,35,21,45,238,30*78,1759152135000
NMEA,$GPGSV,4,3,14,22,60,207,32,30,59,019,44*7E,1759152135000
NMEA,$GPGSV,4,4,14,09,22,128,27,14,78,204,26,30,59,019,35,8*56,1759152135000
NMEA,$GLGSV,2,1,06,65,43,329,29,71,22,149,32,72,76,146,40,74,39,024,34*67,1759152135000
NMEA,$GLGSV,2,2,06,75,64,290,31,76,17,236,34*6D,1759152135000
NMEA,$GAGSV,4,1,11,107,52,107,41,119,18,313,22,121,35,210,31,127,81,114,44*62,1759152135000
NMEA,$GAGSV,4,2,11,129,63,335,42,130,33,043,45*66,1759152135000
NMEA,$GAGSV,4,3,11,107,52,107,32,121,35,210,27,127,81,114,30,129,63,335,33,1*76,1759152135000
NMEA,$GAGSV,4,4,11,130,33,043,35,1*76,1759152135000
NMEA,$BDGSV,4,1,12,207,31,077,36,209,24,063,36,210,36,089,33,214,28,317,29*65,1759152135000
NMEA,$BDGSV,4,2,12,221,62,178,36,224,25,250,34,226,67,294,33,229,05,080,24*6A,1759152135000
NMEA,$BDGSV,4,3,12,235,05,134,22*6B,1759152135000
NMEA,$BDGSV,4,4,12,221,62,178,23,224,25,250,23,5*7D,1759152135000
NMEA,$GPGSA,A,3,05,07,08,17,21,22,,,,,,,0.8,0.4,0.6*37,1759152135000
NMEA,$GNGSA,A,3,65,71,72,74,75,76,,,,,,,0.8,0.4,0.6*26,1759152135000
NMEA,$GAGSA,A,3,107,119,127,129,130,,,,,,,,0.8,0.4,0.6*1A,1759152135000
NMEA,$BDGSA,A,3,207,209,210,221,224,226,235,,,,,,0.8,0.4,0.6*13,1759152135000
NMEA,$PSSGR,GSA,A,3,09,14,30,,,,,,,,,,0.8,0.4,0.6,1,8*40,1759152135000
NMEA,$GPRMC,132215.000,A,3154.0081,N,03500.4188,E,0.3,338.9,290925,,,A*66,1759152135000
NMEA,$GPGGA,132216.000,3154.0083,N,03500.4188,E,1,27,0.4,249.5,M,16.6,M,,*58,1759152136000
NMEA,$PSAMSA,132216.000,3154.0083,N,03500.4188,E,0,M,,*67,1759152136000
NMEA,$GPGLL,3154.0083,N,03500.4188,E,132216.000,A,A*57,1759152136000
NMEA,$GPVTG,338.9,T,,M,1.0,N,1.9,K,A*05,1759152136000
NMEA,$GPGSV,4,1,14,05,36,282,32,07,38,056,46,08,09,045,20,09,22,128,34*7A,1759152136000
NMEA,$GPGSV,4,2,14,13,31,317,30,14,78,204,36,17,17,156,35,21,45,238,30*79,1759152136000
NMEA,$GPGSV,4,3,14,22,60,207,32,30,59,019,44*7E,1759152136000
NMEA,$GPGSV,4,4,14,09,22,128,29,14,78,204,26,30,59,019,34,8*59,1759152136000
NMEA,$GLGSV,2,1,06,65,43,329,29,71,22,149,33,72,76,146,40,74,39,024,34*66,1759152136000
NMEA,$GLGSV,2,2,06,75,64,290,31,76,17,236,34*6D,1759152136000
NMEA,$GAGSV,4,1,11,107,52,107,41,119,18,313,22,121,35,210,31,127,81,114,44*62,1759152136000
NMEA,$GAGSV,4,2,11,129,63,335,41,130,33,043,45*65,1759152136000
NMEA,$GAGSV,4,3,11,107,52,107,32,121,35,210,27,127,81,114,30,129,63,335,32,1*77,1759152136000
NMEA,$GAGSV,4,4,11,130,33,043,34,1*77,1759152136000
NMEA,$BDGSV,4,1,12,207,31,077,36,209,24,063,36,210,36,089,34,214,28,317,29*62,1759152136000
NMEA,$BDGSV,4,2,12,221,62,178,35,224,25,250,34,226,67,294,33,229,05,080,24*69,1759152136000
NMEA,$BDGSV,4,3,12,235,05,134,22*6B,1759152136000
NMEA,$BDGSV,4,4,12,221,62,178,23,224,25,250,23,226,67,294,13,5*77,1759152136000
NMEA,$GPGSA,A,3,05,07,08,17,21,22,,,,,,,0.8,0.4,0.6*37,1759152136000
NMEA,$GNGSA,A,3,65,71,72,74,75,76,,,,,,,0.8,0.4,0.6*26,1759152136000
NMEA,$GAGSA,A,3,107,127,129,130,,,,,,,,,0.8,0.4,0.6*23,1759152136000
NMEA,$BDGSA,A,3,207,209,210,214,221,226,229,235,,,,,0.8,0.4,0.6*29,1759152136000
NMEA,$PSSGR,GSA,A,3,09,14,30,,,,,,,,,,0.8,0.4,0.6,1,8*40,1759152136000
NMEA,$GPRMC,132216.000,A,3154.0083,N,03500.4188,E,1.0,338.9,290925,,,A*65,1759152136000
NMEA,$GPGGA,132217.000,3154.0085,N,03500.4186,E,1,30,0.4,249.6,M,16.6,M,,*54,1759152137000
NMEA,$PSAMSA,132217.000,3154.0085,N,03500.4186,E,0,M,,*6E,1759152137000
NMEA,$GPGLL,3154.0085,N,03500.4186,E,132217.000,A,A*5E,1759152137000
NMEA,$GPVTG,338.9,T,,M,0.5,N,1.0,K,A*08,1759152137000
NMEA,$GPGSV,4,1,14,05,36,282,32,07,38,056,46,08,09,045,20,09,22,128,34*7A,1759152137000
