     4.01           OBSERVATION DATA    M                   RINEX VERSION / TYPE
GnssLogger          samsung 15          20250929 132201 UTC PGM / RUN BY / DATE
Google GnssLogger                                           MARKER NAME
Unknown                                                     MARKER NUMBER
Unknown             Unknown                                 OBSERVER / AGENCY
Unknown             GnssLogger          v3.1.0.3            REC # / TYPE / VERS
Unknown             Unknown                                 ANT # / TYPE
        0.0000        0.0000        0.0000                  ANTENNA: DELTA H/E/N
G    8 C1C L1C D1C S1C C5Q L5Q D5Q S5Q                      SYS / # / OBS TYPES
R    4 C1C L1C D1C S1C                                      SYS / # / OBS TYPES
C    8 C2I L2I D2I S2I C5P L5P D5P S5P                      SYS / # / OBS TYPES
E    8 C1C L1C D1C S1C C5Q L5Q D5Q S5Q                      SYS / # / OBS TYPES
  2025    09    29    13    22   01.0000000     GPS         TIME OF FIRST OBS
 6 R01  1 R07  5 R08  6 R10 -7 R11  0 R12 -1                GLONASS SLOT / FRQ #
samsung SM-S711B (Android 15) HW Year: 2021 HW Model:       COMMENT
S.LSI,K040,SPOTNAV_4.6.2_7_E23                              COMMENT
                                                            END OF HEADER
> 2025 09 29 13 22 01.9999999  0 28                      
G30  21013767.67107      3728.65407     -1649.91107        42.70007  21013782.36125     10181.07025     -1232.74625        33.20025
G14  20229676.68616     28907.97916      -436.82616        40.10016  20229685.38025     28965.91625      -325.68125        35.20025
G17  23638359.50416    113118.96516      1807.16216        39.80016                                                                
G13  22212830.17825     71797.79525      1632.21225        34.00025                                                                
G22  20742395.53825   1871877.92425       468.28125        32.50025                                                                
G05  22277962.78725     23968.89825     -1143.28225        32.20025                                                                
G21  21557517.74125    905377.13525     -2807.12525        29.70025                                                                
G09  23234820.26924    -49709.63824     -4234.04324        27.00024                                                                
G07  22457274.95228    -14709.16328     -2539.03928        48.10028                                                                
E30  25644210.28307     57378.43707     -3382.82307        43.10007  25644224.97225  -2038872.93925     -2525.73425        32.10025
E27  23517660.96207     94421.94907     -1029.53007        42.40007  23517669.95625     78224.37325      -762.63825        32.90025
R08  19263845.51706-103176590.73806     -2073.55106        39.10006
R10  21078779.46506-112381238.23906     -4144.57706        38.40006
E29  23790515.86926    115768.75626        39.05826        39.80026  23790515.26925  -1995948.45625        26.31925        33.40025
C24  24494135.96306    114739.59906       971.97606        37.20006  24494163.54324    323970.14524       734.41024        26.70024
E07  24335096.96306    457558.03606     -2290.15506        36.20006  24335116.74924    349218.90724     -1714.50624        25.00024
C07  38667653.94026    104621.89426      -468.62926        36.10026                                                                
C09  39221768.73505     89207.43005     -1237.16205        35.00005                                                                
E21  25667087.74505   1417487.50405      1313.63405        34.50005  25667096.13925   1172214.69825       980.29825        30.20025
C21  22371806.52126     47711.80926     -2838.39426        39.20026  22371815.51425     43635.24425     -2132.97125        34.60025
R12  22826940.33815-121956942.01015      1838.54415        34.30015
R01  20684293.96125-110588943.61125      1881.83425        31.50025
R07  22267583.37325-119219681.68425     -5062.13925        31.30025
C14  24421090.33125    151384.91425      1412.86225        31.90025                                                                
R11  19609449.56126-104806484.04126     -1097.18926        37.80026
C10  38602851.40224    447242.90924      -254.82924        29.40024                                                                
E19  26290438.10823    218720.31223      1229.97423        22.10023                                                                
C26                                                                  22052202.87825     65434.25925      -693.33025        30.60025
> 2025 09 29 13 22 02.9999998  0 28                      
G07  22457572.04617    -17248.28017     -2540.90517        47.00017                                                                
G30  21013870.80007      2077.13307     -1653.80607        42.30007  21013880.69325      8948.59425     -1233.24525        33.80025
G13  22212287.55315     73429.43715      1629.16915        33.80015                                                                
G22  20742091.84925   1872342.21325       462.29225        32.50025                                                                
G17  23637833.06926    114928.73026      1809.62026        38.00026                                                                
G05  22277943.90025     22829.20825     -1140.18125        31.80025                                                                
G21  21557826.82725    902571.95425     -2807.28225        29.70025                                                                
G09  23235405.46424    -53946.75624     -4241.20624        27.00024                                                                
G14  20229543.87806     28469.09906      -441.35706        40.00006  20229547.47625     28637.34625      -331.51925        34.00025
E30  25644636.88707     53994.67007     -3385.81807        43.20007  25644647.68025  -2041398.87225     -2527.37825        33.80025
E27  23517636.37907     93390.34907     -1034.11907        42.30007  23517645.97225     77458.98925      -767.30225        32.60025
R08  19264006.20606-103178627.31706     -2079.18506        39.20006
R10  21079326.88606-112385328.67506     -4147.98306        38.20006
E29  23790297.62016    115805.69116        34.29916        39.40016  23790279.63225  -1995925.30025        20.04525        32.20025
E07  24335317.91006    455265.86906     -2294.61106        36.70006  24335337.39624    347502.75724     -1718.48424        25.00024
C24  24493734.84006    115709.79706       967.87806        37.10006  24493760.02324    324710.77924       742.24824        26.00024
C09  39221792.11806     87969.41906     -1239.93406        36.00006                                                                
C07  38667570.29816    104153.00316      -470.90216        36.00016                                                                
E21  25666599.08305   1418800.43105      1310.94305        34.50005  25666504.94824   1173196.18624       980.56424        28.40024
C21  22372139.89026     44872.21426     -2841.64726        38.50026  22372146.18525     41491.09325     -2136.18825        33.90025
R12  22826362.93815-121955031.20415      1834.82115        34.20015
R01  20683706.66825-110586977.91825      1875.90625        31.80025
R07  22268396.71025-119225213.26625     -5066.90925        31.20025
C14  24420604.06825    152796.75325      1409.56425        31.70025                                                                
R11  19609441.16626-104807612.58726     -1105.60626        36.40026
C10  38602673.02624    446983.10424      -263.26024        29.30024                                                                
C26  22052159.70825     76050.10325      -910.39325        33.50025  22052159.10825     64739.63525      -696.29425        30.00025
E19  26289996.51423    219950.81023      1230.39023        22.10023                                                                
> 2025 09 29 13 22 04.0000001  0 27                      
G07  22457897.92107    -19791.68807     -2545.55307        46.30007                                                                
G14  20229467.43106     28025.36906      -446.15506        40.10006  20229470.12925     28305.67925      -333.21625        32.80025
G30  21014020.69627       420.88027     -1658.61827        41.80027  21014037.18525      7712.11925     -1238.47425        34.00025
G22  20741838.82425   1872802.55625       458.37025        32.50025                                                                
G17  23637292.54326    116733.83826      1802.77726        36.70026                                                                
G05  22278032.33925     21686.57025     -1144.11225        31.40025                                                                
G09  23236042.52224    -58187.48424     -4242.53024        27.30024                                                                
G13  22211831.86905     75056.84305      1625.28705        33.80005                                                                
G21  21558203.66625    899764.80925     -2808.12525        29.60025                                                                
E30  25645121.65207     50606.45007     -3390.44307        43.50007  25645133.34415  -2043928.92415     -2532.10815        33.60015
E27  23517677.15107     92354.09607     -1038.58007        42.30007  23517683.14715     76685.71715      -777.21615        32.70015
R08  19264239.74406-103180733.61906     -2083.95506        39.30006
R10  21079949.85406-112389500.72006     -4152.33806        38.10006
E07  24335594.31906    452969.24406     -2298.85106        37.10006  24335617.10324    345784.64424     -1719.09424        24.90024
C09  39221861.67006     86727.43706     -1243.96506        36.90006                                                                
E29  23790125.83906    115838.00006        29.99506        39.10006  23790118.34425  -1995903.73325        20.77225        31.60025
C24  24493374.78906    116675.84206       963.96706        37.10006                                                                
C07  38667458.47626    103680.57126      -474.20326        35.80026                                                                
C21  22372520.02726     42025.88526     -2849.69626        37.80026  22372533.21825     39345.75925     -2145.92325        33.20025
E21  25666190.76605   1420108.59005      1305.77505        34.50005  25666096.33124   1174173.75224       975.60524        26.80024
R12  22825873.67605-121953270.96905      1830.08905        34.10005
R01  20683209.61225-110585175.90625      1874.99425        31.90025
C14  24420181.66025    154205.50225      1407.20325        31.50025                                                                
R11  19609471.74525-104808631.03125     -1104.82625        35.30025
C10  38602572.59524    446718.51624      -266.97924        29.30024                                                                
C26  22052177.09525     75137.64825      -912.45525        32.10025  22052170.80024     64045.24124      -694.27924        29.40024
E19  26289627.47023    221181.70323      1231.08923        22.00023                                                                
> 2025 09 29 13 22 05.0000000  0 29                      
G07  22458128.46107    -22336.83207     -2546.00907        45.70007                                                                
G14  20229308.24106     27579.47006      -446.98206        40.40006  20229307.94225     27971.79925      -334.98525        32.70025
G30  21014088.14917     -1236.89517     -1658.53517        41.50017  21014102.83915      6474.32715     -1238.44915        34.70015
G13  22211259.56505     76682.23505      1624.38305        33.90005                                                                
G22  20741519.54525   1873260.69925       457.04325        32.50025                                                                
G17  23636688.46126    118529.33226      1790.68626        35.50026                                                                
G09  23236599.23724    -62427.66624     -4239.90724        27.70024                                                                
G05  22278035.33725     20538.86125     -1150.24425        30.20025                                                                
G21  21558487.86925    896954.23825     -2812.28225        29.60025                                                                
E30  25645517.37807     47216.33607     -3391.05907        43.90007  25645528.47005  -2046460.52605     -2532.37605        33.50005
E27  23517624.38707     91315.61007     -1039.60007        42.30007  23517631.58205     75910.25205      -776.56105        32.50005
R08  19264378.54806-103182813.86906     -2085.31006        39.40006
E07  24335781.98906    450670.66806     -2299.55206        37.60006  24335809.57024    344069.74724     -1713.28824        24.70024
C09  39221848.47906     85483.72106     -1244.58306        37.30006                                                                
R10  21080477.78906-112393646.06806     -4153.16906        37.90006
C24  24492941.88906    117639.87306       963.02506        37.00006                                                                
E21  25665700.90505   1421414.88305      1305.35805        34.50005  25665597.47724   1175149.60324       974.99224        25.50024
C21  22372821.91826     39179.74226     -2846.04626        37.30026  22372832.41025     37199.71525     -2146.39825        32.60025
R12  22825279.48805-121951431.24505      1829.07805        34.00005
R01  20682602.83225-110583266.04925      1871.49325        31.90025
C14  24419658.52225    155610.18325      1402.64625        31.40025                                                                
R11  19609435.47025-104809770.28125     -1105.19125        34.50025
C07  38667343.65525    103200.15225      -484.41225        35.20025                                                                
C10  38602372.93324    446454.59224      -263.59224        29.40024                                                                
C22  25554659.27824   2252396.91624     -4519.20924        26.30024                                                                
C26  22052078.46425     74226.37225      -910.68525        30.80025  22052088.65724     63351.74424      -693.04724        28.80024
E19  26289131.61323    222415.18123      1234.77123        22.00023                                                                
R07  22269867.19224-119235276.87324     -5059.68924        27.20024
E29  23789882.10706    115868.65406        29.82706        38.10006  23789856.02525  -1995880.92325        23.43225        30.70025
> 2025 09 29 13 22 06.0000001  0 28                      
G07  22458413.26407    -24885.82107     -2550.91007        45.30007                                                                
G14  20229179.03106     27129.21206      -452.43806        40.60006  20229181.12925     27635.46025      -337.57025        31.50025
G13  22210749.01805     78303.71505      1619.52305        34.20005                                                                
G22  20741244.03625   1873713.63425       450.32925        32.40025                                                                
G21  21558808.34825    894139.44025     -2816.90825        29.70025                                                                
G17  23636126.05025    120321.66725      1790.75425        34.50025                                                                
G09  23237208.71524    -66667.51724     -4239.68124        27.80024                                                                
G05  22278038.93524     19387.82324     -1152.70024        29.30024                                                                
G30  21014189.47906     -2898.54006     -1663.57806        41.20006  21014210.76505      5233.53005     -1242.29805        35.00005
E30  25645955.37507     43822.19607     -3396.15107        44.30007  25645966.16705  -2048995.13405     -2536.10805        33.50005
E27  23517612.99507     90273.05207     -1044.59307        42.30007  23517621.38905     75131.71005      -780.08105        32.50005
R08  19264552.72806-103184860.40506     -2090.90806        39.40006
E07  24336017.62606    448367.95406     -2304.78006        38.00006                                                                
C09  39221882.65606     84236.25906     -1249.33406        37.40006                                                                
R10  21081051.59206-112397813.53606     -4158.23906        37.80006
C24  24492543.46506    118599.94206       958.08606        36.80006                                                                
C21  22373165.48026     36326.96126     -2856.09926        36.90026  22373171.77525     35052.74425     -2147.43225        32.00025
E21  25665212.24305   1422717.36205      1300.57205        34.40005  25665262.60824   1176123.00124       972.17224        25.30024
R12  22824723.97205-121949575.46705      1823.96705        34.00005
E29  23789647.96906    115895.16206        24.43506        37.10006  23789646.77025  -1995862.75425        15.84925        31.00025
R01  20682040.72125-110581374.54425      1867.79325        31.90025
C07  38667213.84525    102722.58525      -476.14025        34.50025                                                                
C14  24419184.25125    157012.39225      1400.97125        31.40025                                                                
R11  19609435.77025-104810885.06525     -1113.68925        33.80025
C10  38602216.14225    446185.63425      -271.47425        29.60025                                                                
C26  22052036.49325     73313.31725      -913.94425        29.70025  22052056.87924     62657.60324      -694.46324        28.20024
R07  22270540.52624-119239995.03124     -5062.02324        26.20024
E19  26288676.22823    223652.16723      1238.73723        21.90023                                                                
> 2025 09 29 13 22 07.0000000  0 28                      
G07  22458653.09807    -27440.60807     -2557.68407        45.00007                                                                
G14  20229018.64226     26671.83326      -460.93926        40.60026  20229022.83925     27290.09625      -349.87525        31.40025
G13  22210183.61005     79918.25505      1611.82005        34.50005                                                                
G22  20740875.59125   1874158.65625       441.06725        32.30025                                                                
G21  21559098.84625    891315.33225     -2828.76225        29.70025  21559073.36423   1427776.31423     -2089.08723        18.60023
G09  23237773.52424    -70915.66324     -4252.29124        28.00024                                                                
G17  23635542.35525    122110.32525      1786.81925        33.50025                                                                
G05  22277991.86724     18228.56824     -1163.36424        28.50024                                                                
G30  21014259.33116     -4565.90116     -1670.21816        40.90016  21014276.11905      3988.23405     -1247.54505        34.60005
E30  25646354.99807     40422.29307     -3402.78207        44.60007  25646364.59105  -2051534.08605     -2541.12305        33.60005
E27  23517562.63007     89224.02407     -1052.26307        42.30007  23517572.22405     74348.20405      -785.98705        32.40005
R08  19264700.82506-103186991.99306     -2099.25506        39.40006
E07  24336201.99806    446058.79406     -2312.38206        38.10006                                                                
C09  39221890.75006     82983.41006     -1255.54206        37.50006                                                                
R10  21081589.12006-112402010.75006     -4164.52806        37.70006
C24  24492118.65906    119553.92806       950.94406        36.70006                                                                
C21  22373484.45926     33469.02226     -2860.51626        36.60026  22373464.37325     32900.99425     -2154.13825        31.60025
E21  25664748.46405   1424014.12305      1293.90105        34.40005  25664766.75224   1177093.68624       969.32724        27.20024
R12  22824165.15925-121947924.53325      1814.12125        33.90025
C07  38667011.18525    102238.97125      -486.63825        34.20025                                                                
E29  23789392.84616    115915.85916        17.79216        36.30016  23789394.04525  -1995852.21025         6.73025        30.40025
R01  20681449.53025-110579549.58725      1852.64425        31.80025
C14  24418665.31025    158411.77425      1397.96825        31.40025                                                                
R11  19609400.39525-104812029.66825     -1124.21525        33.30025
C10  38602008.38625    445909.01425      -280.45125        29.60025                                                                
C26  22051984.02924     72387.42724      -932.30724        28.80024  22051984.32924     61960.65824      -698.34724        27.60024
R07  22271260.92724-119245188.06924     -5070.16124        25.50024
E19  26288177.07423    224883.58623      1228.63523        21.80023                                                                
> 2025 09 29 13 22 08.0000000  0 28                      
G07  22458936.70207    -30000.05007     -2561.76807        44.90007                                                                
G14  20228877.44016     26209.92816      -464.16716        40.30016  20228897.52625     26938.81325      -354.24325        31.30025
G13  22209654.47625     81530.16625      1609.59425        34.50025                                                                
G22  20740551.21525   1874599.29325       438.44425        32.30025                                                                
G21  21559415.42725    888489.02025     -2827.41125        29.70025                                                                
G17  23634983.54125    123895.75025      1783.80725        32.70025                                                                
G09  23238380.00424    -75170.25324     -4257.80824        28.20024                                                                
G05  22278014.65124     17059.98424     -1173.24724        28.10024                                                                
G30  21014354.66506     -6238.52706     -1675.25706        40.70006  21014383.14525      2742.60625     -1245.79225        34.40025
E30  25646775.60707     37017.16207     -3407.74207        44.60007  25646793.89405  -2054076.97505     -2544.85505        33.60005
E27  23517538.04707     88169.20507     -1057.71307        42.30007  23517553.03725     73560.62725      -789.61225        31.90025
R08  19264872.00706-103189084.50606     -2105.14706        39.40006
E07  24336413.95106    443744.00606     -2317.60006        38.10006  24336448.12824   1818282.16124     -1726.84024        25.40024
C24  24491722.03406    120502.20906       945.42806        37.10006                                                                
C09  39221894.94706     81725.16406     -1260.94406        37.50006                                                                
R10  21082153.92906-112406192.71306     -4169.88206        37.60006
C21  22373782.15316     30605.40116     -2866.45916        36.30016  22373789.34825     30743.06525     -2161.01725        30.40025
E21  25664277.79005   1425305.65005      1288.90905        34.50005  25664180.95724   1178061.87324       966.93724        25.80024
C07  38666911.05415    101750.52815      -490.85715        34.20015                                                                
R12  22823624.63325-121946210.92625      1811.62125        33.80025
E29  23789169.50106    115931.82806        12.85506        35.70006  23789175.19725  -1995843.30825         8.08225        30.30025
R01  20680894.61525-110577756.75325      1852.44125        31.70025
C14  24418169.45325    159804.52725      1389.43725        31.30025                                                                
R11  19609401.59425-104813210.97325     -1120.74925        32.90025
C10  38601845.59825    445628.35325      -282.68325        29.50025                                                                
C26  22051935.76324     71455.08924      -935.56224        28.10024  22051951.35224     61261.08424      -700.88724        27.10024
R07  22271976.83124-119250195.75424     -5074.42724        25.00024
E19  26287721.98923    226106.72623      1218.99923        21.70023                                                                
> 2025 09 29 13 22 09.0000000  0 28                      
G07  22459199.32007    -32564.26307     -2566.59607        45.20007                                                                
G30  21014443.10406     -7916.07206     -1680.00406        40.50006  21014452.09825      1491.10525     -1254.43725        33.50025
G14  20228729.94206     25742.49106      -470.20306        40.10006  20228749.12825     26586.96325      -352.13425        31.00025
G13  22209126.54225     83137.11025      1604.71025        34.40025                                                                
G22  20740264.01425   1875034.53825       432.54825        32.20025                                                                
G21  21559710.12325    885656.54325     -2835.55725        29.60025                                                                
G17  23634429.82525    125675.27525      1776.57525        32.20025                                                                
G09  23238932.22224    -79427.77524     -4258.98524        28.20024                                                                
G05  22277961.28824     15888.39324     -1173.09524        27.80024                                                                
E30  25647196.51507     33606.69907     -3413.12707        44.50007  25647205.80905  -2056622.96005     -2547.53205        33.60005
E27  23517499.67407     87109.52007     -1062.11907        42.30007  23517521.25925     72767.97025      -795.19625        31.80025
R08  19265024.60106-103191176.24806     -2110.16006        39.40006
C24  24491297.82706    121445.22606       940.38506        37.90006                                                                
C09  39221905.44006     80462.10106     -1265.47106        37.60006                                                                
E07  24336622.30706    441424.16706     -2322.36306        38.00006  24336643.89224   1816551.43524     -1730.72424        28.80024
R10  21082691.75606-112410328.14506     -4174.80106        37.60006
E21  25663792.12605   1426592.08505      1283.88805        34.80005  25663685.40024   1179022.86124       957.38824        24.70024
C07  38666787.54005    101257.34005      -495.56005        34.20005                                                                
C21  22374095.43616     27737.50216     -2870.03616        36.00016  22374107.12825     28580.15125     -2165.40425        30.10025
R12  22823026.54715-121944287.12215      1805.61215        33.70015
E29  23788916.17605    115942.09105         7.66005        35.20005  23788935.36325  -1995829.51925        16.23325        30.20025
C14  24417680.49225    161190.48025      1382.55225        31.30025                                                                
R01  20680319.91225-110575957.03225      1843.36225        31.60025
R11  19609382.70725-104814382.33425     -1131.67925        32.50025
C10  38601678.01425    445340.38825      -291.61625        29.50025                                                                
C26  22051880.60124     70520.10424      -936.30824        27.70024  22051888.09624     60556.34324      -707.32524        26.60024
R07  22272635.47524-119254995.87524     -5093.58224        24.70024
E19  26287240.52223    227323.20723      1213.15223        21.60023                                                                
> 2025 09 29 13 22 10.0000000  0 29                      
G07  22459468.53307    -35130.57007     -2567.35407        46.00007                                                                
G30  21014541.43606     -9596.37706     -1681.68306        40.40006  21014553.12825       234.70425     -1258.85025        32.80025
G14  20228593.83626     25271.93026      -472.12326        39.70026  20228622.31625     26231.78225      -356.84625        30.70025
G22  20739948.93225   1875465.82525       429.30925        32.10025                                                                
G17  23633872.81025    127451.94125      1775.23425        31.80025                                                                
G21  21560029.10225    882819.57125     -2839.21825        29.60025                                                                
G09  23239532.70624    -83688.28224     -4261.99524        28.10024                                                                
G13  22208591.11225     84741.85425      1603.64325        34.00025                                                                
G05  22277968.78324     14714.09924     -1175.64324        27.70024                                                                
G08  24359616.38822   2109086.57022     -3102.73722        16.50022                                                                
E30  25647627.01707     30193.56807     -3413.71207        44.40007  25647633.61305  -2059171.55305     -2549.89605        33.20005
E27  23517484.68407     86046.10907     -1065.27207        42.30007  23517499.37425     71974.14625      -794.40825        33.80025
R08  19265206.57506-103193329.28606     -2113.65306        39.50006
C09  39221933.92006     79196.53906     -1266.80906        38.20006                                                                
C24  24490894.30726    122385.72426       939.23826        37.90026                                                                
E07  24336843.55406    439100.70506     -2325.27206        38.00006  24336867.53725   1814815.82525     -1738.05125        29.80025
R10  21083260.16306-112414531.45906     -4176.13806        37.60006
C07  38666625.95205    100760.89105      -498.07805        34.50005                                                                
E21  25663340.03915   1427875.89815      1282.50115        34.80015  25663230.01624   1179981.95524       958.14624        23.80024
R12  22822470.13305-121942490.19805      1802.85005        34.20005
C21  22374421.31026     24865.12526     -2874.61426        35.70026  22374438.09925     26417.60125     -2162.36725        29.70025
E29  23788706.92125    115949.59525         6.12425        34.90025  23788711.11825  -1995815.21625        14.56025        30.00025
C14  24417196.62725    162573.14925      1381.02625        31.30025                                                                
R07  22273418.23325-119260363.53425     -5093.36325        32.10025
R11  19609369.51625-104815486.41425     -1131.30625        32.10025
C10  38601501.13725    445050.35425      -291.06825        29.50025                                                                
R01  20679736.51625-110574015.05025      1845.27025        30.80025
C26  22051851.82124     69585.90924      -933.79924        27.40024  22051846.72424     59845.46424      -713.94824        26.10024
E19  26286810.02023    228535.70823      1210.50923        21.60023                                                                
> 2025 09 29 13 22 11.0000000  0 29                      
G07  22459741.04507    -37697.39307     -2567.07807        46.30007                                                                
G30  21014643.66506    -11277.45406     -1681.46306        40.30006  21014654.15825     -1020.31625     -1254.32825        32.80025
G14  20228465.52516     24798.69116      -474.57716        39.30016  20228475.11825     25878.75325      -351.95225        29.90025
G22  20739629.35325   1875894.96725       428.06825        32.10025                                                                
G17  23633312.49825    129228.65225      1776.73325        31.60025                                                                
G09  23240064.23824    -87944.76724     -4254.47124        28.00024                                                                
G05  22277984.37224     13534.23124     -1182.65424        27.50024                                                                
G13  22208079.96625     86346.95225      1605.27425        33.60025                                                                
G08  24359993.52722   2105980.05322     -3106.51522        16.90022                                                                
G21  21560346.28325    879978.90825     -2842.50625        29.50025                                                                
R12  22821905.92306-121940651.23606      1802.69706        35.50006
E27  23517463.39907     84981.46607     -1065.25907        42.20007  23517484.98425     71178.98725      -795.82625        33.50025
R08  19265385.85106-103195465.46906     -2114.20006        39.60006
E07  24337072.59506    436776.20506     -2325.01706        38.00006  24337086.08625   1813080.83225     -1734.68225        29.60025
C09  39221952.80706     77930.02306     -1266.99306        38.20006                                                                
R10  21083823.77306-112418707.31706     -4176.59306        37.50006
C24  24490509.37326    123324.72326       938.24826        37.80026  24490490.48623   1682677.04923       715.66723        19.10023
E30  25648048.22607     26779.49807     -3414.78707        43.30007  25648064.41405  -2061720.86105     -2549.66405        33.30005
C07  38666488.64705    100263.17905      -498.34405        35.10005                                                                
E21  25662871.46405   1429158.95405      1282.67605        34.80005  25662766.83623   1180941.36323       959.56423        22.90023
C21  22374780.46215     21992.38415     -2872.92015        35.40015  22374771.46824     24253.82324     -2164.39024        29.30024
E29  23788481.77715    115955.84915         6.37915        34.50015  23788491.07025  -1995798.92325        17.28725        29.70025
C14  24416707.36525    163953.08625      1378.57125        31.30025                                                                
R07  22274120.64725-119265299.99225     -5087.92725        31.80025
R11  19609341.93525-104816514.03425     -1134.99825        31.80025
C10  38601326.95725    444759.50225      -291.26225        29.50025                                                                
R01  20679167.21025-110572147.26025      1843.22025        30.50025
C26  22051804.75324     68649.63624      -937.31124        27.20024  22051802.65524     59137.21924      -706.92724        25.60024
E19  26286339.94623    229744.63823      1207.14423        21.60023                                                                
> 2025 09 29 13 22 12.0000000  0 29                      
G07  22459982.37807    -40268.69207     -2573.53607        46.30007                                                                
G30  21014720.71206    -12962.05506     -1686.36106        40.30006  21014735.40125     -2276.79925     -1257.21325        33.80025
G14  20228315.62806     24321.04706      -479.84706        38.90006  20228336.31425     25524.26825      -355.21325        31.20025
G13  22207526.84915     87944.00615      1593.03115        33.50015                                                                
G22  20739318.76825   1876319.71025       422.54425        32.10025                                                                
G17  23632747.98925    131002.86425      1772.96225        31.40025                                                                
G21  21560672.45725    877135.33225     -2845.03125        29.50025                                                                
G09  23240656.62824    -92204.39324     -4261.19524        27.90024                                                                
G08  24360349.68122   2102865.50822     -3118.55722        16.90022                                                                
G05  22277977.17724     12347.66924     -1189.90824        27.50024                                                                
E07  24337276.45406    434447.36806     -2331.00206        39.80006  24337296.54025   1811342.01125     -1740.73525        29.50025
E27  23517430.12207     83912.26807     -1071.47507        42.10007  23517449.90825     70380.71525      -799.82725        33.40025
R12  22821332.42006-121938858.89806      1796.62206        40.20006
R08  19265539.94406-103197565.63906     -2121.04106        39.70006
E30  25648458.04207     23362.16407     -3418.96307        42.40007  25648478.12805  -2064273.25505     -2553.93505        33.50005
R10  21084377.78906-112422928.93406     -4181.00006        38.00006
C09  39221958.50306     76660.28406     -1271.35006        38.10006                                                                
C24  24490094.76016    124260.44416       934.08116        37.70016  24490079.77123   1683387.47023       710.42023        19.30023
C07  38666361.53505     99761.92305      -503.02705        35.20005                                                                
E21  25662399.59025   1430437.96225      1276.98325        35.00025  25662283.27123   1181896.05723       952.33723        22.20023
C21  22375097.04315     19115.99915     -2878.20415        35.20015  22375085.65124     22080.11124     -2178.67724        28.50024
E29  23788251.23625    115958.53425        -0.10125        34.20025  23788256.33324  -1995795.72224        -3.34424        29.40024
R07  22274823.96025-119270339.84025     -5101.53625        31.80025
C14  24416215.40625    165330.61625      1376.32425        31.20025                                                                
R11  19609338.93725-104817770.26425     -1140.67525        31.60025
C10  38601161.17225    444465.10825      -296.16325        29.80025                                                                
R01  20678607.79825-110570428.61525      1837.11225        30.10025
C26  22051738.49924     67709.86124      -941.52624        27.20024  22051747.19324     58430.75124      -705.58024        25.20024
E19  26285896.55223    230948.32023      1201.05623        21.80023                                                                
> 2025 09 29 13 22 13.0000000  0 29                      
G07  22460224.01007    -42844.66507     -2578.30707        46.20007                                                                
G30  21014801.65616    -14651.11816     -1691.29216        40.20016  21014819.34325     -3538.05125     -1263.63725        33.60025
G14  20228171.42806     23838.01406      -484.97606        38.60006  20228190.31525     25162.89125      -364.82325        30.80025
G13  22206976.43025     89535.90425      1589.31925        33.40025                                                                
G22  20739014.77925   1876743.22725       422.90325        32.10025                                                                
G17  23632180.18225    132771.49125      1765.83225        31.30025                                                                
G21  21560964.45525    874290.53525     -2845.40425        29.60025                                                                
G05  22277970.28224     11161.53724     -1185.91624        27.40024                                                                
G09  23241245.12124    -96475.16424     -4276.34024        27.70024                                                                
G08  24360710.03122   2099742.11122     -3127.82022        17.00022                                                                
E07  24337489.00707    432113.60707     -2336.22207        45.50007  24337500.09925   1809599.57125     -1744.24725        30.60025
E27  23517412.13407     82838.37007     -1076.24707        42.00007  23517413.33425     69578.99025      -803.45225        33.10025
R08  19265700.03306-103199697.98806     -2126.13106        39.80006
R12  22820755.91926-121937050.50726      1792.18326        40.10026
R10  21084911.71906-112427044.53506     -4185.89506        38.20006
C09  39221971.69426     75385.46426     -1277.35926        38.10026                                                                
E30  25648860.06407     19939.77007     -3424.92007        41.70007  25648890.04305  -2066828.51305     -2556.68805        33.40005
C24  24489691.24006    125190.86906       927.77706        37.60006  24489690.64024   1684088.82324       696.81824        23.50024
C26  22051679.74025     66763.25025      -950.02825        30.60025  22051689.63324     57719.94124      -712.97924        24.70024
C07  38666215.53605     99257.57505      -505.89305        35.30005                                                                
E21  25661902.83415   1431712.73915      1273.41115        35.00015  25661928.31725   1182848.34225       951.08025        30.10025
C21  22375393.23825     16233.74425     -2885.18825        35.00025  22375400.73224     19904.69024     -2176.27424        27.60024
E29  23788010.50325    115956.77225        -3.73425        33.90025  23788020.09624  -1995796.67824        -3.03524        29.10024
R07  22275541.06425-119275453.21525     -5104.93525        31.80025
C14  24415733.34025    166702.58825      1369.19325        31.20025                                                                
R11  19609313.45525-104818904.92925     -1141.54225        31.40025
C10  38600980.39725    444166.82325      -300.23125        29.90025                                                                
R01  20677994.12325-110568420.08725      1836.83025        29.80025
E19  26285425.57923    232145.50423      1193.93423        21.90023                                                                
> 2025 09 29 13 22 14.0000000  0 28                      
G07  22460494.42307    -45424.08807     -2581.14707        46.10007                                                                
G30  21014907.78206    -16344.16606     -1695.04006        40.20006  21014921.57316     -4802.45416     -1265.97716        39.20016
G14  20228042.81706     23351.87506      -487.94206        38.40006  20228054.50925     24798.75925      -365.50925        30.20025
G22  20738715.58615   1877160.31815       413.87715        32.20015                                                                
G13  22206458.68925     91125.94125      1589.10525        33.20025                                                                
G17  23631610.57625    134538.69425      1766.49025        31.30025                                                                
G21  21561297.22525    871438.35725     -2855.86725        29.70025                                                                
G08  24361068.28322   2096613.22022     -3131.63522        17.40022                                                                
G05  22277975.97824      9971.56424     -1191.89324        27.40024                                                                
E07  24337711.15307    429776.52507     -2338.74007        45.40007  24337726.44325   1807854.78725     -1745.95625        30.60025
E27  23517389.35007     81759.83607     -1080.85107        41.90007  23517400.44225     68773.70925      -807.05825        32.80025
R08  19265873.31306-103201802.75706     -2130.20706        39.80006
R12  22820204.30116-121935277.28016      1788.08916        39.80016
R10  21085480.72506-112431248.61406     -4189.50706        38.50006
E30  25649301.65806     16513.59906     -3428.05806        41.10006  25649322.34406  -2069386.74306     -2559.71306        36.00006
C24  24489287.41926    126116.91626       923.85726        37.40026  24489296.11324   1684787.61024       697.50424        23.70024
C09  39221990.58126     74108.99226     -1277.29726        37.80026                                                                
E21  25661440.85405   1432983.85305      1269.03105        34.90005  25661467.53625   1183796.98325       946.81825        29.60025
C07  38666077.03225     98748.96225      -510.74525        35.30025                                                                
C21  22375722.11025     13348.42825     -2886.84525        34.80025  22375737.10024     17726.29424     -2179.88324        27.40024
C26  22051656.05625     65812.80925      -952.35625        34.00025  22051651.25924     57004.02924      -718.46424        24.30024
E29  23787794.35325    115950.13625        -8.32425        33.70025  23787792.25424  -1995799.64424        -3.97124        28.70024
R07  22276296.24125-119280671.53125     -5106.68225        32.10025
C14  24415223.39325    168066.75525      1360.26425        31.10025                                                                
R11  19609309.85725-104820061.00425     -1153.81825        31.20025
C10  38600825.10525    443866.85825      -300.80525        29.90025                                                                
R01  20677439.50625-110566631.07725      1826.12925        29.50025
E19  26284977.08923    233337.67323      1189.66023        22.00023                                                                
> 2025 09 29 13 22 15.0000000  0 29                      
G07  22460755.54207    -48003.26307     -2579.04907        46.00007                                                                
G30  21014990.82506    -18037.75706     -1693.86106        41.10006  21015005.81406     -6067.15006     -1264.84206        38.60006
G14  20227899.51706     22864.04706      -488.67206        38.20006  20227916.90525     24435.49925      -362.82425        29.90025
G13  22205925.95715     92715.01015      1588.58415        33.10015                                                                
G22  20738401.40325   1877574.47025       412.68225        32.30025                                                                
G17  23631061.05725    136303.48525      1763.58425        31.30025                                                                
G21  21561587.42425    868586.62525     -2851.50725        29.70025                                                                
G05  22277951.09524      8779.18424     -1193.58224        27.40024                                                                
G09  23242392.72624   -105042.96224     -4283.31424        24.30024                                                                
G08  24361420.24023   2093483.19923     -3130.58523        17.70023                                                                
E07  24337914.71217    427439.21117     -2336.67817        45.10017  24337933.89925   1806109.02525     -1746.24925        30.60025
R08  19266036.70006-103203951.96006     -2129.32006        39.70006
E30  25649715.07206     13087.25006     -3426.43606        40.70006  25649736.35706  -2071945.48506     -2558.99706        36.50006
R10  21086030.84506-112435450.39806     -4188.54506        38.80006
E27  23517354.27426     80680.46826     -1079.78426        40.80026  23517368.06525     67968.47425      -805.21225        32.70025
R12  22819633.79616-121933500.98916      1789.34016        39.60016
E21  25660965.38305   1434254.46505      1270.35905        35.00005  25660980.67324   1184746.32724       949.69524        28.70024
C07  38665948.72115     98239.00515      -510.62815        35.20015                                                                
C21  22376037.79115     10459.89015     -2890.14615        34.80015  22376056.67824     15550.02724     -2175.20024        27.10024
E29  23787544.02615    115944.46615        -6.18715        33.60015  23787559.31524  -1995800.53324         0.15024        28.50024
R07  22276985.76425-119285636.31325     -5107.50225        32.60025
C09  39221991.18126     72830.84226     -1278.98826        37.00026                                                                
C26  22051593.10025     64863.19525      -949.19925        33.80025  22051597.89624     56281.72724      -725.49624        23.90024
C24  24488849.42216    127043.20416       926.40816        37.00016  24488873.10624   1685486.24924       698.56424        24.50024
C14  24414713.74525    169433.78825      1368.46425        31.00025                                                                
R11  19609306.56025-104821315.69925     -1148.94225        31.00025
C10  38600633.23825    443566.35425      -300.77425        29.90025                                                                
R01  20676863.90524-110564826.00224      1831.34424        29.40024
E19  26284533.69623    234530.89223      1193.74423        22.00023                                                                
> 2025 09 29 13 22 16.0000000  0 29                      
G07  22461017.26107    -50580.13307     -2575.71507        46.50007                                                                
G30  21015074.16707    -19729.53507     -1690.87007        41.60007  21015089.45606     -7330.50006     -1262.67606        38.10006
G14  20227751.41906     22377.93406      -485.25606        38.00006  20227766.10924     24072.81424      -362.39724        29.40024
G13  22205389.02925     94304.14325      1589.16325        33.00025                                                                
G22  20738063.83725   1877992.23525       419.57125        32.30025                                                                
G17  23630474.06325    138069.70125      1766.92725        31.40025                                                                
G21  21561905.20425    865739.17025     -2845.31525        29.80025                                                                
G05  22277939.40324      7588.49224     -1189.84824        27.50024                                                                
G09  23242992.31124   -109324.09224     -4281.12724        24.20024                                                                
G08  24361793.78123   2090355.28223     -3126.86223        17.80023                                                                
E07  24338128.16407    425102.94507     -2335.99107        44.70007  24338140.15625   1804364.78625     -1743.47625        30.60025
E27  23517318.29916     79603.86516     -1075.96916        40.50016  23517335.38725     67164.27525      -803.68125        32.50025
R08  19266198.28806-103206093.50006     -2127.61006        39.70006
E30  25650124.58806      9662.66706     -3423.69706        40.50006  25650148.57216  -2074503.04316     -2556.96316        36.30016
R10  21086576.76706-112439630.06406     -4185.54806        38.90006
R12  22819060.59316-121931713.22816      1791.27716        39.30016
E21  25660487.51405   1435526.68505      1273.02405        35.30005  25660506.70124   1185694.17824       947.10424        28.40024
C21  22376351.07405      7572.30605     -2887.10605        35.00005  22376366.96324     13372.20324     -2178.60024        26.40024
C07  38665810.81615     97731.37515      -506.46715        35.10015                                                                
C09  39222019.36126     71555.35926     -1274.14826        36.50026                                                                
E29  23787325.77725    115938.22925        -6.27025        33.50025  23787322.18024  -1995799.53624         1.94024        28.20024
R07  22277756.83025-119291040.74425     -5108.52425        32.60025
C26  22051540.33625     63913.23025      -950.14125        33.50025  22051540.93624     55558.58924      -723.55524        23.60024
C24  24488450.09926    127971.93726       929.95526        36.10026  24488461.49124   1686185.13424       699.00824        24.30024
C14  24414226.28325    170800.09825      1365.94825        30.90025                                                                
R11  19609284.97425-104822473.29325     -1144.20225        30.90025
C10  38600464.45525    443264.13325      -303.07825        29.80025                                                                
R01  20676298.19724-110563076.76224      1832.02524        29.20024
E19  26284047.43323    235726.80723      1197.26123        22.00023                                                                
> 2025 09 29 13 22 17.0000000  0 29                      
G07  22461279.58007    -53157.71307     -2577.93207        47.20007                                                                
G30  21015179.09407    -21421.76407     -1692.45407        42.10007  21015191.38606     -8594.01806     -1263.60106        37.70006
G14  20227631.80206     21891.92606      -486.70506        37.80006  20227640.79624     23710.90624      -361.51924        29.20024
G13  22204856.59815     95893.94515      1590.13615        33.00015                                                                
G22  20737770.04115   1878408.98115       416.23815        32.20015                                                                
G17  23629917.94825    139837.37825      1768.40625        31.40025                                                                
G21  21562231.67825    862891.67825     -2847.50725        29.80025                                                                
G05  22277946.29924      6397.35324     -1191.36124        28.10024                                                                
G09  23243593.99524   -113601.32224     -4275.27624        24.20024                                                                
G08  24362167.62223   2087227.19223     -3128.17423        17.80023                                                                
E07  24338345.51427    422766.43727     -2336.62627        44.30027  24338365.60025   1802620.77425     -1743.89625        31.40025
E27  23517302.11106     78526.11106     -1077.32906        40.40006  23517320.99725     66359.59025      -804.92725        31.40025
R08  19266361.37606-103208143.86806     -2129.74306        39.70006
E30  25650570.97906      6238.03106     -3425.41106        40.30006  25650583.57126  -2077062.00126     -2559.65726        36.00026
R10  21087146.07306-112443837.19206     -4186.16906        38.90006
R12  22818512.87206-121929961.40106      1790.49406        39.00006
C21  22376683.24516      4684.36516     -2888.11716        35.50016  22376701.23224     11193.34724     -2179.37124        26.30024
E21  25660029.13106   1436799.35206      1272.89006        35.60006  25660040.22424   1186642.95024       949.23324        27.70024
C07  38665695.09625     97225.63925      -504.78725        35.00025                                                                
C09  39222025.65726     70280.87526     -1273.98426        36.00026                                                                
E29  23787079.64715    115932.62315        -5.29115        33.30015  23787105.43024  -1995799.39224        -0.28324        28.10024
R07  22278440.05725-119295873.78925     -5104.14425        32.50025
C26  22051501.66325     62961.84725      -952.09025        33.30025  22051513.05523     54832.88223      -726.99123        23.20023
C14  24413718.43425    172167.66825      1368.19925        30.80025                                                                
R11  19609236.70825-104823390.05025     -1150.00325        30.80025
C10  38600319.35525    442965.74925      -296.46625        29.80025                                                                
R01  20675730.09024-110561213.56124      1834.15424        29.10024
E19  26283602.24123    236925.43523      1199.98423        22.20023                                                                
C24  24488030.98925    128899.50325       926.98225        35.30025  24488063.36624   1686885.46124       701.04824        24.10024
> 2025 09 29 13 22 18.0000000  0 30                      
G07  22461518.81417    -55735.99717     -2578.63517        47.20017                                                                
G30  21015260.33807    -23113.61707     -1691.66307        43.20007  21015275.02826     -9852.11126     -1255.38026        37.30026
G14  20227490.00016     21406.12416      -485.44916        37.60016  20227496.59524     23349.01924      -361.87724        28.90024
G05  22277931.00925      5204.30725     -1193.99925        30.70025                                                                
G13  22204310.67625     97483.66225      1589.67325        32.90025                                                                
G22  20737440.26925   1878823.92125       414.03525        32.20025                                                                
G17  23629357.03725    141605.29925      1768.04225        31.40025                                                                
G21  21562548.85825    860040.15125     -2853.54325        29.80025                                                                
G09  23244156.40524   -117878.54324     -4277.21424        24.20024                                                                
G08  24362515.98123   2084100.93923     -3125.33223        17.80023                                                                
E07  24338557.16717    420429.79417     -2337.45917        43.90017  24338570.95825   1800876.24625     -1744.78625        31.10025
E30  25650984.09306      2812.75906     -3425.33606        40.10006  25650995.48516  -2079620.08116     -2557.63816        36.50016
E27  23517261.03906     77447.97606     -1078.57506        40.20006  23517282.02425     65544.46225      -820.34825        30.30025
R08  19266527.76006-103210309.16106     -2130.23606        39.60006
R10  21087690.79506-112448009.23006     -4186.77606        38.90006
R12  22817932.77426-121928133.13726      1787.37926        38.70026
C21  22377006.72116      1795.51716     -2889.29916        36.20016  22377017.81324      9015.34224     -2177.57924        27.30024
E21  25659529.67706   1438071.16606      1271.38606        35.70006  25659562.05524   1187592.48224       949.91024        27.30024
C07  38665569.18325     96717.82125      -508.85925        34.80025                                                                
C09  39222037.04926     69004.11026     -1277.90426        35.60026                                                                
E29  23786853.90425    115927.96125        -4.18925        33.20025  23786867.69425  -1995802.07725        -4.09925        30.50025
C26  22051441.70525     62011.23425      -950.22825        33.10025  22051464.18923     54098.50623      -738.71023        22.80023
R07  22279129.58025-119300838.57525     -5109.93225        32.40025
C24  24487642.45825    129826.47525       926.67425        34.70025  24487647.25524   1687585.04024       699.20424        23.90024
C14  24413239.06625    173537.19125      1370.49925        30.80025                                                                
R11  19609219.32025-104824569.05425     -1148.19525        30.80025
C10  38600120.29325    442667.13725      -298.72525        29.70025                                                                
R01  20675156.28724-110559418.43024      1829.49624        29.00024
E19  26283147.75523    238121.53423      1194.83323        22.20023                                                                
C35  26552618.90423   3353362.42523      1000.99323        21.80023                                                                
> 2025 09 29 13 22 19.0000000  0 30                      
